~Version Information
 VERS.           2.0     :   CWLS log ASCII Standard -VERSION 2.0
 WRAP.           NO      :   One line per depth step
~Well Information
#MNEM.UNIT      VALUE/NAME              DESCRIPTION
#--------     --------------            ---------------------
 STRT.M           579.5000              :START DEPTH
 STOP.M          5115.5000              :STOP DEPTH
 STEP.M             0.5000              :STEP
 NULL.             -999.25              :NULL VALUE
 COMP.    ConocoPhillips                :COMPANY
 WELL.    Poseidon 1                    :WELL
 FLD .    Exploration                   :FIELD
 LOC .                                  :LOCATION
 PROV.                                  :PROVINCE
 SRVC.    Schlumberger D&M              :SERVICE COMPANY
 CTRY.                                  :COUNTRY
 DATE.    28-Apr-09                     :LOG DATE
 UWI .                                  :UNIQUE WELL ID
 LATI.DEG -13/37/16.79                   : Latitude
 LONG.DEG 122/18/23.99                  : Longitude
 GDAT.                                  : Geodetic Datum
~PARAMETER INFORMATION
~CURVE INFORMATION
#MNEM    .UNIT     API CODE             Curve Description
 DEPT    .M                             :   Along hole depth
 ECGR    .gAPI                          :   EDTC Corrected Gamma-Ray
 ATRX    .ohm.m                         :   Array Induction Two Foot Rxo
 ATRT    .ohm.m                         :   Array Induction Two Foot Rt
 NPHI    .pu                            :   Thermal Neutron Porosity (Ratio Method)
 CAL1    .in                            :   Caliper 1
 HDAR    .in                            :   Hole Diameter from Area
 HROM    .g/cm3                         :   LDS High Resolution Corrected Bulk Density
 DTSM    .us/ft                         :   Delta-T Shear
 DTCO    .us/ft                         :   Delta-T Compressional
#
# Curve              Start        Stop     Minimum     Maximum
# ------------------------------------------------------------
#
# ECGR            904.0000   5108.0000      5.0321    198.6361
# ATRX            579.5000   5114.0000      0.1100   1950.0000
# ATRT            579.5000   5114.0000      0.1803   1950.0000
# NPHI           3858.0000   5104.5000      1.0400     50.1900
# CAL1           3845.0000   5003.0000      4.5412     12.7663
# HDAR           3884.0000   5110.0000      5.8056     12.6868
# HROM           3887.0000   5115.0000      1.4423      3.0358
# DTSM           4395.0000   4974.0000     83.2234    221.9217
# DTCO           4395.0000   4974.0000     51.4416    111.5382
# ******************************
# 
# ************************************************************
#
# #
# LOCN 	LAT:	13o 37' 16.79" S			WELL NAME:	Poseidon 1
# 	LONG:	122o 18' 23.99" E
# 	EASTING:	425055.467m E	NORTHING: 	8493875.264m N	ZONE:	51	GDA 94
# SHOT POINT:		SEISMIC LINE:		STATUS:	P & A
# SEISMIC SURVEY:		INLINE:	XLINE:
# ELEVN SF:	494.0m	DATUM KB:	26.4m	OPERATOR:	ConocoPhillips
# BASIN :		Browse	TOTAL D:	5112.1m	PARTNERS:	Karoon
# SPUD DATE:	26/01/2009	COMPLN DATE:	29/05/2009	LEASE:	WA-315-P
# TARGET:	Plover SS			DRILLER:	Transocean
# DATA SOURCE:	WCR, logs			RIG:	Sedco 703
# #
# HOLE AND CASING DATA:
# 	Hole 	Hole	Casing	Casing 	Weight	Grade	Joints	Cement	TOC
# 	Size	Depth	Size	Depth	lb/ft
# 	36”	581.8m	30”	578m	310	X-52	5	1105 sx G at SG 1.9	Seafloor
# 								185 sx G at SG 1.9 – top up
# 	17.5”	2296m	13 3/8”	2287.5m	72	P-110	143	688 sx G at SG 1.5
# 								500 sx G at SG 1.9
# 	12.25”	3898m	9 5/8”	3890.8m	53.5	P-110	274	202 sx G at SG 1.62	
# 								133 sx G at SG 1.98
# 	9.5”	3965m	7 5/8”	3957m	30.5	EX-80	14	
# 	8.5”	4588m	7”	4587.5m	32 / 29	P110/L80	47/20	213 sx G at SG 1.9
# 	6”	5112.1m	5”	5088.4m	18	P-110	72	116 sx G at SG 1.9
# #
# TEMPERATURES:
# 	Depth Driller	Logger	Temp	Log Type	Time since circ	Circ Time
# 	3965m	3960m	104 deg C	FMI	22.78 hrs	2.5 hrs
# 	5112.1m	5118m	160 deg C	CMR	22.83 hrs
# 			162 deg C	HNGS	36.17 hrs
# 		4990m	165 deg c	Sonic Scanner	47.47 hrs
# #
# MUD PROPERTIES:
# Depth (L)	Fluid Type	SG	Vis.	pH	Fl cc	Rm	Rmf	Rmc
# 3965m	KCl-Polymer	1.29				0.167 at 18.6 deg C	0.244 at 17.8 deg C	0.261 at 18 deg C
# 		KCl	6%	Barite 	7.5%
# 5112.1m	Novatec SBM	1.20			3.6	
# 				Barite	10.3%
# #
#
# DEVIATION SURVEY:		(Schlumberger)
#	Depth	Dev (deg)	Azimuth (deg)	Depth	Dev (deg)	Azimuth (deg)
#	0.0m	0.00	0.00	520.5m	0.00	0.00
#	527.6m	0.39	259.27	552.8m	1.09	19.41
#	607.9m	0.33	161.06	636.3m	0.28	157.46
#	666.2m	0.42	156.27	723.3m	0.49	158.80
#	752.4m	0.76	145.50	811.0m	0.69	144.79
#	868.3m	0.66	149.14	897.2m	0.66	152.38
#	926.2m	0.53	150.70	1013.9m	0.64	144.22
#	1100.8m	0.45	222.81	1130.8m	0.53	244.07
#	1187.1m	0.69	231.27	1215.1m	0.65	232.48
#	1243.9m	0.64	288.99	1272.6m	0.63	304.63
#	1300.8m	0.62	311.48	1329.9m	0.16	285.18
#	1359.0m	0.11	292.17	1386.3m	0.31	331.80
#	1416.5m	0.53	355.63	1447.1m	0.61	2.60
#	1474.7m	0.94	7.68	1505.2m	1.01	358.08
#	1534.9m	0.92	345.86	1563.8m	0.61	5.17
#	1592.2m	0.76	17.60	1622.0m	0.60	20.84
#	1650.2m	0.65	36.42	1763.9m	0.60	51.71
#	1821.4m	0.46	44.49	1850.5m	0.79	49.16
#	1908.9m	0.96	36.49	1939.6m	0.58	13.70
#	1959.8m	0.13	322.88	2044.1m	0.34	243.01
#	2073.4m	0.44	233.00	2101.7m	0.51	240.40
#	2131.7m	0.50	252.10	2189.0m	0.49	257.69
#	2246.1m	0.42	251.29	2269.4m	0.43	247.24
#	2313.9m	0.33	207.85	2341.6m	0.20	199.21
#	2369.9m	0.15	229.33	2398.5m	0.14	219.45
#	2427.2m	0.22	182.60	2456.2m	0.23	217.52
#	2486.6m	0.30	200.91	2516.1m	0.34	250.17
#	2599.5m	0.23	257.73	2656.6m	0.37	259.03
#	2685.9m	0.36	244.41	2714.4m	0.33	247.01
#	2743.5m	0.44	264.65	2772.9m	0.36	248.49
#	2802.7m	0.49	249.47	2829.7m	0.46	254.82
#	2887.1m	0.37	245.00	2916.6m	0.30	229.13
#	2946.6m	0.14	227.49	3004.8m	0.20	234.38
#	3062.1m	0.52	223.74	3090.7m	0.51	219.43
#	3120.9m	0.47	216.60	3150.2m	0.49	219.95
#	3178.9m	0.44	222.75	3206.5m	0.40	211.30
#	3235.7m	0.35	217.26	3265.7m	0.49	214.66
#	3322.4m	0.35	211.44	3350.4m	0.36	212.61
#	3379.8m	0.35	230.18	3409.2m	0.34	230.92
#	3494.2m	0.34	231.38	3557.7m	0.29	277.76
#	3668.7m	0.32	324.77	3698.3m	0.43	340.30
#	3729.8m	0.45	340.13	3756.5m	0.39	332.45
#	3815.7m	0.44	309.71	3873.0m	0.59	285.30
#	4047.5m	4.76	321.71	4065.7m	5.39	333.06
#	4082.1m	6.39	336.20	4098.9m	7.73	337.83
#	4115.7m	9.43	344.07	4147.0m	12.37	344.49
#	4160.9m	13.41	345.79	4170.7m	13.89	349.54
#	4182.8m	14.27	348.89	4198.0m	15.83	349.61
#	4230.3m	13.55	353.68	4255.8m	12.41	353.57
#	4287.3m	11.70	355.88	4312.9m	11.40	355.42
#	4344.1m	10.54	354.84	4370.2m	10.32	356.38
#	4403.0m	10.25	3.71	4428.6m	10.50	359.63
#	4443.5m	9.94	359.87	4458.4m	10.08	1.47
#	4486.5m	9.71	359.12	4514.6m	9.26	359.81
#	4545.3m	9.64	0.67	4572.5m	9.26	356.64
#	4602.8m	8.97	350.43	4631.2m	8.70	344.94
#	4660.8m	8.34	342.12	4688.5m	8.14	338.90
#	4718.7m	8.30	333.76	4776.7m	8.03	335.31
#	4804.1m	7.88	336.68	4832.6m	7.95	337.54
#	4862.8m	7.84	339.39	4891.2m	7.71	338.67
#	4920.0m	8.19	338.17	4948.2m	8.48	335.94
#	4980.2m	8.19	335.87	5009.6m	7.89	329.96
#	5036.0m	7.84	329.96	5066.0m	7.78	329.28
#	5093.9m	7.52	327.67	5112.0m	7.52	327.67
#
# VELOCITY SURVEY:	(Schlumberger)		OWT, vertically corrected, relative to SRD (MSL)
#	Depth	TVD SS	OWT(sec)	Depth	TVD SS	OWT(sec)
#	29.3m	2.9m	0.0316	44.4m	18.0m	0.1682
#	59.5m	33.1m	0.3158	784.1m	757.7m	0.6576
#	799.2m	772.8m	0.6603	814.3m	787.9m	0.6620
#	829.5m	803.0m	0.6645	1744.4m	1717.9m	0.8235
#	1759.5m	1733.0m	0.8269	1774.6m	1748.2m	0.8303
#	1789.7m	1763.3m	0.8333	1804.9m	1778.5m	0.8364
#	1820.0m	1793.6m	0.8400	1835.2m	1808.7m	0.8433
#	1850.3m	1823.8m	0.8473	1865.4m	1838.9m	0.8510
#	1880.5m	1854.0m	0.8546	1895.6m	1869.1m	0.8584
#	1910.7m	1884.2m	0.8627	1925.8m	1899.3m	0.8666
#	1940.9m	1914.5m	0.8705	1956.1m	1929.6m	0.8744
#	1971.2m	1944.7m	0.8782	1986.4m	1959.9m	0.8816
#	2001.5m	1975.0m	0.8850	2016.7m	1990.2m	0.8885
#	2031.8m	2005.3m	0.8918	2046.8m	2020.3m	0.8953
#	2062.0m	2035.5m	0.8987	2077.1m	2050.6m	0.9018
#	2092.2m	2065.7m	0.9050	2107.3m	2080.8m	0.9080
#	2122.4m	2095.9m	0.9111	2137.6m	2111.1m	0.9138
#	2152.7m	2126.2m	0.9168	2167.8m	2141.3m	0.9196
#	2182.9m	2156.4m	0.9224	2198.1m	2171.6m	0.9253
#	2213.2m	2186.7m	0.9283	2228.3m	2201.8m	0.9313
#	2243.4m	2216.9m	0.9342	2258.6m	2232.1m	0.9371
#	2273.7m	2247.2m	0.9400	2288.8m	2262.4m	0.9430
#	2304.0m	2277.5m	0.9460	2319.1m	2292.6m	0.9488
#	2334.2m	2307.7m	0.9517	2349.2m	2322.7m	0.9545
#	2364.4m	2337.9m	0.9576	2379.5m	2353.0m	0.9605
#	2394.6m	2368.1m	0.9632	2409.6m	2383.1m	0.9661
#	2424.8m	2398.3m	0.9692	2439.9m	2413.4m	0.9724
#	2455.0m	2428.5m	0.9757	2470.2m	2443.7m	0.9795
#	2485.3m	2458.8m	0.9830	2500.4m	2473.9m	0.9865
#	2515.6m	2489.1m	0.9900	2530.7m	2504.2m	0.9937
#	2545.9m	2519.4m	0.9973	2561.0m	2534.5m	1.0010
#	2576.1m	2549.6m	1.0046	2591.2m	2564.7m	1.0080
#	2606.3m	2579.8m	1.0113	2621.5m	2595.0m	1.0147
#	2636.6m	2610.1m	1.0183	2651.6m	2625.1m	1.0215
#	2666.8m	2640.3m	1.0249	2681.9m	2655.4m	1.0285
#	2697.0m	2670.5m	1.0325	2712.1m	2685.6m	1.0361
#	2727.3m	2700.8m	1.0399	2742.4m	2715.9m	1.0434
#	2757.5m	2731.0m	1.0472	2772.6m	2746.1m	1.0510
#	2787.7m	2761.2m	1.0547	2802.8m	2776.3m	1.0582
#	2817.9m	2791.4m	1.0617	2833.0m	2806.5m	1.0651
#	2848.2m	2821.7m	1.0685	2863.3m	2836.8m	1.0718
#	2878.4m	2851.9m	1.0750	2893.6m	2867.1m	1.0781
#	2908.8m	2882.3m	1.0814	2914.1m	2887.6m	1.0824
#	2923.9m	2897.4m	1.0844	2929.2m	2902.7m	1.0855
#	2939.0m	2912.5m	1.0875	2944.4m	2917.8m	1.0887
#	2954.0m	2927.5m	1.0907	2959.5m	2933.0m	1.0921
#	2969.1m	2942.6m	1.0941	2984.3m	2957.8m	1.0975
#	2999.4m	2972.9m	1.1008	3014.5m	2988.0m	1.1040
#	3029.6m	3003.1m	1.1072	3044.8m	3018.3m	1.1103
#	3059.9m	3033.4m	1.1134	3075.1m	3048.5m	1.1165
#	3090.2m	3063.7m	1.1194	3105.3m	3078.8m	1.1224
#	3120.4m	3093.9m	1.1253	3135.6m	3109.0m	1.1284
#	3150.7m	3124.2m	1.1318	3165.8m	3139.3m	1.1352
#	3180.9m	3154.4m	1.1385	3196.0m	3169.5m	1.1420
#	3211.2m	3184.6m	1.1452	3226.3m	3199.8m	1.1486
#	3241.4m	3214.9m	1.1518	3256.4m	3229.9m	1.1550
#	3271.6m	3245.0m	1.1583	3286.7m	3260.2m	1.1618
#	3301.8m	3275.3m	1.1653	3316.9m	3290.4m	1.1690
#	3332.1m	3305.6m	1.1726	3347.2m	3320.7m	1.1767
#	3362.3m	3335.8m	1.1808	3377.4m	3350.9m	1.1849
#	3392.6m	3366.0m	1.1889	3407.7m	3381.2m	1.1926
#	3831.1m	3804.5m	1.2951	3846.2m	3819.6m	1.2989
#	3861.2m	3834.7m	1.3025	3876.3m	3849.8m	1.3067
#	3891.5m	3864.9m	1.3108	3906.6m	3880.0m	1.3154
#	3921.7m	3895.1m	1.3196	3936.8m	3910.2m	1.3245
#	3952.0m	3925.3m	1.3297	3967.1m	3940.4m	1.3350
#	3982.3m	3955.6m	1.3402	3997.4m	3970.7m	1.3452
#	4012.5m	3985.8m	1.3502	4027.6m	4000.9m	1.3552
#	4042.6m	4015.9m	1.3603	4057.8m	4031.0m	1.3653
#	4072.9m	4046.0m	1.3703	4088.0m	4061.0m	1.3752
#	4103.2m	4076.1m	1.3799	4118.3m	4091.0m	1.3848
#	4133.4m	4105.8m	1.3895	4148.5m	4120.7m	1.3944
#	4163.7m	4135.4m	1.3993	4178.8m	4150.1m	1.4041
#	4193.9m	4164.7m	1.4089	4209.0m	4179.3m	1.4135
#	4224.1m	4193.9m	1.4181	4239.2m	4208.6m	1.4227
#	4254.3m	4223.3m	1.4271	4269.4m	4238.1m	1.4316
#	4284.7m	4253.0m	1.4359	4284.7m	4253.0m	1.4358
#	4299.8m	4267.8m	1.4402	4299.8m	4267.8m	1.4402
#	4314.9m	4282.6m	1.4448	4314.9m	4282.6m	1.4447
#	4330.0m	4297.5m	1.4493	4330.0m	4297.5m	1.4493	
#
# ************************************************************
#    This LAS file was created by Occam Technology Pty. Ltd.
# The edit data contained herein are copyright property of
# Occam Technology Pty. Ltd. The data are licensed to the
# purchasing company and subsidiaries worldwide, and are NOT
# for on-copying to third parties.  We place no restriction on
# the distribution of plots generated from the digital data.
#
#    We supply the data on a 'best effort' basis.  We cannot
# control either the original data acquisition or the application
# of the data, and therefore we cannot be held responsible for
# the consequences of any interpretations based on the data.  We
# urge purchasers to apply normal quality control procedures to
# the data before use for any quantitative interpretative
# procedures.
# ************************************************************
~A      DEPT        ECGR        ATRX        ATRT        NPHI        CAL1        HDAR        HROM        DTSM        DTCO
# ...
   4934.5000    191.8682      7.1958      7.4299     27.7400      6.0268      6.2931      2.7455    140.9094     73.7699
   4935.0000    187.0712      7.6570      8.4679     27.5500      6.0627      6.2823      2.7123    142.7526     74.6463
   4935.5000    183.2584      6.9677      7.2461     27.0300      6.0658      6.2841      2.7062    142.8182     75.1816
   4936.0000    183.7401      7.0909      7.6715     26.4300      6.0660      6.2858      2.7233    139.7960     73.6248
   4936.5000    184.4463      7.2469      7.3455     26.7800      6.1041      6.2859      2.6962    140.2723     73.7908
   4937.0000    176.2283      7.0645      7.1480     26.4400      6.1064      6.2859      2.7051    140.3622     74.5318
   4937.5000    171.8514      7.4395      7.3843     25.5500      6.1018      6.2858      2.7055    136.8040     72.6760
   4938.0000    182.7188      7.6382      7.7977     25.8400      6.1056      6.2895      2.7267    139.1142     73.4294
   4938.5000    182.4565      7.7761      7.8108     26.1000      6.0989      6.2877      2.7389    136.7185     73.0302
   4939.0000    170.4768      8.0059      7.6910     25.2600      6.0957      6.2411      2.6937    134.3317     72.6534
   4939.5000    162.4525      7.7481      7.5181     23.3400      6.0696      6.2423      2.7531    132.7293     72.3437
   4940.0000    160.1855      6.8681      7.3521     27.7400      6.0781      6.2439      2.7015    137.6370     72.7809
   4940.5000    169.6568      6.8599      8.0322     24.2900      6.1010      6.2406      2.7056    140.4315     74.5121
   4941.0000    169.7909      6.7101      7.0317     27.5600      6.0262      6.2787      2.6338    148.1543     73.1221
   4941.5000    191.1635      5.3421      5.3390     19.3800      5.9853      6.2941      2.6165    156.8170     81.0611
   4942.0000    189.8609      8.6340      7.8828     22.0800      6.0198      6.3218      2.6813    133.8103     72.5173
   4942.5000    156.4067     10.2536      7.3613     22.3200      5.9815      6.3644      2.5429    129.4227     71.3018
   4943.0000    137.9948     10.6249      7.0120     21.7800      5.9811      6.3259      2.8811    133.0436     71.1967
   4943.5000    128.4758     11.8050      8.0455     24.5500      5.9876      6.3666      2.6362    140.3851     73.4647
   4944.0000    150.9878     10.4464     10.0501     25.4200      6.0620      6.3276      2.6726    142.3662     75.0880
   4944.5000    154.4109      9.1320     13.2212     26.6700      6.0957      6.3276      2.6189    140.9429     74.4723
   4945.0000    144.2806      8.6988     11.9533     26.2200      6.0179      6.2429      2.6307    138.0890     72.8967
   4945.5000    143.3531      7.4288      8.7478     23.8900      6.0216      6.2908      2.6533    139.1743     73.5882
   4946.0000    149.0531      6.5062      7.2567     23.1200      6.0267      6.3218      2.7612    129.2599     70.9264
   4946.5000    132.6625      7.6097      8.4930     22.6600      6.0676      6.2626      2.6556    134.2193     72.4642
   4947.0000    152.9900      8.3196      8.5241     27.6600      6.0305      6.2891      2.6738    143.0832     75.4867
   4947.5000    166.7368      7.5508      7.5277     25.5100      6.0190      6.2859      2.6616    140.3242     74.1988
   4948.0000    152.4798      9.1742      9.6094     23.9300      6.0896      6.2859      2.6728    133.6019     71.1462
   4948.5000    148.0128      7.0527      7.3049     27.4300      5.9853      6.2106      2.8120    142.4594     75.3767
   4949.0000    167.8228      7.1185      7.3172     27.8500      5.9577      6.2055      2.6495    142.3336     76.7684
   4949.5000    182.5224      8.0887      8.4172     29.9700      5.9531      6.2070      2.6418    137.3321     72.3903
   4950.0000    161.2177      7.4229      7.4766     28.9500      5.9493      6.1712      2.7536    141.5751     72.1814
   4950.5000    147.5334      6.8639      7.1032     27.3600      5.9451      6.1686      2.7959    143.0921     74.9620
   4951.0000    153.3619      6.3190      6.6162     33.5500      5.9439      6.1658      2.7451    148.3343     71.9263
   4951.5000    146.6109      7.1127      7.7976     29.4100      5.9546      6.1670      2.9598    152.9896     75.2188
   4952.0000    146.6456      6.7196      6.8929     31.0600      5.9476      6.1604      2.7662    142.0671     76.6454
   4952.5000    149.9521      5.4459      5.5181     30.2100      5.9796      6.1653      2.8539    132.3531     71.2381
   4953.0000    132.4332      6.3730      6.1779     29.3100      5.9822      6.1640      2.8705    125.9508     64.9496
   4953.5000    146.4503      5.9742      5.4375     31.8100      6.0229      6.1670      3.0358    121.4730     72.7110
   4954.0000    157.1639      6.5928      6.5776     30.9300      5.9891      6.1263      2.8079     96.5083     63.1441
   4954.5000     58.5323      7.3761      8.4941      7.5000      5.9269      6.1017      2.5997     95.7619     63.0940
   4955.0000     69.9205      8.7073     10.0145      7.6200      5.9500      6.1218      2.6390    103.8836     68.5795
   4955.5000     64.8375     12.2868     10.2106      8.5300      5.9025      6.1335      2.5521    102.2528     66.7289
   4956.0000     72.7932     68.0105     25.7778      8.8600      5.9048      6.1228      2.4271     98.0952     64.7372
   4956.5000     88.3398    258.3156     75.4135      7.2200      5.8780      6.1235      2.5097     98.5251     64.9529
   4957.0000     84.5448    421.4173    171.4099      8.7300      5.9063      6.1299      2.5395     98.6509     63.0358
   4957.5000     71.1472    215.7803    126.7130      6.2400      5.9085      6.1263      2.5319     97.8471     64.4139
   4958.0000     77.7729     67.2002     53.9794      6.1700      5.9086      6.1251      2.5096    101.7905     66.5460
   4958.5000     71.1192     38.4204     23.0827      9.0200      5.8764      6.1317      2.5543    105.1935     64.3712
   4959.0000     94.1718      9.5383      7.9683     12.6300      5.9482      6.1268      2.6762    102.0394     63.1843
   4959.5000    114.2281     33.1503     19.2691     10.0300      5.9068      6.2272      2.7340    103.8293     69.6723
   4960.0000     39.9161     21.1841     13.1858      2.1900      5.8343      6.0917      2.6899    104.4784     70.2937
   4960.5000     20.8205      9.0300      4.7725      1.4300      5.8680      6.0883      2.3593    107.0855     70.6941
   4961.0000     39.7805      5.7773      4.1834      5.7100      5.8749      6.0869      2.4663    106.6926     69.0299
   4961.5000     50.6949     29.3602     12.3258      6.5800      5.8450      6.0905      2.4634    110.3235     70.9536
   4962.0000     32.9455     62.6517     22.3199      4.7900      5.8340      6.0883      2.4603    111.6434     70.4042
   4962.5000     32.8920     71.7355     40.7010      2.8100      5.8346      6.0917      2.3314    109.9784     70.7135
   4963.0000     33.5528     34.7411     59.2368      2.2300      5.8358      6.0887      2.3022    111.9029     70.5037
   4963.5000     41.2413     15.8865     19.8595      8.8800      5.8358      6.0883      2.3656    110.5521     72.6295
   4964.0000     50.8440     54.4054     86.4641     10.8800      5.8358      6.0851      2.3751    112.9254     72.4840
   4964.5000     65.1702     42.9770     43.9524     10.6200      5.8358      6.0923      2.4267    112.1473     72.4687
   4965.0000     68.9741     69.6439     46.5750     13.0700      5.8389      6.0867      2.3472     96.5056     64.4572
   4965.5000     71.2623     85.1991     41.0542     12.2900      5.8389      6.0851      2.3567     95.4813     64.3702
   4966.0000    107.7299    183.0505    145.7146      9.3400      5.8680      6.0923      2.5432     96.3932     66.4635
   4966.5000     75.7730     50.6421     50.5715      5.8500      5.8780      6.0850      2.5791     98.0308     66.4858
   4967.0000     65.8479      7.3671      6.7800      8.5800      5.8439      6.0851      2.5829    112.2063     73.4328
   4967.5000     89.7101     11.8465     19.7070      7.5300      5.8749      6.0923      2.5193    111.6399     72.3321
