~Version Information
 VERS.           2.0     :   CWLS log ASCII Standard -VERSION 2.0
 WRAP.           NO      :   One line per depth step
~Well Information
#MNEM.UNIT      VALUE/NAME              DESCRIPTION
#--------     --------------            ---------------------
 STRT.M           508.0000              :START DEPTH
 STOP.M          5279.5000              :STOP DEPTH
 STEP.M             0.5000              :STEP
 NULL.             -999.25              :NULL VALUE
 COMP.    ConocoPhillips                :COMPANY
 WELL.    Poseidon North 1              :WELL
 FLD .    Exploration                   :FIELD
 LOC .                                  :LOCATION
 PROV.                                  :PROVINCE
 SRVC.    Schlumberger                  :SERVICE COMPANY
 CTRY.                                  :COUNTRY
 DATE.    05/20/2014                    :LOG DATE
 UWI .                                  :UNIQUE WELL ID
 LATI.DEG -13/34/24.825                  : Latitude
 LONG.DEG 122/20/24.556                 : Longitude
 GDAT.                                  : Geodetic Datum
~PARAMETER INFORMATION
~CURVE INFORMATION
#MNEM    .UNIT     API CODE             Curve Description
 DEPT    .M                             :   Along hole depth
 GRD     .gAPI                          :   Gamma Ray
 RS      .ohm.m                         :   (RM)    (ARC[1])                (6in)                   Phase Shift Resistivity 22 inch Spacing at 2 MHz, Environmentally Corrected.
 RD      .ohm.m                         :   (RM)    (ARC[1])                (6in)                   Phase Shift Resistivity 34 inch Spacing at 2 MHz, Environmentally Corrected.
 RHOB    .g/cm3                         :   (RM)    (ADN[1])                (6in)                   Bulk Density
 TNPH    .pu                            :   (RM)    (ADN[1])                (6in)                   Thermal Neutron Porosity (Ratio Method) in Selected Lithology
 DTCO    .us/ft                         :   Delta-T Compressional
 DTSM    .us/ft                         :   Delta-T Shear
 HDAR    .in                            :   Hole Diameter from Area
#
# Curve              Start        Stop     Minimum     Maximum
# ------------------------------------------------------------
#
# GRD             508.0000   5279.5000      3.5346    204.6889
# RS              568.5000   5279.5000      0.1925    487.9586
# RD              568.5000   5279.5000      0.1945    316.2479
# RHOB           3782.0000   4931.5000      1.9495      3.5107
# TNPH           3780.5000   4931.5000      6.2988     68.6649
# DTCO           3677.0000   5250.0000     48.6167    124.5370
# DTSM           3804.5000   5250.0000     85.6802    273.5039
# HDAR           3808.0000   5273.5000      8.3409     17.3339
# ******************************
# #
# DEVIATION SURVEY:	(Schlumberger)		Definitive Survey
#	Depth	Dev (deg)	Azimuth (deg)	Depth	Dev (deg)	Azimuth (deg)
#	508.3m	0.00	0.00	535.0m	0.51	175.26
#	567.0m	0.46	159.23	632.3m	0.50	124.18
#	690.2m	0.36	105.64	718.4m	0.30	104.70
#	747.0m	0.22	100.37	833.2m	0.12	92.39
#	862.3m	0.14	89.88	948.6m	0.09	77.24
#	1034.5m	0.21	61.94	1120.7m	0.43	72.74
#	1178.5m	0.55	94.45	1234.9m	0.84	96.85
#	1264.2m	1.11	104.58	1293.6m	1.37	101.48
#	1322.8m	1.51	87.02	1353.0m	1.76	69.73
#	1412.0m	1.26	53.07	1440.7m	1.13	48.89
#	1469.3m	0.97	55.84	1497.6m	1.03	53.67
#	1526.2m	0.92	59.74	1554.4m	0.82	58.53
#	1583.8m	0.75	60.20	1641.9m	0.66	59.63
#	1670.7m	0.75	60.62	1698.0m	0.69	57.52
#	1725.9m	0.67	57.15	1754.8m	0.32	52.85
#	1783.6m	0.81	146.83	1812.6m	1.47	161.88
#	1841.3m	1.64	163.20	1870.0m	1.76	163.52
#	1899.8m	1.79	177.44	1927.8m	1.29	184.32
#	1957.9m	1.72	185.24	1986.4m	1.87	187.31
#	2016.7m	1.89	185.97	2045.2m	1.80	187.62
#	2073.8m	1.81	185.62	2102.3m	1.83	186.20
#	2130.6m	1.79	187.06	2159.6m	1.78	184.95
#	2189.6m	1.85	185.18	2218.1m	1.85	184.70
#	2246.2m	1.81	184.66	2274.6m	1.82	181.40
#	2303.7m	1.76	181.56	2331.2m	1.76	183.12
#	2360.1m	1.77	183.23	2389.2m	1.78	181.43
#	2429.8m	1.81	178.67	2453.0m	1.78	181.70
#	2490.3m	1.75	186.73	2519.1m	1.74	190.18
#	2577.7m	1.34	193.07	2606.3m	1.34	194.30
#	2634.8m	1.43	194.62	2663.0m	1.49	196.08
#	2691.9m	1.52	191.72	2720.5m	1.41	196.99
#	2749.1m	1.30	192.26	2778.8m	1.33	197.61
#	2807.5m	1.18	197.33	2836.7m	1.13	193.60
#	2865.4m	1.01	194.63	2894.6m	1.02	201.33
#	2923.5m	0.87	193.21	2952.2m	0.92	194.81
#	2979.9m	0.79	197.44	3007.9m	0.71	189.93
#	3039.2m	0.62	204.55	3068.6m	0.38	211.96
#	3098.5m	0.64	224.56	3126.6m	0.95	223.07
#	3154.6m	0.84	235.70	3185.2m	0.78	238.33
#	3212.8m	0.76	226.49	3242.0m	0.64	244.70
#	3272.3m	0.59	246.79	3300.2m	0.57	235.82
#	3327.8m	0.59	264.08	3357.0m	0.61	267.57
#	3388.0m	0.41	270.93	3443.1m	0.26	299.95
#	3474.8m	0.43	301.03	3500.7m	0.47	288.64
#	3531.2m	0.29	300.47	3558.2m	0.41	316.53
#	3588.3m	0.55	309.28	3617.9m	0.51	307.43
#	3648.0m	0.46	340.11	3676.0m	0.35	315.45
#	3703.6m	0.43	300.04	3730.9m	0.34	326.82
#	3751.3m	0.17	271.57	3780.6m	0.09	301.36
#	3814.8m	0.29	187.90	3828.0m	0.42	183.54
#	3858.7m	0.35	156.45	3888.1m	0.72	141.78
#	3916.0m	0.93	151.39	3944.8m	1.30	136.05
#	3973.2m	1.99	136.59	4001.6m	2.33	140.24
#	4028.8m	2.82	136.91	4057.0m	3.00	139.76
#	4117.2m	2.72	150.07	4147.1m	2.18	148.78
#	4176.6m	1.90	141.66	4205.2m	1.35	129.99
#	4234.2m	0.98	109.72	4261.7m	0.87	84.30
#	4291.0m	1.20	72.60	4320.5m	0.67	70.91
#	4348.8m	0.56	71.19	4376.7m	0.42	56.80
#	4404.4m	0.30	20.79	4433.2m	0.31	341.16
#	4462.6m	0.26	334.54	4521.8m	0.92	284.18
#	4552.1m	1.66	297.93	4580.0m	1.95	318.44
#	4606.9m	2.21	336.83	4636.2m	2.24	345.69
#	4664.8m	2.50	352.22	4693.7m	2.79	352.27
#	4723.0m	2.96	347.28	4753.0m	3.12	334.48
#	4782.4m	3.27	329.12	4811.3m	3.87	326.41
#	4838.8m	4.07	319.63	4866.5m	4.23	317.95
#	4895.6m	4.63	317.81	4927.1m	4.57	312.59
#	4955.7m	3.99	310.09	4983.3m	3.37	308.64
#	5009.6m	2.66	307.75	5040.2m	2.81	307.39
#	5069.7m	3.03	298.46	5100.5m	3.88	292.76
#	5126.7m	3.99	297.59	5157.5m	4.00	296.72
#	5186.1m	4.23	299.71	5213.0m	3.84	304.22
#	5242.0m	3.97	301.56	5265.7m	4.07	299.21
#	5287.0m	4.07	299.21
#
# VELOCITY SURVEY:	No checkshot survey run
# 
# ************************************************************
#
# #
# LOCN 	LAT:	13o 34' 24.825" S			WELL NAME:	Poseidon North 1	
# 	LONG:	122o 20' 24.556" E
# 	EASTING:	428611.91m E	NORTHING: 	8499338.27m N	ZONE:	51	GDA 94
# SEISMIC SURV:	Poseidon 3D	INLINE:  3600	XLINE: 2250	STATUS:	P & A
# ELEVN SF:	- 486.0m MSL 	DATUM RT:	22.0m	OPERATOR:	ConocoPhillips
# BASIN:		Browse	TOTAL D:	5287m	PARTNERS:	Karoon, PetroChina
# SPUD DATE:	19/03/2014	COMPLN DATE:	18/05/2014	LEASE:	WA-315-P
# TARGET:	Montara & Plover Fms, seismic closure	DRILLER:	Transocean
# DATA SOURCE:	WCR (Basic), logs			RIG:	Legend
# #
# HOLE AND CASING DATA:
# 	Hole 	Hole	Casing	Casing 	Weight	Grade	Joints	Cement	TOC
# 	Size	Depth	Size	Depth	lb/ft
# 	36”	568.3m	30”	568m	456 / 310	X-52	2 / 3	221 sx G at SG 1.5	
# 								1118 sx G at SG 1.9
# 								225 sx G at SG 1.9 	Grouted
# 	17.5”	2459m	13 3/8”	2453m	72	P-110	160	1734 sx G at SG 1.44
# 								486 sx G at SG 1.9
# 	12.25”	3820m	9 5/8”	3814.8m	53.5	P-110	267	469 sx HTB at SG 1.89
# 	8.5”	5287m	
# #
# TEMPERATURES:
# 	Depth Driller	Logger	Temp	Log Type	Time since circ	Circ Time
# 	5287m	5234m	165.6 deg C	QAIT-HNGS	25.9 hrs	2.5 hrs
# 		5060m	165.6 deg C	MDT	55 hrs
# #
# MUD PROPERTIES:
# Depth (L)	Fluid Type	SG	Vis.	pH	Fl cc	Rm	Rmf	Rmc
#  5287m	Novatec SBM	1.57	81	na	3.6	Assumed infinite
# #
#
# ************************************************************
#    This LAS file was created by Occam Technology Pty. Ltd.
# The edit data contained herein are copyright property of
# Occam Technology Pty. Ltd. The data are licensed to the
# purchasing company and subsidiaries worldwide, and are NOT
# for on-copying to third parties.  We place no restriction on
# the distribution of plots generated from the digital data.
#
#    We supply the data on a 'best effort' basis.  We cannot
# control either the original data acquisition or the application
# of the data, and therefore we cannot be held responsible for
# the consequences of any interpretations based on the data.  We
# urge purchasers to apply normal quality control procedures to
# the data before use for any quantitative interpretative
# procedures.
# ************************************************************
~A      DEPT         GRD          RS          RD        RHOB        TNPH        DTCO        DTSM        HDAR
# ...
   4319.0000     86.6270      1.4000      1.3945      2.4995     21.3515     91.4697    167.3498      8.5403
   4319.5000     72.2998      1.5896      1.5615      2.5069     21.8014     89.9735    167.8364      8.5624
   4320.0000     64.8357      1.8721      1.8571      2.5991     21.6993     89.1271    169.1832      8.5403
   4320.5000     69.8851      1.5687      1.5430      2.5017     21.4022     89.1852    169.8817      8.5403
   4321.0000     83.5901      1.3888      1.3818      2.5033     22.6389     92.5763    176.8477      8.5403
   4321.5000     83.0823      1.3603      1.3488      2.5002     24.0345     91.1933    176.8477      8.5403
   4322.0000     81.2740      1.4293      1.4174      2.5020     23.5093     94.1114    176.3408      8.5403
   4322.5000     78.8532      1.4910      1.4794      2.5048     23.4914     94.1114    176.3408      8.5403
   4323.0000     75.7774      1.5026      1.4899      2.4912     22.4690     94.1114    176.3408      8.5403
   4323.5000     73.1880      1.5015      1.4897      2.5076     21.4187     94.1114    180.1335      8.5624
   4324.0000     81.7177      1.4183      1.4052      2.5030     23.6577     93.5784    180.3408      8.5403
   4324.5000     84.9293      1.4366      1.4219      2.5186     22.8217     93.5702    180.0979      8.5846
   4325.0000     71.1360      1.7209      1.7131      2.5387     22.4018     93.5618    180.0939      8.5846
   4325.5000     78.8935      1.5136      1.4936      2.4969     22.4143     93.5435    180.0389      8.5624
   4326.0000     89.4884      1.2911      1.2833      2.4882     23.9539     93.5446    179.9915      8.5624
   4326.5000     91.0589      1.4147      1.4053      2.5248     23.0069     93.2638    179.7624      8.5403
   4327.0000     80.7458      1.4807      1.4691      2.5018     22.7593     92.3874    177.1115      8.5624
   4327.5000     85.4421      1.3906      1.3774      2.5124     24.1834     91.4589    177.8624      8.5403
   4328.0000     84.6170      1.2957      1.2818      2.5181     24.9113     92.6709    181.4502      8.5403
   4328.5000     88.6308      1.1966      1.1852      2.5075     25.6161     93.8618    185.4062      8.5624
   4329.0000     90.6163      1.0864      1.0696      2.5084     26.0152     94.8241    190.7341      8.5403
   4329.5000     91.3986      1.1018      1.0928      2.5397     26.1832     93.9099    191.6189      8.5403
   4330.0000     81.6403      1.2510      1.2401      2.5808     26.3708     93.8328    189.5489      8.5624
   4330.5000     94.3818      1.1789      1.1660      2.5117     26.0493     93.8533    189.3313      8.5624
   4331.0000     87.9572      1.2194      1.2059      2.5131     24.7833     94.0806    188.3688      8.5403
   4331.5000     93.4413      1.2871      1.2759      2.5216     23.8485     93.6493    185.2659      8.5403
   4332.0000     86.9399      1.3348      1.3216      2.5132     24.4376     93.6327    182.4225      8.5624
   4332.5000     81.4907      1.3159      1.3000      2.5158     23.6485     94.0635    182.6659      8.5624
   4333.0000     85.6966      1.2810      1.2840      2.4970     24.3228     94.6369    184.8367      8.5403
   4333.5000     82.3135      1.2657      1.2422      2.5630     25.6336     94.2355    186.1030      8.5403
   4334.0000     73.8182      1.4608      1.4449      2.5475     24.9839     94.2605    187.1095      8.5624
   4334.5000     90.4027      1.1833      1.1715      2.4865     24.9562     94.4587    188.2943      8.5403
   4335.0000     86.0245      1.2700      1.2722      2.5565     25.7570     94.0367    188.7542      8.5624
   4335.5000     87.1513      1.2094      1.1872      2.5029     25.0206     94.1333    188.1475      8.5624
   4336.0000     91.2544      1.1988      1.1871      2.5095     24.8866     94.4728    187.3901      8.5624
   4336.5000     88.6056      1.2524      1.2367      2.4981     24.8792     94.4049    186.8534      8.5403
   4337.0000     84.3551      1.3298      1.3127      2.5032     24.5731     94.3169    183.6377      8.5403
   4337.5000     83.1049      1.3626      1.3486      2.4868     25.0578     93.9389    180.4948      8.5403
   4338.0000     76.9077      1.3786      1.3640      2.5118     23.5169     93.7494    181.4486      8.5846
   4338.5000     80.0894      1.3557      1.3353      2.5007     24.3884     93.4962    183.1086      8.5403
   4339.0000     85.7806      1.2773      1.2717      2.4964     26.8694     93.4745    185.2197      8.5403
   4339.5000     88.2102      1.2250      1.2075      2.4940     24.4226     94.4486    188.8838      8.5403
   4340.0000     92.9304      1.2123      1.2049      2.5186     26.4507     95.1915    192.0790      8.5403
   4340.5000     94.2836      1.1118      1.0888      2.5052     26.2009     95.1595    191.1600      8.5624
   4341.0000     85.1273      1.2671      1.2509      2.6596     26.3289     94.9543    189.1376      8.5846
   4341.5000     94.0767      1.1785      1.1595      2.5226     25.3281     94.9309    188.9340      8.5624
   4342.0000     87.7635      1.1563      1.1457      2.5018     26.0114     94.9938    191.3000      8.5624
   4342.5000     88.8888      1.1651      1.1532      2.5000     25.9224     95.0747    190.9942      8.5624
   4343.0000     85.9815      1.1770      1.1648      2.5075     25.9774     95.0971    191.3503      8.5403
   4343.5000     83.0455      1.2239      1.2119      2.5061     25.1374     93.6869    182.4068      8.5624
   4344.0000     89.4281      1.2903      1.2788      2.5042     26.0426     95.3538    187.6773      8.5624
   4344.5000     90.8753      1.3575      1.3481      2.5148     22.8974     95.3538    187.6773      8.5624
   4345.0000     87.3269      1.3657      1.3550      2.5018     23.3530     95.3538    187.9241      8.5403
   4345.5000     79.1312      1.2979      1.2827      2.4993     23.9417     95.5265    195.4507      8.5624
   4346.0000     80.8379      1.2937      1.2838      2.5131     24.5673     95.5265    195.4507      8.5624
   4346.5000     89.5064      1.2095      1.1862      2.4944     24.1448     95.4227    195.6464      8.5403
   4347.0000     80.4977      1.2517      1.2131      2.6928     28.5049     95.4601    195.6488      8.5403
   4347.5000     95.7778      1.1064      1.0877      2.5145     24.1391     95.4521    195.6368      8.5403
   4348.0000     90.1561      1.1530      1.2126      2.5040     25.8500     95.4886    195.3985      8.5624
   4348.5000     89.9409      1.4359      1.4706      2.5018     25.1121     95.3829    195.5079      8.5624
   4349.0000     85.4627      1.6139      1.6715      2.5273     24.5987     95.7562    195.5003      8.5403
   4349.5000     86.1555      1.0918      1.1019      2.5154     26.7783     96.7572    197.7745      8.5403
   4350.0000     91.9741      0.9881      0.9876      2.4971     26.8128     97.7428    202.6262      8.5403
   4350.5000     93.7091      0.9668      0.9511      2.4948     30.2370     99.1670    205.9957      8.5624
   4351.0000     94.8188      0.9618      0.9577      2.4841     29.2158     99.4427    207.6611      8.5624
   4351.5000     95.2650      0.9754      0.9750      2.4967     29.7908     99.4758    208.6248      8.5624
   4352.0000     91.8549      0.9413      0.9344      2.5074     28.3319     99.5529    209.1616      8.5624
   4352.5000     96.7506      0.9232      0.9150      2.5078     30.5492     99.1367    209.8984      8.5624
   4353.0000     97.1605      0.9497      0.9445      2.4917     29.7168     98.9237    209.4111      8.5403
   4353.5000     95.6390      0.9557      0.9477      2.5107     28.9818     98.7188    208.9062      8.5403
   4354.0000     92.9085      0.9541      0.9446      2.4931     27.4641     98.4197    208.1481      8.5403
   4354.5000     96.1884      0.9313      0.9266      2.5037     29.9485     98.9495    208.1857      8.5624
   4355.0000     91.2909      0.9578      0.9425      2.4964     28.9324     98.8336    208.4883      8.5403
   4355.5000     90.6872      1.0376      1.0268      2.5704     28.9156     98.9856    208.1432      8.5846
