~Version Information
 VERS.           2.0     :   CWLS log ASCII Standard -VERSION 2.0
 WRAP.           NO      :   One line per depth step
~Well Information
#MNEM.UNIT      VALUE/NAME              DESCRIPTION
#--------     --------------            ---------------------
 STRT.M           508.0000              :START DEPTH
 STOP.M          5279.5000              :STOP DEPTH
 STEP.M             0.5000              :STEP
 NULL.             -999.25              :NULL VALUE
 COMP.    ConocoPhillips                :COMPANY
 WELL.    Poseidon North 1              :WELL
 FLD .    Exploration                   :FIELD
 LOC .                                  :LOCATION
 PROV.                                  :PROVINCE
 SRVC.    Schlumberger                  :SERVICE COMPANY
 CTRY.                                  :COUNTRY
 DATE.    05/20/2014                    :LOG DATE
 UWI .                                  :UNIQUE WELL ID
 LATI.DEG -13/34/24.825                  : Latitude
 LONG.DEG 122/20/24.556                 : Longitude
 GDAT.                                  : Geodetic Datum
~PARAMETER INFORMATION
~CURVE INFORMATION
#MNEM    .UNIT     API CODE             Curve Description
 DEPT    .M                             :   Along hole depth
 GRD     .gAPI                          :   Gamma Ray
 RS      .ohm.m                         :   (RM)    (ARC[1])                (6in)                   Phase Shift Resistivity 22 inch Spacing at 2 MHz, Environmentally Corrected.
 RD      .ohm.m                         :   (RM)    (ARC[1])                (6in)                   Phase Shift Resistivity 34 inch Spacing at 2 MHz, Environmentally Corrected.
 RHOB    .g/cm3                         :   (RM)    (ADN[1])                (6in)                   Bulk Density
 TNPH    .pu                            :   (RM)    (ADN[1])                (6in)                   Thermal Neutron Porosity (Ratio Method) in Selected Lithology
 DTCO    .us/ft                         :   Delta-T Compressional
 DTSM    .us/ft                         :   Delta-T Shear
 HDAR    .in                            :   Hole Diameter from Area
#
# Curve              Start        Stop     Minimum     Maximum
# ------------------------------------------------------------
#
# GRD             508.0000   5279.5000      3.5346    204.6889
# RS              568.5000   5279.5000      0.1925    487.9586
# RD              568.5000   5279.5000      0.1945    316.2479
# RHOB           3782.0000   4931.5000      1.9495      3.5107
# TNPH           3780.5000   4931.5000      6.2988     68.6649
# DTCO           3677.0000   5250.0000     48.6167    124.5370
# DTSM           3804.5000   5250.0000     85.6802    273.5039
# HDAR           3808.0000   5273.5000      8.3409     17.3339
# ******************************
# #
# DEVIATION SURVEY:	(Schlumberger)		Definitive Survey
#	Depth	Dev (deg)	Azimuth (deg)	Depth	Dev (deg)	Azimuth (deg)
#	508.3m	0.00	0.00	535.0m	0.51	175.26
#	567.0m	0.46	159.23	632.3m	0.50	124.18
#	690.2m	0.36	105.64	718.4m	0.30	104.70
#	747.0m	0.22	100.37	833.2m	0.12	92.39
#	862.3m	0.14	89.88	948.6m	0.09	77.24
#	1034.5m	0.21	61.94	1120.7m	0.43	72.74
#	1178.5m	0.55	94.45	1234.9m	0.84	96.85
#	1264.2m	1.11	104.58	1293.6m	1.37	101.48
#	1322.8m	1.51	87.02	1353.0m	1.76	69.73
#	1412.0m	1.26	53.07	1440.7m	1.13	48.89
#	1469.3m	0.97	55.84	1497.6m	1.03	53.67
#	1526.2m	0.92	59.74	1554.4m	0.82	58.53
#	1583.8m	0.75	60.20	1641.9m	0.66	59.63
#	1670.7m	0.75	60.62	1698.0m	0.69	57.52
#	1725.9m	0.67	57.15	1754.8m	0.32	52.85
#	1783.6m	0.81	146.83	1812.6m	1.47	161.88
#	1841.3m	1.64	163.20	1870.0m	1.76	163.52
#	1899.8m	1.79	177.44	1927.8m	1.29	184.32
#	1957.9m	1.72	185.24	1986.4m	1.87	187.31
#	2016.7m	1.89	185.97	2045.2m	1.80	187.62
#	2073.8m	1.81	185.62	2102.3m	1.83	186.20
#	2130.6m	1.79	187.06	2159.6m	1.78	184.95
#	2189.6m	1.85	185.18	2218.1m	1.85	184.70
#	2246.2m	1.81	184.66	2274.6m	1.82	181.40
#	2303.7m	1.76	181.56	2331.2m	1.76	183.12
#	2360.1m	1.77	183.23	2389.2m	1.78	181.43
#	2429.8m	1.81	178.67	2453.0m	1.78	181.70
#	2490.3m	1.75	186.73	2519.1m	1.74	190.18
#	2577.7m	1.34	193.07	2606.3m	1.34	194.30
#	2634.8m	1.43	194.62	2663.0m	1.49	196.08
#	2691.9m	1.52	191.72	2720.5m	1.41	196.99
#	2749.1m	1.30	192.26	2778.8m	1.33	197.61
#	2807.5m	1.18	197.33	2836.7m	1.13	193.60
#	2865.4m	1.01	194.63	2894.6m	1.02	201.33
#	2923.5m	0.87	193.21	2952.2m	0.92	194.81
#	2979.9m	0.79	197.44	3007.9m	0.71	189.93
#	3039.2m	0.62	204.55	3068.6m	0.38	211.96
#	3098.5m	0.64	224.56	3126.6m	0.95	223.07
#	3154.6m	0.84	235.70	3185.2m	0.78	238.33
#	3212.8m	0.76	226.49	3242.0m	0.64	244.70
#	3272.3m	0.59	246.79	3300.2m	0.57	235.82
#	3327.8m	0.59	264.08	3357.0m	0.61	267.57
#	3388.0m	0.41	270.93	3443.1m	0.26	299.95
#	3474.8m	0.43	301.03	3500.7m	0.47	288.64
#	3531.2m	0.29	300.47	3558.2m	0.41	316.53
#	3588.3m	0.55	309.28	3617.9m	0.51	307.43
#	3648.0m	0.46	340.11	3676.0m	0.35	315.45
#	3703.6m	0.43	300.04	3730.9m	0.34	326.82
#	3751.3m	0.17	271.57	3780.6m	0.09	301.36
#	3814.8m	0.29	187.90	3828.0m	0.42	183.54
#	3858.7m	0.35	156.45	3888.1m	0.72	141.78
#	3916.0m	0.93	151.39	3944.8m	1.30	136.05
#	3973.2m	1.99	136.59	4001.6m	2.33	140.24
#	4028.8m	2.82	136.91	4057.0m	3.00	139.76
#	4117.2m	2.72	150.07	4147.1m	2.18	148.78
#	4176.6m	1.90	141.66	4205.2m	1.35	129.99
#	4234.2m	0.98	109.72	4261.7m	0.87	84.30
#	4291.0m	1.20	72.60	4320.5m	0.67	70.91
#	4348.8m	0.56	71.19	4376.7m	0.42	56.80
#	4404.4m	0.30	20.79	4433.2m	0.31	341.16
#	4462.6m	0.26	334.54	4521.8m	0.92	284.18
#	4552.1m	1.66	297.93	4580.0m	1.95	318.44
#	4606.9m	2.21	336.83	4636.2m	2.24	345.69
#	4664.8m	2.50	352.22	4693.7m	2.79	352.27
#	4723.0m	2.96	347.28	4753.0m	3.12	334.48
#	4782.4m	3.27	329.12	4811.3m	3.87	326.41
#	4838.8m	4.07	319.63	4866.5m	4.23	317.95
#	4895.6m	4.63	317.81	4927.1m	4.57	312.59
#	4955.7m	3.99	310.09	4983.3m	3.37	308.64
#	5009.6m	2.66	307.75	5040.2m	2.81	307.39
#	5069.7m	3.03	298.46	5100.5m	3.88	292.76
#	5126.7m	3.99	297.59	5157.5m	4.00	296.72
#	5186.1m	4.23	299.71	5213.0m	3.84	304.22
#	5242.0m	3.97	301.56	5265.7m	4.07	299.21
#	5287.0m	4.07	299.21
#
# VELOCITY SURVEY:	No checkshot survey run
# 
# ************************************************************
#
# #
# LOCN 	LAT:	13o 34' 24.825" S			WELL NAME:	Poseidon North 1	
# 	LONG:	122o 20' 24.556" E
# 	EASTING:	428611.91m E	NORTHING: 	8499338.27m N	ZONE:	51	GDA 94
# SEISMIC SURV:	Poseidon 3D	INLINE:  3600	XLINE: 2250	STATUS:	P & A
# ELEVN SF:	- 486.0m MSL 	DATUM RT:	22.0m	OPERATOR:	ConocoPhillips
# BASIN:		Browse	TOTAL D:	5287m	PARTNERS:	Karoon, PetroChina
# SPUD DATE:	19/03/2014	COMPLN DATE:	18/05/2014	LEASE:	WA-315-P
# TARGET:	Montara & Plover Fms, seismic closure	DRILLER:	Transocean
# DATA SOURCE:	WCR (Basic), logs			RIG:	Legend
# #
# HOLE AND CASING DATA:
# 	Hole 	Hole	Casing	Casing 	Weight	Grade	Joints	Cement	TOC
# 	Size	Depth	Size	Depth	lb/ft
# 	36”	568.3m	30”	568m	456 / 310	X-52	2 / 3	221 sx G at SG 1.5	
# 								1118 sx G at SG 1.9
# 								225 sx G at SG 1.9 	Grouted
# 	17.5”	2459m	13 3/8”	2453m	72	P-110	160	1734 sx G at SG 1.44
# 								486 sx G at SG 1.9
# 	12.25”	3820m	9 5/8”	3814.8m	53.5	P-110	267	469 sx HTB at SG 1.89
# 	8.5”	5287m	
# #
# TEMPERATURES:
# 	Depth Driller	Logger	Temp	Log Type	Time since circ	Circ Time
# 	5287m	5234m	165.6 deg C	QAIT-HNGS	25.9 hrs	2.5 hrs
# 		5060m	165.6 deg C	MDT	55 hrs
# #
# MUD PROPERTIES:
# Depth (L)	Fluid Type	SG	Vis.	pH	Fl cc	Rm	Rmf	Rmc
#  5287m	Novatec SBM	1.57	81	na	3.6	Assumed infinite
# #
#
# ************************************************************
#    This LAS file was created by Occam Technology Pty. Ltd.
# The edit data contained herein are copyright property of
# Occam Technology Pty. Ltd. The data are licensed to the
# purchasing company and subsidiaries worldwide, and are NOT
# for on-copying to third parties.  We place no restriction on
# the distribution of plots generated from the digital data.
#
#    We supply the data on a 'best effort' basis.  We cannot
# control either the original data acquisition or the application
# of the data, and therefore we cannot be held responsible for
# the consequences of any interpretations based on the data.  We
# urge purchasers to apply normal quality control procedures to
# the data before use for any quantitative interpretative
# procedures.
# ************************************************************
~A      DEPT         GRD          RS          RD        RHOB        TNPH        DTCO        DTSM        HDAR
# ...
   4504.0000     73.9062      1.9004      1.8852      2.4804     19.7192     88.3683    157.0292      8.5624
   4504.5000     72.3432      1.8879      1.8679      2.4901     19.1730     88.3524    156.5194      8.5403
   4505.0000     72.6217      1.8302      1.8262      2.4652     19.3697     87.9497    152.8355      8.5846
   4505.5000     77.2673      1.9093      1.8871      2.4708     18.1680     86.8521    150.3996      8.5403
   4506.0000     70.2381      2.1889      2.2005      2.4862     18.8774     85.4193    144.5173      8.5403
   4506.5000     63.5018      2.6971      2.6256      2.5711     16.0870     82.4986    137.3094      8.5403
   4507.0000     55.6263      3.4978      3.4793      2.4905     13.9980     77.3377    128.4094      8.5624
   4507.5000     63.0210      2.7105      2.7033      2.4624     16.7881     76.6851    125.5666      8.5624
   4508.0000     65.2726      2.3513      2.3662      2.4711     16.8827     78.8553    129.7494      8.5403
   4508.5000     60.8952      2.5022      2.5215      2.4553     17.2291     81.5050    132.4509      8.5403
   4509.0000     53.5324      2.8934      2.8560      2.4797     14.9293     80.1748    132.6153      8.5403
   4509.5000     52.1587      2.9848      2.9596      2.4711     17.8823     79.7077    131.5016      8.5624
   4510.0000     73.1264      2.1877      2.2140      2.4653     17.5751     81.1827    136.2141      8.5624
   4510.5000     56.6344      2.5369      2.5562      2.4513     17.3717     82.4614    136.4736      8.5403
   4511.0000     51.9927      2.9898      2.9541      2.4691     15.4407     78.3090    126.6081      8.5403
   4511.5000     39.6602      3.8680      3.7938      2.4813     15.4041     76.4202    120.7103      8.5403
   4512.0000     59.3199      2.6210      2.6366      2.4471     17.3275     77.3729    124.4347      8.5403
   4512.5000     54.7161      2.6869      2.6690      2.4837     16.1405     78.1876    124.5978      8.5403
   4513.0000     44.6933      3.6042      3.6811      2.4848     16.0875     78.8811    128.2973      8.5624
   4513.5000     73.6257      2.5378      2.5066      2.4892     17.6902     79.6824    135.8767      8.5624
   4514.0000     62.5336      2.4300      2.4529      2.4939     17.6916     82.8982    143.0484      8.5624
   4514.5000     72.1249      2.0643      2.0539      2.4801     18.2411     84.6966    143.2544      8.5624
   4515.0000     60.9781      2.2903      2.2670      2.4729     17.3564     84.4568    141.1195      8.5403
   4515.5000     61.2617      2.4245      2.4099      2.4738     17.4617     84.1402    140.8356      8.5846
   4516.0000     69.0585      2.1239      2.1129      2.4674     18.0705     84.4228    142.4550      8.5403
   4516.5000     61.4695      2.4015      2.3937      2.4500     16.1996     83.6955    138.5561      8.5846
   4517.0000     48.8961      2.7543      2.7287      2.4641     17.9860     82.3825    134.0904      8.5403
   4517.5000     50.4617      2.6316      2.6080      2.5055     18.6518     81.6923    133.1389      8.5403
   4518.0000     66.2373      2.1969      2.1902      2.5009     18.2464     84.0363    143.2046      8.5403
   4518.5000     74.0575      1.9453      1.9392      2.4943     18.2463     86.0981    150.3317      8.5624
   4519.0000     69.4489      2.0192      2.0124      2.5028     18.1851     86.7731    148.5134      8.5624
   4519.5000     63.9601      2.1749      2.1618      2.5002     18.2615     86.0753    144.0870      8.5624
   4520.0000     58.8144      2.2967      2.2733      2.4851     16.8850     84.6310    139.8771      8.5624
   4520.5000     53.0586      2.3786      2.3774      2.4823     16.8516     84.2199    137.7663      8.5624
   4521.0000     59.5232      2.2715      2.2540      2.4886     17.2548     83.9712    137.0131      8.5624
   4521.5000     57.3685      2.4854      2.4766      2.4955     17.3131     83.7386    136.2016      8.5846
   4522.0000     53.6593      2.4093      2.3847      2.4799     17.2005     83.8263    138.4426      8.5624
   4522.5000     63.8557      2.2560      2.2444      2.4853     17.5042     84.2720    142.6226      8.5846
   4523.0000     61.5796      2.2352      2.2316      2.5327     17.7522     84.8062    142.4666      8.5624
   4523.5000     65.6961      2.1691      2.1582      2.5447     18.1360     85.1632    142.8881      8.5624
   4524.0000     59.8129      2.3639      2.3557      2.4600     17.2394     84.9498    143.6381      8.5624
   4524.5000     60.2274      2.4073      2.3902      2.4668     17.6167     84.4895    140.2941      8.5403
   4525.0000     55.6523      2.5224      2.5169      2.4799     17.4276     83.7348    138.7069      8.5624
   4525.5000     51.9979      2.6653      2.6477      2.4732     17.6450     82.6093    133.7509      8.5403
   4526.0000     60.2317      2.6667      2.6619      2.4741     16.9541     82.4509    134.6980      8.5624
   4526.5000     57.5558      2.7201      2.7138      2.4499     16.9445     82.4199    134.6039      8.5403
   4527.0000     53.6785      2.5849      2.5652      2.4797     17.0277     82.4982    135.2583      8.5403
   4527.5000     54.1032      2.5728      2.5554      2.4757     16.4759     82.6691    135.6284      8.5624
   4528.0000     53.1876      2.6980      2.6815      2.4605     16.0412     82.6633    135.3576      8.5403
   4528.5000     56.5533      2.5516      2.5327      2.4694     16.1427     82.8803    136.0201      8.5403
   4529.0000     63.9035      2.4002      2.3900      2.4799     16.0974     83.5363    140.5264      8.5403
   4529.5000     64.2188      2.3299      2.3207      2.4907     16.3347     84.4412    142.9181      8.5846
   4530.0000     64.8581      2.3140      2.2989      2.4715     17.7073     84.8773    143.0362      8.5403
   4530.5000     68.1661      2.3781      2.3673      2.4900     18.0229     84.9748    143.0365      8.5403
   4531.0000     65.2365      2.4448      2.4395      2.4987     17.5369     84.5074    140.9881      8.5846
   4531.5000     68.5664      2.4159      2.4045      2.4801     18.2948     84.3220    140.5608      8.5403
   4532.0000     67.7729      2.4553      2.4380      2.4655     17.9961     84.1577    140.2516      8.5846
   4532.5000     63.4515      2.4909      2.4707      2.4861     17.5974     84.1610    139.9227      8.5403
   4533.0000     60.7845      2.4617      2.4359      2.4706     17.0635     84.0218    138.7612      8.5403
   4533.5000     57.8937      2.6167      2.5943      2.4646     17.8266     83.7784    137.6601      8.5403
   4534.0000     55.1500      2.6253      2.6033      2.4768     17.3455     83.3029    136.4674      8.5403
   4534.5000     55.6034      2.6700      2.6500      2.4645     17.1685     82.8076    135.3671      8.5403
   4535.0000     52.2064      2.7543      2.7304      2.4699     16.7849     82.2868    134.6286      8.5403
   4535.5000     58.8171      2.6138      2.5956      2.4868     17.4301     82.2898    134.8948      8.5403
   4536.0000     65.0216      2.4493      2.4333      2.4663     16.6296     83.2952    138.6760      8.5624
   4536.5000     61.4969      2.4641      2.4505      2.4803     17.6883     83.9806    140.2541      8.5403
   4537.0000     65.1741      2.4281      2.4140      2.4759     17.5464     84.4076    141.1319      8.5846
   4537.5000     63.4104      2.4901      2.4733      2.4913     17.7349     84.5126    142.1144      8.5624
   4538.0000     60.8137      2.5146      2.4990      2.4901     17.9087     84.2160    142.2838      8.5403
   4538.5000     61.1745      2.5213      2.5040      2.4877     17.4298     84.0720    139.8769      8.5403
   4539.0000     61.0133      2.5868      2.5726      2.4708     17.4306     83.8825    140.4538      8.5403
   4539.5000     61.3672      2.5638      2.5480      2.4871     17.2148     83.7028    139.9342      8.5403
   4540.0000     58.3618      2.6361      2.6103      2.4864     17.5080     83.2821    136.3619      8.5624
   4540.5000     52.0723      2.7443      2.7182      2.4611     17.2967     82.2338    133.8239      8.5403
