~Version Information
 VERS.           2.0     :   CWLS log ASCII Standard -VERSION 2.0
 WRAP.           NO      :   One line per depth step
~Well Information
#MNEM.UNIT      VALUE/NAME              DESCRIPTION
#--------     --------------            ---------------------
 STRT.M           579.5000              :START DEPTH
 STOP.M          5115.5000              :STOP DEPTH
 STEP.M             0.5000              :STEP
 NULL.             -999.25              :NULL VALUE
 COMP.    ConocoPhillips                :COMPANY
 WELL.    Poseidon 1                    :WELL
 FLD .    Exploration                   :FIELD
 LOC .                                  :LOCATION
 PROV.                                  :PROVINCE
 SRVC.    Schlumberger D&M              :SERVICE COMPANY
 CTRY.                                  :COUNTRY
 DATE.    28-Apr-09                     :LOG DATE
 UWI .                                  :UNIQUE WELL ID
 LATI.DEG -13/37/16.79                   : Latitude
 LONG.DEG 122/18/23.99                  : Longitude
 GDAT.                                  : Geodetic Datum
~PARAMETER INFORMATION
~CURVE INFORMATION
#MNEM    .UNIT     API CODE             Curve Description
 DEPT    .M                             :   Along hole depth
 ECGR    .gAPI                          :   EDTC Corrected Gamma-Ray
 ATRX    .ohm.m                         :   Array Induction Two Foot Rxo
 ATRT    .ohm.m                         :   Array Induction Two Foot Rt
 NPHI    .pu                            :   Thermal Neutron Porosity (Ratio Method)
 CAL1    .in                            :   Caliper 1
 HDAR    .in                            :   Hole Diameter from Area
 HROM    .g/cm3                         :   LDS High Resolution Corrected Bulk Density
 DTSM    .us/ft                         :   Delta-T Shear
 DTCO    .us/ft                         :   Delta-T Compressional
#
# Curve              Start        Stop     Minimum     Maximum
# ------------------------------------------------------------
#
# ECGR            904.0000   5108.0000      5.0321    198.6361
# ATRX            579.5000   5114.0000      0.1100   1950.0000
# ATRT            579.5000   5114.0000      0.1803   1950.0000
# NPHI           3858.0000   5104.5000      1.0400     50.1900
# CAL1           3845.0000   5003.0000      4.5412     12.7663
# HDAR           3884.0000   5110.0000      5.8056     12.6868
# HROM           3887.0000   5115.0000      1.4423      3.0358
# DTSM           4395.0000   4974.0000     83.2234    221.9217
# DTCO           4395.0000   4974.0000     51.4416    111.5382
# ******************************
# 
# ************************************************************
#
# #
# LOCN 	LAT:	13o 37' 16.79" S			WELL NAME:	Poseidon 1
# 	LONG:	122o 18' 23.99" E
# 	EASTING:	425055.467m E	NORTHING: 	8493875.264m N	ZONE:	51	GDA 94
# SHOT POINT:		SEISMIC LINE:		STATUS:	P & A
# SEISMIC SURVEY:		INLINE:	XLINE:
# ELEVN SF:	494.0m	DATUM KB:	26.4m	OPERATOR:	ConocoPhillips
# BASIN :		Browse	TOTAL D:	5112.1m	PARTNERS:	Karoon
# SPUD DATE:	26/01/2009	COMPLN DATE:	29/05/2009	LEASE:	WA-315-P
# TARGET:	Plover SS			DRILLER:	Transocean
# DATA SOURCE:	WCR, logs			RIG:	Sedco 703
# #
# HOLE AND CASING DATA:
# 	Hole 	Hole	Casing	Casing 	Weight	Grade	Joints	Cement	TOC
# 	Size	Depth	Size	Depth	lb/ft
# 	36”	581.8m	30”	578m	310	X-52	5	1105 sx G at SG 1.9	Seafloor
# 								185 sx G at SG 1.9 – top up
# 	17.5”	2296m	13 3/8”	2287.5m	72	P-110	143	688 sx G at SG 1.5
# 								500 sx G at SG 1.9
# 	12.25”	3898m	9 5/8”	3890.8m	53.5	P-110	274	202 sx G at SG 1.62	
# 								133 sx G at SG 1.98
# 	9.5”	3965m	7 5/8”	3957m	30.5	EX-80	14	
# 	8.5”	4588m	7”	4587.5m	32 / 29	P110/L80	47/20	213 sx G at SG 1.9
# 	6”	5112.1m	5”	5088.4m	18	P-110	72	116 sx G at SG 1.9
# #
# TEMPERATURES:
# 	Depth Driller	Logger	Temp	Log Type	Time since circ	Circ Time
# 	3965m	3960m	104 deg C	FMI	22.78 hrs	2.5 hrs
# 	5112.1m	5118m	160 deg C	CMR	22.83 hrs
# 			162 deg C	HNGS	36.17 hrs
# 		4990m	165 deg c	Sonic Scanner	47.47 hrs
# #
# MUD PROPERTIES:
# Depth (L)	Fluid Type	SG	Vis.	pH	Fl cc	Rm	Rmf	Rmc
# 3965m	KCl-Polymer	1.29				0.167 at 18.6 deg C	0.244 at 17.8 deg C	0.261 at 18 deg C
# 		KCl	6%	Barite 	7.5%
# 5112.1m	Novatec SBM	1.20			3.6	
# 				Barite	10.3%
# #
#
# DEVIATION SURVEY:		(Schlumberger)
#	Depth	Dev (deg)	Azimuth (deg)	Depth	Dev (deg)	Azimuth (deg)
#	0.0m	0.00	0.00	520.5m	0.00	0.00
#	527.6m	0.39	259.27	552.8m	1.09	19.41
#	607.9m	0.33	161.06	636.3m	0.28	157.46
#	666.2m	0.42	156.27	723.3m	0.49	158.80
#	752.4m	0.76	145.50	811.0m	0.69	144.79
#	868.3m	0.66	149.14	897.2m	0.66	152.38
#	926.2m	0.53	150.70	1013.9m	0.64	144.22
#	1100.8m	0.45	222.81	1130.8m	0.53	244.07
#	1187.1m	0.69	231.27	1215.1m	0.65	232.48
#	1243.9m	0.64	288.99	1272.6m	0.63	304.63
#	1300.8m	0.62	311.48	1329.9m	0.16	285.18
#	1359.0m	0.11	292.17	1386.3m	0.31	331.80
#	1416.5m	0.53	355.63	1447.1m	0.61	2.60
#	1474.7m	0.94	7.68	1505.2m	1.01	358.08
#	1534.9m	0.92	345.86	1563.8m	0.61	5.17
#	1592.2m	0.76	17.60	1622.0m	0.60	20.84
#	1650.2m	0.65	36.42	1763.9m	0.60	51.71
#	1821.4m	0.46	44.49	1850.5m	0.79	49.16
#	1908.9m	0.96	36.49	1939.6m	0.58	13.70
#	1959.8m	0.13	322.88	2044.1m	0.34	243.01
#	2073.4m	0.44	233.00	2101.7m	0.51	240.40
#	2131.7m	0.50	252.10	2189.0m	0.49	257.69
#	2246.1m	0.42	251.29	2269.4m	0.43	247.24
#	2313.9m	0.33	207.85	2341.6m	0.20	199.21
#	2369.9m	0.15	229.33	2398.5m	0.14	219.45
#	2427.2m	0.22	182.60	2456.2m	0.23	217.52
#	2486.6m	0.30	200.91	2516.1m	0.34	250.17
#	2599.5m	0.23	257.73	2656.6m	0.37	259.03
#	2685.9m	0.36	244.41	2714.4m	0.33	247.01
#	2743.5m	0.44	264.65	2772.9m	0.36	248.49
#	2802.7m	0.49	249.47	2829.7m	0.46	254.82
#	2887.1m	0.37	245.00	2916.6m	0.30	229.13
#	2946.6m	0.14	227.49	3004.8m	0.20	234.38
#	3062.1m	0.52	223.74	3090.7m	0.51	219.43
#	3120.9m	0.47	216.60	3150.2m	0.49	219.95
#	3178.9m	0.44	222.75	3206.5m	0.40	211.30
#	3235.7m	0.35	217.26	3265.7m	0.49	214.66
#	3322.4m	0.35	211.44	3350.4m	0.36	212.61
#	3379.8m	0.35	230.18	3409.2m	0.34	230.92
#	3494.2m	0.34	231.38	3557.7m	0.29	277.76
#	3668.7m	0.32	324.77	3698.3m	0.43	340.30
#	3729.8m	0.45	340.13	3756.5m	0.39	332.45
#	3815.7m	0.44	309.71	3873.0m	0.59	285.30
#	4047.5m	4.76	321.71	4065.7m	5.39	333.06
#	4082.1m	6.39	336.20	4098.9m	7.73	337.83
#	4115.7m	9.43	344.07	4147.0m	12.37	344.49
#	4160.9m	13.41	345.79	4170.7m	13.89	349.54
#	4182.8m	14.27	348.89	4198.0m	15.83	349.61
#	4230.3m	13.55	353.68	4255.8m	12.41	353.57
#	4287.3m	11.70	355.88	4312.9m	11.40	355.42
#	4344.1m	10.54	354.84	4370.2m	10.32	356.38
#	4403.0m	10.25	3.71	4428.6m	10.50	359.63
#	4443.5m	9.94	359.87	4458.4m	10.08	1.47
#	4486.5m	9.71	359.12	4514.6m	9.26	359.81
#	4545.3m	9.64	0.67	4572.5m	9.26	356.64
#	4602.8m	8.97	350.43	4631.2m	8.70	344.94
#	4660.8m	8.34	342.12	4688.5m	8.14	338.90
#	4718.7m	8.30	333.76	4776.7m	8.03	335.31
#	4804.1m	7.88	336.68	4832.6m	7.95	337.54
#	4862.8m	7.84	339.39	4891.2m	7.71	338.67
#	4920.0m	8.19	338.17	4948.2m	8.48	335.94
#	4980.2m	8.19	335.87	5009.6m	7.89	329.96
#	5036.0m	7.84	329.96	5066.0m	7.78	329.28
#	5093.9m	7.52	327.67	5112.0m	7.52	327.67
#
# VELOCITY SURVEY:	(Schlumberger)		OWT, vertically corrected, relative to SRD (MSL)
#	Depth	TVD SS	OWT(sec)	Depth	TVD SS	OWT(sec)
#	29.3m	2.9m	0.0316	44.4m	18.0m	0.1682
#	59.5m	33.1m	0.3158	784.1m	757.7m	0.6576
#	799.2m	772.8m	0.6603	814.3m	787.9m	0.6620
#	829.5m	803.0m	0.6645	1744.4m	1717.9m	0.8235
#	1759.5m	1733.0m	0.8269	1774.6m	1748.2m	0.8303
#	1789.7m	1763.3m	0.8333	1804.9m	1778.5m	0.8364
#	1820.0m	1793.6m	0.8400	1835.2m	1808.7m	0.8433
#	1850.3m	1823.8m	0.8473	1865.4m	1838.9m	0.8510
#	1880.5m	1854.0m	0.8546	1895.6m	1869.1m	0.8584
#	1910.7m	1884.2m	0.8627	1925.8m	1899.3m	0.8666
#	1940.9m	1914.5m	0.8705	1956.1m	1929.6m	0.8744
#	1971.2m	1944.7m	0.8782	1986.4m	1959.9m	0.8816
#	2001.5m	1975.0m	0.8850	2016.7m	1990.2m	0.8885
#	2031.8m	2005.3m	0.8918	2046.8m	2020.3m	0.8953
#	2062.0m	2035.5m	0.8987	2077.1m	2050.6m	0.9018
#	2092.2m	2065.7m	0.9050	2107.3m	2080.8m	0.9080
#	2122.4m	2095.9m	0.9111	2137.6m	2111.1m	0.9138
#	2152.7m	2126.2m	0.9168	2167.8m	2141.3m	0.9196
#	2182.9m	2156.4m	0.9224	2198.1m	2171.6m	0.9253
#	2213.2m	2186.7m	0.9283	2228.3m	2201.8m	0.9313
#	2243.4m	2216.9m	0.9342	2258.6m	2232.1m	0.9371
#	2273.7m	2247.2m	0.9400	2288.8m	2262.4m	0.9430
#	2304.0m	2277.5m	0.9460	2319.1m	2292.6m	0.9488
#	2334.2m	2307.7m	0.9517	2349.2m	2322.7m	0.9545
#	2364.4m	2337.9m	0.9576	2379.5m	2353.0m	0.9605
#	2394.6m	2368.1m	0.9632	2409.6m	2383.1m	0.9661
#	2424.8m	2398.3m	0.9692	2439.9m	2413.4m	0.9724
#	2455.0m	2428.5m	0.9757	2470.2m	2443.7m	0.9795
#	2485.3m	2458.8m	0.9830	2500.4m	2473.9m	0.9865
#	2515.6m	2489.1m	0.9900	2530.7m	2504.2m	0.9937
#	2545.9m	2519.4m	0.9973	2561.0m	2534.5m	1.0010
#	2576.1m	2549.6m	1.0046	2591.2m	2564.7m	1.0080
#	2606.3m	2579.8m	1.0113	2621.5m	2595.0m	1.0147
#	2636.6m	2610.1m	1.0183	2651.6m	2625.1m	1.0215
#	2666.8m	2640.3m	1.0249	2681.9m	2655.4m	1.0285
#	2697.0m	2670.5m	1.0325	2712.1m	2685.6m	1.0361
#	2727.3m	2700.8m	1.0399	2742.4m	2715.9m	1.0434
#	2757.5m	2731.0m	1.0472	2772.6m	2746.1m	1.0510
#	2787.7m	2761.2m	1.0547	2802.8m	2776.3m	1.0582
#	2817.9m	2791.4m	1.0617	2833.0m	2806.5m	1.0651
#	2848.2m	2821.7m	1.0685	2863.3m	2836.8m	1.0718
#	2878.4m	2851.9m	1.0750	2893.6m	2867.1m	1.0781
#	2908.8m	2882.3m	1.0814	2914.1m	2887.6m	1.0824
#	2923.9m	2897.4m	1.0844	2929.2m	2902.7m	1.0855
#	2939.0m	2912.5m	1.0875	2944.4m	2917.8m	1.0887
#	2954.0m	2927.5m	1.0907	2959.5m	2933.0m	1.0921
#	2969.1m	2942.6m	1.0941	2984.3m	2957.8m	1.0975
#	2999.4m	2972.9m	1.1008	3014.5m	2988.0m	1.1040
#	3029.6m	3003.1m	1.1072	3044.8m	3018.3m	1.1103
#	3059.9m	3033.4m	1.1134	3075.1m	3048.5m	1.1165
#	3090.2m	3063.7m	1.1194	3105.3m	3078.8m	1.1224
#	3120.4m	3093.9m	1.1253	3135.6m	3109.0m	1.1284
#	3150.7m	3124.2m	1.1318	3165.8m	3139.3m	1.1352
#	3180.9m	3154.4m	1.1385	3196.0m	3169.5m	1.1420
#	3211.2m	3184.6m	1.1452	3226.3m	3199.8m	1.1486
#	3241.4m	3214.9m	1.1518	3256.4m	3229.9m	1.1550
#	3271.6m	3245.0m	1.1583	3286.7m	3260.2m	1.1618
#	3301.8m	3275.3m	1.1653	3316.9m	3290.4m	1.1690
#	3332.1m	3305.6m	1.1726	3347.2m	3320.7m	1.1767
#	3362.3m	3335.8m	1.1808	3377.4m	3350.9m	1.1849
#	3392.6m	3366.0m	1.1889	3407.7m	3381.2m	1.1926
#	3831.1m	3804.5m	1.2951	3846.2m	3819.6m	1.2989
#	3861.2m	3834.7m	1.3025	3876.3m	3849.8m	1.3067
#	3891.5m	3864.9m	1.3108	3906.6m	3880.0m	1.3154
#	3921.7m	3895.1m	1.3196	3936.8m	3910.2m	1.3245
#	3952.0m	3925.3m	1.3297	3967.1m	3940.4m	1.3350
#	3982.3m	3955.6m	1.3402	3997.4m	3970.7m	1.3452
#	4012.5m	3985.8m	1.3502	4027.6m	4000.9m	1.3552
#	4042.6m	4015.9m	1.3603	4057.8m	4031.0m	1.3653
#	4072.9m	4046.0m	1.3703	4088.0m	4061.0m	1.3752
#	4103.2m	4076.1m	1.3799	4118.3m	4091.0m	1.3848
#	4133.4m	4105.8m	1.3895	4148.5m	4120.7m	1.3944
#	4163.7m	4135.4m	1.3993	4178.8m	4150.1m	1.4041
#	4193.9m	4164.7m	1.4089	4209.0m	4179.3m	1.4135
#	4224.1m	4193.9m	1.4181	4239.2m	4208.6m	1.4227
#	4254.3m	4223.3m	1.4271	4269.4m	4238.1m	1.4316
#	4284.7m	4253.0m	1.4359	4284.7m	4253.0m	1.4358
#	4299.8m	4267.8m	1.4402	4299.8m	4267.8m	1.4402
#	4314.9m	4282.6m	1.4448	4314.9m	4282.6m	1.4447
#	4330.0m	4297.5m	1.4493	4330.0m	4297.5m	1.4493	
#
# ************************************************************
#    This LAS file was created by Occam Technology Pty. Ltd.
# The edit data contained herein are copyright property of
# Occam Technology Pty. Ltd. The data are licensed to the
# purchasing company and subsidiaries worldwide, and are NOT
# for on-copying to third parties.  We place no restriction on
# the distribution of plots generated from the digital data.
#
#    We supply the data on a 'best effort' basis.  We cannot
# control either the original data acquisition or the application
# of the data, and therefore we cannot be held responsible for
# the consequences of any interpretations based on the data.  We
# urge purchasers to apply normal quality control procedures to
# the data before use for any quantitative interpretative
# procedures.
# ************************************************************
~A      DEPT        ECGR        ATRX        ATRT        NPHI        CAL1        HDAR        HROM        DTSM        DTCO
# ...
   4767.0000     82.1301      0.4751      0.5347     42.4200      5.8823      6.4383      2.8308    189.2882     95.1864
   4767.5000     89.6700      0.4712      0.5015     41.3900      6.0159      6.5763      2.6160    192.5586     94.8784
   4768.0000     79.5047      0.4815      0.4929     39.7800      6.1033      6.9277      2.4513    192.3053     97.5699
   4768.5000     77.7781      0.4938      0.5178     41.5200      6.1072      6.7179      2.4589    191.7228     98.4095
   4769.0000     71.4227      0.5191      0.5632     43.5300      6.0747      6.4096      2.5806    189.3186     93.9859
   4769.5000     62.8940      0.6067      0.6570     40.1000      6.0991      6.3809      2.6380    176.0929     90.4384
   4770.0000     62.8756      0.7436      0.7940     37.1800      6.1062      6.3684      2.6384    185.9972     94.4821
   4770.5000     61.3159      0.7638      0.8294     37.4900      6.1230      6.3702      2.6906    167.1251     90.5070
   4771.0000     67.7856      0.7412      0.8246     36.3100      6.0954      6.6723      2.6725    174.0566     87.5914
   4771.5000     68.9071      0.7613      0.8495     34.8400      6.0784      7.0370      2.4462    194.8670     98.1513
   4772.0000     51.3544      0.6574      0.7158     41.9100      6.0593      6.7484      2.4647    197.4303    107.2814
   4772.5000     41.6482      0.6004      0.6455     41.8700      6.2133      6.4042      2.5588    186.1667     96.3848
   4773.0000     49.4658      0.6467      0.6821     39.3600      6.1359      6.4293      2.5688    186.1981     98.2635
   4773.5000     51.1818      0.6827      0.7105     41.1400      6.1079      6.3666      2.5387    184.1565     95.0176
   4774.0000     44.4269      0.7194      0.7448     39.7200      6.0792      6.3343      2.6520    168.5562     89.3404
   4774.5000     39.7344      0.8778      0.9128     36.1800      6.1158      6.2464      2.6276    153.3685     86.4934
   4775.0000     18.3394      1.2535      1.3522     25.5600      6.1052      6.2188      2.6727    132.2688     70.7472
   4775.5000     17.8696      2.1337      3.2885     27.2400      6.0999      6.3522      2.6544    125.2740     67.1614
   4776.0000     15.8205      4.4601     12.8244     27.2000      6.1439      6.3648      2.6243    125.3504     71.3838
   4776.5000     14.3127      6.6992     30.0737     28.0600      6.1375      6.3711      2.6211    122.9749     69.1782
   4777.0000     15.5126      7.1362     45.5970     22.5700      6.1076      6.3612      2.6805    113.1676     61.2485
   4777.5000     12.7436      7.7579     40.6534     21.8100      6.1033      6.3630      2.6891    112.0194     58.8575
   4778.0000     12.8060     11.1666     57.0780     19.8600      6.1083      6.3648      2.6971    117.4563     58.5143
   4778.5000     16.8142     10.4227     40.5504     22.9900      6.1030      6.3702      2.6657    129.5600     79.4583
   4779.0000     19.0589      6.9623     12.8012     29.5700      6.1382      6.3648      2.6246    131.7542     74.7898
   4779.5000     13.8306      8.4100     11.2572     25.4400      6.1431      6.3648      2.6689    125.5286     67.3824
   4780.0000     13.5145      9.7921     25.3211     23.9100      6.1315      6.3702      2.6670    121.8480     65.7801
   4780.5000     12.3770      9.2082     31.1843     21.4900      6.1811      6.3176      2.7133    116.6646     59.9194
   4781.0000     14.2446     12.5818     38.9209     21.9900      6.1407      6.3182      2.7124    113.9934     61.1294
   4781.5000     13.5821      9.0781     26.9169     22.3900      6.1125      6.3627      2.7130    112.4475     58.4268
   4782.0000     14.3386      5.9736     16.5557     23.1800      6.1302      6.3594      2.6833    114.7064     60.3926
   4782.5000     16.5640      6.1895     16.2486     22.9200      6.1046      6.3737      2.6650    120.6019     64.7965
   4783.0000     18.9648      8.2299     15.9978     23.5800      6.1022      6.3612      2.6421    122.7643     65.3612
   4783.5000     19.6979     10.2095     20.7300     24.6200      6.0987      6.3644      2.6202    123.2624     68.8207
   4784.0000     17.4887     39.4190     17.8541     29.7800      6.1453      6.3612      2.5868    125.2729     70.7766
   4784.5000     14.8907    231.3998     34.2928     30.9900      6.1374      6.4042      2.5760    132.1224     70.4238
   4785.0000     16.3196     90.9094     28.9707     30.3200      6.2143      6.4096      2.6009    132.5793     68.3803
   4785.5000     14.9894     51.7969     19.8148     24.7300      6.1819      6.3988      2.6376    124.1953     68.8545
   4786.0000     14.7290     48.9118     15.6414     20.2200      6.2194      6.4024      2.6948    117.1706     62.8902
   4786.5000     13.1210     48.2054     17.4946     20.0300      6.1757      6.4024      2.7186    112.2971     58.4452
   4787.0000     12.8246     43.8908     25.2779     21.1400      6.1762      6.4062      2.6740    120.0926     60.4794
   4787.5000     14.7304     33.6546     36.3749     18.9800      6.1791      6.4168      2.7348    121.2129     59.6903
   4788.0000     13.1193     22.4233     43.5897     21.5400      6.1721      6.4096      2.6973    122.9601     59.4526
   4788.5000     13.7786     17.5949     41.4662     21.8900      6.2166      6.4257      2.6262    125.6096     63.2257
   4789.0000     17.4178     14.9134     25.1316     26.0000      6.1730      6.4168      2.6084    124.2059     64.4183
   4789.5000     18.1998     13.7107     17.8530     27.4600      6.1796      6.4347      2.5259    125.4406     64.6040
   4790.0000     26.9048     12.3021     33.5671     28.0600      6.1773      6.4831      2.5712    127.5979     66.9118
   4790.5000     42.8163      6.7756     13.3186     27.0300      6.2186      6.4723      2.6587    140.8402     78.6041
   4791.0000     36.1767      6.3680     13.2056     27.2300      6.2254      6.4419      2.5826    146.7025     79.7413
   4791.5000     32.2180     19.4502     73.4482     24.4800      6.2317      6.4414      2.6305    142.8122     78.9970
   4792.0000     33.2923     93.3871     59.6035     25.3400      6.2937      6.4365      2.6421    138.0477     73.0800
   4792.5000     28.6640    130.7598     33.1496     17.4700      6.2159      6.4078      2.7002    131.3610     73.1173
   4793.0000     42.6726     48.5804     55.4284     22.1000      6.2149      6.4447      2.7729    130.9303     72.3832
   4793.5000    101.7312     15.8450     23.0664     29.6100      6.1755      6.4006      2.6699    117.9871     61.0896
   4794.0000     76.6337      5.1763      5.4031     22.1000      6.1834      6.4293      2.6994    125.4187     70.7108
   4794.5000     86.5386     11.7181     12.9240     25.6100      6.1750      6.4454      2.6786    113.8226     64.9264
   4795.0000     88.4062      5.4621      5.2407     26.4600      6.2130      6.4401      2.5946    122.7489     69.3431
   4795.5000     66.5493      7.8033      8.8633     22.4100      6.2593      6.4024      2.7924    106.4069     61.5425
   4796.0000     67.1463     35.0164     26.0976     22.6500      6.3236      6.4029      2.6771    103.8502     62.4462
   4796.5000     58.8670     17.2583     14.1323     22.2400      6.2148      6.3684      2.6737    109.8950     64.5339
   4797.0000     60.4585     13.1315     11.8860     22.5600      6.2669      6.3719      2.7284    105.8346     62.4122
   4797.5000     70.6650     14.4001     13.3650     25.1200      6.2583      6.3276      2.6985    105.9315     62.7077
   4798.0000     75.3038     17.3738     16.9064     21.7000      6.2524      6.2841      2.6916    104.2882     61.2684
   4798.5000     42.8590     22.0542     21.2667     11.1800      6.2049      6.2339      2.6688    102.3662     60.5294
   4799.0000     21.1633     30.9464     28.2899      5.9200      6.1446      6.1604      2.5933     96.2693     62.8928
   4799.5000     19.0566    122.6726    284.6080      5.7500      6.1009      6.1263      2.4619     99.0903     62.9710
   4800.0000     14.2357    582.6841    366.2667      7.9900      6.0639      6.1335      2.5305     97.7620     60.1294
