~Version Information
 VERS.           2.0     :   CWLS log ASCII Standard -VERSION 2.0
 WRAP.           NO      :   One line per depth step
~Well Information
#MNEM.UNIT      VALUE/NAME              DESCRIPTION
#--------     --------------            ---------------------
 STRT.M           579.5000              :START DEPTH
 STOP.M          5115.5000              :STOP DEPTH
 STEP.M             0.5000              :STEP
 NULL.             -999.25              :NULL VALUE
 COMP.    ConocoPhillips                :COMPANY
 WELL.    Poseidon 1                    :WELL
 FLD .    Exploration                   :FIELD
 LOC .                                  :LOCATION
 PROV.                                  :PROVINCE
 SRVC.    Schlumberger D&M              :SERVICE COMPANY
 CTRY.                                  :COUNTRY
 DATE.    28-Apr-09                     :LOG DATE
 UWI .                                  :UNIQUE WELL ID
 LATI.DEG -13/37/16.79                   : Latitude
 LONG.DEG 122/18/23.99                  : Longitude
 GDAT.                                  : Geodetic Datum
~PARAMETER INFORMATION
~CURVE INFORMATION
#MNEM    .UNIT     API CODE             Curve Description
 DEPT    .M                             :   Along hole depth
 ECGR    .gAPI                          :   EDTC Corrected Gamma-Ray
 ATRX    .ohm.m                         :   Array Induction Two Foot Rxo
 ATRT    .ohm.m                         :   Array Induction Two Foot Rt
 NPHI    .pu                            :   Thermal Neutron Porosity (Ratio Method)
 CAL1    .in                            :   Caliper 1
 HDAR    .in                            :   Hole Diameter from Area
 HROM    .g/cm3                         :   LDS High Resolution Corrected Bulk Density
 DTSM    .us/ft                         :   Delta-T Shear
 DTCO    .us/ft                         :   Delta-T Compressional
#
# Curve              Start        Stop     Minimum     Maximum
# ------------------------------------------------------------
#
# ECGR            904.0000   5108.0000      5.0321    198.6361
# ATRX            579.5000   5114.0000      0.1100   1950.0000
# ATRT            579.5000   5114.0000      0.1803   1950.0000
# NPHI           3858.0000   5104.5000      1.0400     50.1900
# CAL1           3845.0000   5003.0000      4.5412     12.7663
# HDAR           3884.0000   5110.0000      5.8056     12.6868
# HROM           3887.0000   5115.0000      1.4423      3.0358
# DTSM           4395.0000   4974.0000     83.2234    221.9217
# DTCO           4395.0000   4974.0000     51.4416    111.5382
# ******************************
# 
# ************************************************************
#
# #
# LOCN 	LAT:	13o 37' 16.79" S			WELL NAME:	Poseidon 1
# 	LONG:	122o 18' 23.99" E
# 	EASTING:	425055.467m E	NORTHING: 	8493875.264m N	ZONE:	51	GDA 94
# SHOT POINT:		SEISMIC LINE:		STATUS:	P & A
# SEISMIC SURVEY:		INLINE:	XLINE:
# ELEVN SF:	494.0m	DATUM KB:	26.4m	OPERATOR:	ConocoPhillips
# BASIN :		Browse	TOTAL D:	5112.1m	PARTNERS:	Karoon
# SPUD DATE:	26/01/2009	COMPLN DATE:	29/05/2009	LEASE:	WA-315-P
# TARGET:	Plover SS			DRILLER:	Transocean
# DATA SOURCE:	WCR, logs			RIG:	Sedco 703
# #
# HOLE AND CASING DATA:
# 	Hole 	Hole	Casing	Casing 	Weight	Grade	Joints	Cement	TOC
# 	Size	Depth	Size	Depth	lb/ft
# 	36”	581.8m	30”	578m	310	X-52	5	1105 sx G at SG 1.9	Seafloor
# 								185 sx G at SG 1.9 – top up
# 	17.5”	2296m	13 3/8”	2287.5m	72	P-110	143	688 sx G at SG 1.5
# 								500 sx G at SG 1.9
# 	12.25”	3898m	9 5/8”	3890.8m	53.5	P-110	274	202 sx G at SG 1.62	
# 								133 sx G at SG 1.98
# 	9.5”	3965m	7 5/8”	3957m	30.5	EX-80	14	
# 	8.5”	4588m	7”	4587.5m	32 / 29	P110/L80	47/20	213 sx G at SG 1.9
# 	6”	5112.1m	5”	5088.4m	18	P-110	72	116 sx G at SG 1.9
# #
# TEMPERATURES:
# 	Depth Driller	Logger	Temp	Log Type	Time since circ	Circ Time
# 	3965m	3960m	104 deg C	FMI	22.78 hrs	2.5 hrs
# 	5112.1m	5118m	160 deg C	CMR	22.83 hrs
# 			162 deg C	HNGS	36.17 hrs
# 		4990m	165 deg c	Sonic Scanner	47.47 hrs
# #
# MUD PROPERTIES:
# Depth (L)	Fluid Type	SG	Vis.	pH	Fl cc	Rm	Rmf	Rmc
# 3965m	KCl-Polymer	1.29				0.167 at 18.6 deg C	0.244 at 17.8 deg C	0.261 at 18 deg C
# 		KCl	6%	Barite 	7.5%
# 5112.1m	Novatec SBM	1.20			3.6	
# 				Barite	10.3%
# #
#
# DEVIATION SURVEY:		(Schlumberger)
#	Depth	Dev (deg)	Azimuth (deg)	Depth	Dev (deg)	Azimuth (deg)
#	0.0m	0.00	0.00	520.5m	0.00	0.00
#	527.6m	0.39	259.27	552.8m	1.09	19.41
#	607.9m	0.33	161.06	636.3m	0.28	157.46
#	666.2m	0.42	156.27	723.3m	0.49	158.80
#	752.4m	0.76	145.50	811.0m	0.69	144.79
#	868.3m	0.66	149.14	897.2m	0.66	152.38
#	926.2m	0.53	150.70	1013.9m	0.64	144.22
#	1100.8m	0.45	222.81	1130.8m	0.53	244.07
#	1187.1m	0.69	231.27	1215.1m	0.65	232.48
#	1243.9m	0.64	288.99	1272.6m	0.63	304.63
#	1300.8m	0.62	311.48	1329.9m	0.16	285.18
#	1359.0m	0.11	292.17	1386.3m	0.31	331.80
#	1416.5m	0.53	355.63	1447.1m	0.61	2.60
#	1474.7m	0.94	7.68	1505.2m	1.01	358.08
#	1534.9m	0.92	345.86	1563.8m	0.61	5.17
#	1592.2m	0.76	17.60	1622.0m	0.60	20.84
#	1650.2m	0.65	36.42	1763.9m	0.60	51.71
#	1821.4m	0.46	44.49	1850.5m	0.79	49.16
#	1908.9m	0.96	36.49	1939.6m	0.58	13.70
#	1959.8m	0.13	322.88	2044.1m	0.34	243.01
#	2073.4m	0.44	233.00	2101.7m	0.51	240.40
#	2131.7m	0.50	252.10	2189.0m	0.49	257.69
#	2246.1m	0.42	251.29	2269.4m	0.43	247.24
#	2313.9m	0.33	207.85	2341.6m	0.20	199.21
#	2369.9m	0.15	229.33	2398.5m	0.14	219.45
#	2427.2m	0.22	182.60	2456.2m	0.23	217.52
#	2486.6m	0.30	200.91	2516.1m	0.34	250.17
#	2599.5m	0.23	257.73	2656.6m	0.37	259.03
#	2685.9m	0.36	244.41	2714.4m	0.33	247.01
#	2743.5m	0.44	264.65	2772.9m	0.36	248.49
#	2802.7m	0.49	249.47	2829.7m	0.46	254.82
#	2887.1m	0.37	245.00	2916.6m	0.30	229.13
#	2946.6m	0.14	227.49	3004.8m	0.20	234.38
#	3062.1m	0.52	223.74	3090.7m	0.51	219.43
#	3120.9m	0.47	216.60	3150.2m	0.49	219.95
#	3178.9m	0.44	222.75	3206.5m	0.40	211.30
#	3235.7m	0.35	217.26	3265.7m	0.49	214.66
#	3322.4m	0.35	211.44	3350.4m	0.36	212.61
#	3379.8m	0.35	230.18	3409.2m	0.34	230.92
#	3494.2m	0.34	231.38	3557.7m	0.29	277.76
#	3668.7m	0.32	324.77	3698.3m	0.43	340.30
#	3729.8m	0.45	340.13	3756.5m	0.39	332.45
#	3815.7m	0.44	309.71	3873.0m	0.59	285.30
#	4047.5m	4.76	321.71	4065.7m	5.39	333.06
#	4082.1m	6.39	336.20	4098.9m	7.73	337.83
#	4115.7m	9.43	344.07	4147.0m	12.37	344.49
#	4160.9m	13.41	345.79	4170.7m	13.89	349.54
#	4182.8m	14.27	348.89	4198.0m	15.83	349.61
#	4230.3m	13.55	353.68	4255.8m	12.41	353.57
#	4287.3m	11.70	355.88	4312.9m	11.40	355.42
#	4344.1m	10.54	354.84	4370.2m	10.32	356.38
#	4403.0m	10.25	3.71	4428.6m	10.50	359.63
#	4443.5m	9.94	359.87	4458.4m	10.08	1.47
#	4486.5m	9.71	359.12	4514.6m	9.26	359.81
#	4545.3m	9.64	0.67	4572.5m	9.26	356.64
#	4602.8m	8.97	350.43	4631.2m	8.70	344.94
#	4660.8m	8.34	342.12	4688.5m	8.14	338.90
#	4718.7m	8.30	333.76	4776.7m	8.03	335.31
#	4804.1m	7.88	336.68	4832.6m	7.95	337.54
#	4862.8m	7.84	339.39	4891.2m	7.71	338.67
#	4920.0m	8.19	338.17	4948.2m	8.48	335.94
#	4980.2m	8.19	335.87	5009.6m	7.89	329.96
#	5036.0m	7.84	329.96	5066.0m	7.78	329.28
#	5093.9m	7.52	327.67	5112.0m	7.52	327.67
#
# VELOCITY SURVEY:	(Schlumberger)		OWT, vertically corrected, relative to SRD (MSL)
#	Depth	TVD SS	OWT(sec)	Depth	TVD SS	OWT(sec)
#	29.3m	2.9m	0.0316	44.4m	18.0m	0.1682
#	59.5m	33.1m	0.3158	784.1m	757.7m	0.6576
#	799.2m	772.8m	0.6603	814.3m	787.9m	0.6620
#	829.5m	803.0m	0.6645	1744.4m	1717.9m	0.8235
#	1759.5m	1733.0m	0.8269	1774.6m	1748.2m	0.8303
#	1789.7m	1763.3m	0.8333	1804.9m	1778.5m	0.8364
#	1820.0m	1793.6m	0.8400	1835.2m	1808.7m	0.8433
#	1850.3m	1823.8m	0.8473	1865.4m	1838.9m	0.8510
#	1880.5m	1854.0m	0.8546	1895.6m	1869.1m	0.8584
#	1910.7m	1884.2m	0.8627	1925.8m	1899.3m	0.8666
#	1940.9m	1914.5m	0.8705	1956.1m	1929.6m	0.8744
#	1971.2m	1944.7m	0.8782	1986.4m	1959.9m	0.8816
#	2001.5m	1975.0m	0.8850	2016.7m	1990.2m	0.8885
#	2031.8m	2005.3m	0.8918	2046.8m	2020.3m	0.8953
#	2062.0m	2035.5m	0.8987	2077.1m	2050.6m	0.9018
#	2092.2m	2065.7m	0.9050	2107.3m	2080.8m	0.9080
#	2122.4m	2095.9m	0.9111	2137.6m	2111.1m	0.9138
#	2152.7m	2126.2m	0.9168	2167.8m	2141.3m	0.9196
#	2182.9m	2156.4m	0.9224	2198.1m	2171.6m	0.9253
#	2213.2m	2186.7m	0.9283	2228.3m	2201.8m	0.9313
#	2243.4m	2216.9m	0.9342	2258.6m	2232.1m	0.9371
#	2273.7m	2247.2m	0.9400	2288.8m	2262.4m	0.9430
#	2304.0m	2277.5m	0.9460	2319.1m	2292.6m	0.9488
#	2334.2m	2307.7m	0.9517	2349.2m	2322.7m	0.9545
#	2364.4m	2337.9m	0.9576	2379.5m	2353.0m	0.9605
#	2394.6m	2368.1m	0.9632	2409.6m	2383.1m	0.9661
#	2424.8m	2398.3m	0.9692	2439.9m	2413.4m	0.9724
#	2455.0m	2428.5m	0.9757	2470.2m	2443.7m	0.9795
#	2485.3m	2458.8m	0.9830	2500.4m	2473.9m	0.9865
#	2515.6m	2489.1m	0.9900	2530.7m	2504.2m	0.9937
#	2545.9m	2519.4m	0.9973	2561.0m	2534.5m	1.0010
#	2576.1m	2549.6m	1.0046	2591.2m	2564.7m	1.0080
#	2606.3m	2579.8m	1.0113	2621.5m	2595.0m	1.0147
#	2636.6m	2610.1m	1.0183	2651.6m	2625.1m	1.0215
#	2666.8m	2640.3m	1.0249	2681.9m	2655.4m	1.0285
#	2697.0m	2670.5m	1.0325	2712.1m	2685.6m	1.0361
#	2727.3m	2700.8m	1.0399	2742.4m	2715.9m	1.0434
#	2757.5m	2731.0m	1.0472	2772.6m	2746.1m	1.0510
#	2787.7m	2761.2m	1.0547	2802.8m	2776.3m	1.0582
#	2817.9m	2791.4m	1.0617	2833.0m	2806.5m	1.0651
#	2848.2m	2821.7m	1.0685	2863.3m	2836.8m	1.0718
#	2878.4m	2851.9m	1.0750	2893.6m	2867.1m	1.0781
#	2908.8m	2882.3m	1.0814	2914.1m	2887.6m	1.0824
#	2923.9m	2897.4m	1.0844	2929.2m	2902.7m	1.0855
#	2939.0m	2912.5m	1.0875	2944.4m	2917.8m	1.0887
#	2954.0m	2927.5m	1.0907	2959.5m	2933.0m	1.0921
#	2969.1m	2942.6m	1.0941	2984.3m	2957.8m	1.0975
#	2999.4m	2972.9m	1.1008	3014.5m	2988.0m	1.1040
#	3029.6m	3003.1m	1.1072	3044.8m	3018.3m	1.1103
#	3059.9m	3033.4m	1.1134	3075.1m	3048.5m	1.1165
#	3090.2m	3063.7m	1.1194	3105.3m	3078.8m	1.1224
#	3120.4m	3093.9m	1.1253	3135.6m	3109.0m	1.1284
#	3150.7m	3124.2m	1.1318	3165.8m	3139.3m	1.1352
#	3180.9m	3154.4m	1.1385	3196.0m	3169.5m	1.1420
#	3211.2m	3184.6m	1.1452	3226.3m	3199.8m	1.1486
#	3241.4m	3214.9m	1.1518	3256.4m	3229.9m	1.1550
#	3271.6m	3245.0m	1.1583	3286.7m	3260.2m	1.1618
#	3301.8m	3275.3m	1.1653	3316.9m	3290.4m	1.1690
#	3332.1m	3305.6m	1.1726	3347.2m	3320.7m	1.1767
#	3362.3m	3335.8m	1.1808	3377.4m	3350.9m	1.1849
#	3392.6m	3366.0m	1.1889	3407.7m	3381.2m	1.1926
#	3831.1m	3804.5m	1.2951	3846.2m	3819.6m	1.2989
#	3861.2m	3834.7m	1.3025	3876.3m	3849.8m	1.3067
#	3891.5m	3864.9m	1.3108	3906.6m	3880.0m	1.3154
#	3921.7m	3895.1m	1.3196	3936.8m	3910.2m	1.3245
#	3952.0m	3925.3m	1.3297	3967.1m	3940.4m	1.3350
#	3982.3m	3955.6m	1.3402	3997.4m	3970.7m	1.3452
#	4012.5m	3985.8m	1.3502	4027.6m	4000.9m	1.3552
#	4042.6m	4015.9m	1.3603	4057.8m	4031.0m	1.3653
#	4072.9m	4046.0m	1.3703	4088.0m	4061.0m	1.3752
#	4103.2m	4076.1m	1.3799	4118.3m	4091.0m	1.3848
#	4133.4m	4105.8m	1.3895	4148.5m	4120.7m	1.3944
#	4163.7m	4135.4m	1.3993	4178.8m	4150.1m	1.4041
#	4193.9m	4164.7m	1.4089	4209.0m	4179.3m	1.4135
#	4224.1m	4193.9m	1.4181	4239.2m	4208.6m	1.4227
#	4254.3m	4223.3m	1.4271	4269.4m	4238.1m	1.4316
#	4284.7m	4253.0m	1.4359	4284.7m	4253.0m	1.4358
#	4299.8m	4267.8m	1.4402	4299.8m	4267.8m	1.4402
#	4314.9m	4282.6m	1.4448	4314.9m	4282.6m	1.4447
#	4330.0m	4297.5m	1.4493	4330.0m	4297.5m	1.4493	
#
# ************************************************************
#    This LAS file was created by Occam Technology Pty. Ltd.
# The edit data contained herein are copyright property of
# Occam Technology Pty. Ltd. The data are licensed to the
# purchasing company and subsidiaries worldwide, and are NOT
# for on-copying to third parties.  We place no restriction on
# the distribution of plots generated from the digital data.
#
#    We supply the data on a 'best effort' basis.  We cannot
# control either the original data acquisition or the application
# of the data, and therefore we cannot be held responsible for
# the consequences of any interpretations based on the data.  We
# urge purchasers to apply normal quality control procedures to
# the data before use for any quantitative interpretative
# procedures.
# ************************************************************
~A      DEPT        ECGR        ATRX        ATRT        NPHI        CAL1        HDAR        HROM        DTSM        DTCO
# ...
   4834.0000    110.4594     18.2864     17.5725     13.1800      6.1083      6.2142      2.6914    104.8490     61.5547
   4834.5000    104.5530     19.3651     15.5630     14.0100      6.1190      6.2088      2.6442    105.9089     60.7405
   4835.0000    107.1533     17.4899     11.6892     12.2600      6.1152      6.2106      2.6708    112.2317     65.5114
   4835.5000    111.5086     16.4166     16.2276     12.1900      6.1068      6.2088      2.7171    106.5874     62.8088
   4836.0000    117.7857     15.4606     12.7463     13.3600      6.1390      6.2071      2.6378    106.7860     64.3478
   4836.5000    111.0713     14.3658     15.1131     12.3000      6.1374      6.2034      2.6749    109.5955     63.4590
   4837.0000     80.9776     15.6579     15.3237      8.4400      6.0960      6.2088      2.6659    106.7245     64.3708
   4837.5000     88.4970     16.4470     15.4361      6.1900      6.0933      6.2070      2.7060    105.1639     63.5537
   4838.0000     73.3871     23.8311     23.7152      5.5900      6.0945      6.2088      2.6772    102.8567     60.2672
   4838.5000     99.4072     26.8964     27.0157      7.3400      6.0830      6.2070      2.6423     98.3077     60.3158
   4839.0000     97.3024     34.2780     34.4615      7.9800      6.0593      6.2016      2.6231     98.9519     60.8153
   4839.5000     94.2341     18.5912     18.3923      7.9300      6.0567      6.2142      2.6711    102.7032     62.7015
   4840.0000    103.3427     19.8391     19.2018      8.1600      6.0202      6.2016      2.6448    102.7032     62.4905
   4840.5000     80.5947     21.5740     21.5634      6.6100      6.0612      6.2106      2.6840    103.6739     62.5031
   4841.0000     65.0862     16.9934     16.3967      4.1500      6.0648      6.2052      2.6589    103.8083     63.1148
   4841.5000     57.3079     27.9904     27.3053      4.1200      6.0861      6.2124      2.7187     97.9194     58.7251
   4842.0000    108.0207     66.0007     47.7377     12.2200      6.0225      6.2052      2.6438     96.2575     56.5274
   4842.5000     94.4316     32.4689     24.6629      9.8000      6.0243      6.1980      2.6121    104.3520     64.2813
   4843.0000     68.0012     15.8544     14.7485      9.1900      6.0664      6.1620      2.6328    105.4408     64.4241
   4843.5000     71.5331     20.0254     21.7032      6.4100      6.1098      6.1640      2.7078    102.9410     61.5542
   4844.0000     84.8146     32.7312     31.5716      7.7900      6.0677      6.1604      2.6776     98.7826     59.0622
   4844.5000    105.4982     33.2383     29.0276     11.3500      6.0666      6.1694      2.6479     99.2078     60.6725
   4845.0000     84.2607     23.1011     21.4253      8.8500      6.0676      6.1694      2.6281    103.8355     61.5990
   4845.5000     67.2438     17.2483     17.0257      9.0800      6.0593      6.1604      2.7332    104.9003     64.2821
   4846.0000     93.7640     24.9523     25.5203     12.6100      6.0608      6.1676      2.6717    102.7885     58.6691
   4846.5000     88.4218     18.9379     18.5845     11.8600      5.9940      6.1622      2.6583    104.1299     61.3801
   4847.0000     88.5405     12.3572     11.2754     10.5200      5.9923      6.1640      2.6664    110.3180     64.3830
   4847.5000     85.2396     12.5353     12.0520     12.0700      6.0252      6.1586      2.6600    106.6206     63.4667
   4848.0000     91.6362     13.6858     13.1383     11.1200      6.0585      6.1604      2.6823    106.9294     63.5663
   4848.5000    106.7152     13.2613     13.0973     14.3800      6.0179      6.1686      2.7272    109.6301     64.2747
   4849.0000     92.1377     14.6226     15.0224     13.1700      6.0194      6.1676      2.6512    111.2978     62.6970
   4849.5000     92.6926      8.7507      8.5503     14.6400      6.0232      6.1653      2.8644    113.5408     65.3459
   4850.0000     89.1695     18.7889     20.5751     16.2400      6.0225      6.1686      2.6788    111.9343     61.2983
   4850.5000    105.1625     15.3277     15.1428     18.3900      6.0164      6.2088      2.6651    114.3342     66.4787
   4851.0000     95.0811     15.3962     15.5350     10.4000      6.0432      6.2038      2.6824    120.0263     68.7445
   4851.5000    119.2706     10.4716     10.2066     18.0200      6.0531      6.2138      2.6435    113.8221     64.0992
   4852.0000    108.7561     19.4918     16.4502     21.7000      6.0608      6.2155      2.6627    119.8953     65.3797
   4852.5000    114.3523     11.8600     11.4401     17.2800      6.0276      6.2105      2.6705    123.6089     70.3966
   4853.0000     71.9438      9.7470      9.6057     13.6900      6.0348      6.2105      2.7812    124.1656     70.1135
   4853.5000     98.1823     11.0249     10.7842     17.9300      6.0428      6.2214      2.6422    115.3342     65.0549
   4854.0000    109.6376     16.0821     16.2112     18.8000      6.0363      6.2088      2.6873    113.8540     62.5872
   4854.5000    108.1724      9.5250      9.7482     20.5100      6.0650      6.2393      2.6777    125.9178     70.3518
   4855.0000    101.6006      7.9308      7.9409     19.5600      6.0294      6.2375      2.7537    128.8678     70.3207
   4855.5000    116.9502      6.6743      6.6816     20.6700      6.0685      6.2464      2.6624    127.7746     69.2328
   4856.0000     95.5612      6.3912      6.4112     16.4600      6.0677      6.2375      2.7286    129.0870     69.1233
   4856.5000    102.6255      7.6862      7.8851     17.5900      6.0685      6.2482      2.6896    129.8672     71.2249
   4857.0000    107.8630      8.2361      8.1295     16.1700      6.0639      6.2429      2.7110    125.6724     67.3335
   4857.5000     97.0621      9.1347      9.5446     15.7500      6.0217      6.2423      2.6624    125.7036     70.2710
   4858.0000    111.2033     10.2017     10.6965     17.6800      5.9918      6.2490      2.6786    121.7330     66.5144
   4858.5000     95.2096      9.4884      9.6849     17.4600      6.0023      6.2375      2.6908    123.2422     67.0124
   4859.0000    109.9761     11.7973     12.4121     17.2000      5.9826      6.2447      2.6843    122.0525     66.3857
   4859.5000    114.1630      7.6857      7.7562     20.2600      5.9903      6.2429      2.7539    120.0804     65.5901
   4860.0000    101.0992      7.2374      7.2616     20.7900      5.9907      6.2439      2.7063    122.8259     67.5061
   4860.5000    124.3540     10.3717     11.0560     22.1000      5.9850      6.2473      2.6501    124.2771     65.3717
   4861.0000    128.1123      7.2652      7.3175     19.6200      5.9845      6.2506      2.6788    130.0441     70.4506
   4861.5000     99.9487      7.5923      7.5928     18.2800      5.9828      6.2456      2.8087    125.2245     69.0158
   4862.0000    125.7042      5.6768      5.4747     21.3500      5.9804      6.2088      2.6379    124.7336     66.8376
   4862.5000    125.3020      6.1052      5.8374     19.8800      5.9929      6.2482      2.7058    127.5416     69.3185
   4863.0000    126.9852      7.1351      6.9768     20.3400      5.9949      6.2411      2.6555    126.6099     68.7536
   4863.5000    119.5633      8.1224      7.9790     18.9200      6.0207      6.2447      2.7498    123.9988     67.4531
   4864.0000    110.2756      9.6696     10.7165     20.7900      6.0519      6.2447      2.7224    122.8570     66.8927
   4864.5000    122.8955      8.1799      8.9625     19.2100      6.0441      6.2500      2.7065    121.8880     67.4655
   4865.0000    110.0530      8.5018      8.9787     15.9700      6.0565      6.2447      2.7360    114.4250     64.3355
   4865.5000    109.0346     13.8772     14.8054     16.0700      6.0528      6.2456      2.6355    112.4904     64.3852
   4866.0000    125.3217     11.4486     11.8982     17.8200      6.0832      6.2518      2.6409    117.4878     68.2966
   4866.5000    101.4214     12.6212     12.6917     14.3000      6.0620      6.2393      2.7664    117.3945     66.7191
   4867.0000    104.4281     12.9904     12.4779     14.8200      6.0948      6.2506      2.6554    111.8860     65.2263
