~Version Information
 VERS.           2.0     :   CWLS log ASCII Standard -VERSION 2.0
 WRAP.           NO      :   One line per depth step
~Well Information
#MNEM.UNIT      VALUE/NAME              DESCRIPTION
#--------     --------------            ---------------------
 STRT.M           579.5000              :START DEPTH
 STOP.M          5115.5000              :STOP DEPTH
 STEP.M             0.5000              :STEP
 NULL.             -999.25              :NULL VALUE
 COMP.    ConocoPhillips                :COMPANY
 WELL.    Poseidon 1                    :WELL
 FLD .    Exploration                   :FIELD
 LOC .                                  :LOCATION
 PROV.                                  :PROVINCE
 SRVC.    Schlumberger D&M              :SERVICE COMPANY
 CTRY.                                  :COUNTRY
 DATE.    28-Apr-09                     :LOG DATE
 UWI .                                  :UNIQUE WELL ID
 LATI.DEG -13/37/16.79                   : Latitude
 LONG.DEG 122/18/23.99                  : Longitude
 GDAT.                                  : Geodetic Datum
~PARAMETER INFORMATION
~CURVE INFORMATION
#MNEM    .UNIT     API CODE             Curve Description
 DEPT    .M                             :   Along hole depth
 ECGR    .gAPI                          :   EDTC Corrected Gamma-Ray
 ATRX    .ohm.m                         :   Array Induction Two Foot Rxo
 ATRT    .ohm.m                         :   Array Induction Two Foot Rt
 NPHI    .pu                            :   Thermal Neutron Porosity (Ratio Method)
 CAL1    .in                            :   Caliper 1
 HDAR    .in                            :   Hole Diameter from Area
 HROM    .g/cm3                         :   LDS High Resolution Corrected Bulk Density
 DTSM    .us/ft                         :   Delta-T Shear
 DTCO    .us/ft                         :   Delta-T Compressional
#
# Curve              Start        Stop     Minimum     Maximum
# ------------------------------------------------------------
#
# ECGR            904.0000   5108.0000      5.0321    198.6361
# ATRX            579.5000   5114.0000      0.1100   1950.0000
# ATRT            579.5000   5114.0000      0.1803   1950.0000
# NPHI           3858.0000   5104.5000      1.0400     50.1900
# CAL1           3845.0000   5003.0000      4.5412     12.7663
# HDAR           3884.0000   5110.0000      5.8056     12.6868
# HROM           3887.0000   5115.0000      1.4423      3.0358
# DTSM           4395.0000   4974.0000     83.2234    221.9217
# DTCO           4395.0000   4974.0000     51.4416    111.5382
# ******************************
# 
# ************************************************************
#
# #
# LOCN 	LAT:	13o 37' 16.79" S			WELL NAME:	Poseidon 1
# 	LONG:	122o 18' 23.99" E
# 	EASTING:	425055.467m E	NORTHING: 	8493875.264m N	ZONE:	51	GDA 94
# SHOT POINT:		SEISMIC LINE:		STATUS:	P & A
# SEISMIC SURVEY:		INLINE:	XLINE:
# ELEVN SF:	494.0m	DATUM KB:	26.4m	OPERATOR:	ConocoPhillips
# BASIN :		Browse	TOTAL D:	5112.1m	PARTNERS:	Karoon
# SPUD DATE:	26/01/2009	COMPLN DATE:	29/05/2009	LEASE:	WA-315-P
# TARGET:	Plover SS			DRILLER:	Transocean
# DATA SOURCE:	WCR, logs			RIG:	Sedco 703
# #
# HOLE AND CASING DATA:
# 	Hole 	Hole	Casing	Casing 	Weight	Grade	Joints	Cement	TOC
# 	Size	Depth	Size	Depth	lb/ft
# 	36”	581.8m	30”	578m	310	X-52	5	1105 sx G at SG 1.9	Seafloor
# 								185 sx G at SG 1.9 – top up
# 	17.5”	2296m	13 3/8”	2287.5m	72	P-110	143	688 sx G at SG 1.5
# 								500 sx G at SG 1.9
# 	12.25”	3898m	9 5/8”	3890.8m	53.5	P-110	274	202 sx G at SG 1.62	
# 								133 sx G at SG 1.98
# 	9.5”	3965m	7 5/8”	3957m	30.5	EX-80	14	
# 	8.5”	4588m	7”	4587.5m	32 / 29	P110/L80	47/20	213 sx G at SG 1.9
# 	6”	5112.1m	5”	5088.4m	18	P-110	72	116 sx G at SG 1.9
# #
# TEMPERATURES:
# 	Depth Driller	Logger	Temp	Log Type	Time since circ	Circ Time
# 	3965m	3960m	104 deg C	FMI	22.78 hrs	2.5 hrs
# 	5112.1m	5118m	160 deg C	CMR	22.83 hrs
# 			162 deg C	HNGS	36.17 hrs
# 		4990m	165 deg c	Sonic Scanner	47.47 hrs
# #
# MUD PROPERTIES:
# Depth (L)	Fluid Type	SG	Vis.	pH	Fl cc	Rm	Rmf	Rmc
# 3965m	KCl-Polymer	1.29				0.167 at 18.6 deg C	0.244 at 17.8 deg C	0.261 at 18 deg C
# 		KCl	6%	Barite 	7.5%
# 5112.1m	Novatec SBM	1.20			3.6	
# 				Barite	10.3%
# #
#
# DEVIATION SURVEY:		(Schlumberger)
#	Depth	Dev (deg)	Azimuth (deg)	Depth	Dev (deg)	Azimuth (deg)
#	0.0m	0.00	0.00	520.5m	0.00	0.00
#	527.6m	0.39	259.27	552.8m	1.09	19.41
#	607.9m	0.33	161.06	636.3m	0.28	157.46
#	666.2m	0.42	156.27	723.3m	0.49	158.80
#	752.4m	0.76	145.50	811.0m	0.69	144.79
#	868.3m	0.66	149.14	897.2m	0.66	152.38
#	926.2m	0.53	150.70	1013.9m	0.64	144.22
#	1100.8m	0.45	222.81	1130.8m	0.53	244.07
#	1187.1m	0.69	231.27	1215.1m	0.65	232.48
#	1243.9m	0.64	288.99	1272.6m	0.63	304.63
#	1300.8m	0.62	311.48	1329.9m	0.16	285.18
#	1359.0m	0.11	292.17	1386.3m	0.31	331.80
#	1416.5m	0.53	355.63	1447.1m	0.61	2.60
#	1474.7m	0.94	7.68	1505.2m	1.01	358.08
#	1534.9m	0.92	345.86	1563.8m	0.61	5.17
#	1592.2m	0.76	17.60	1622.0m	0.60	20.84
#	1650.2m	0.65	36.42	1763.9m	0.60	51.71
#	1821.4m	0.46	44.49	1850.5m	0.79	49.16
#	1908.9m	0.96	36.49	1939.6m	0.58	13.70
#	1959.8m	0.13	322.88	2044.1m	0.34	243.01
#	2073.4m	0.44	233.00	2101.7m	0.51	240.40
#	2131.7m	0.50	252.10	2189.0m	0.49	257.69
#	2246.1m	0.42	251.29	2269.4m	0.43	247.24
#	2313.9m	0.33	207.85	2341.6m	0.20	199.21
#	2369.9m	0.15	229.33	2398.5m	0.14	219.45
#	2427.2m	0.22	182.60	2456.2m	0.23	217.52
#	2486.6m	0.30	200.91	2516.1m	0.34	250.17
#	2599.5m	0.23	257.73	2656.6m	0.37	259.03
#	2685.9m	0.36	244.41	2714.4m	0.33	247.01
#	2743.5m	0.44	264.65	2772.9m	0.36	248.49
#	2802.7m	0.49	249.47	2829.7m	0.46	254.82
#	2887.1m	0.37	245.00	2916.6m	0.30	229.13
#	2946.6m	0.14	227.49	3004.8m	0.20	234.38
#	3062.1m	0.52	223.74	3090.7m	0.51	219.43
#	3120.9m	0.47	216.60	3150.2m	0.49	219.95
#	3178.9m	0.44	222.75	3206.5m	0.40	211.30
#	3235.7m	0.35	217.26	3265.7m	0.49	214.66
#	3322.4m	0.35	211.44	3350.4m	0.36	212.61
#	3379.8m	0.35	230.18	3409.2m	0.34	230.92
#	3494.2m	0.34	231.38	3557.7m	0.29	277.76
#	3668.7m	0.32	324.77	3698.3m	0.43	340.30
#	3729.8m	0.45	340.13	3756.5m	0.39	332.45
#	3815.7m	0.44	309.71	3873.0m	0.59	285.30
#	4047.5m	4.76	321.71	4065.7m	5.39	333.06
#	4082.1m	6.39	336.20	4098.9m	7.73	337.83
#	4115.7m	9.43	344.07	4147.0m	12.37	344.49
#	4160.9m	13.41	345.79	4170.7m	13.89	349.54
#	4182.8m	14.27	348.89	4198.0m	15.83	349.61
#	4230.3m	13.55	353.68	4255.8m	12.41	353.57
#	4287.3m	11.70	355.88	4312.9m	11.40	355.42
#	4344.1m	10.54	354.84	4370.2m	10.32	356.38
#	4403.0m	10.25	3.71	4428.6m	10.50	359.63
#	4443.5m	9.94	359.87	4458.4m	10.08	1.47
#	4486.5m	9.71	359.12	4514.6m	9.26	359.81
#	4545.3m	9.64	0.67	4572.5m	9.26	356.64
#	4602.8m	8.97	350.43	4631.2m	8.70	344.94
#	4660.8m	8.34	342.12	4688.5m	8.14	338.90
#	4718.7m	8.30	333.76	4776.7m	8.03	335.31
#	4804.1m	7.88	336.68	4832.6m	7.95	337.54
#	4862.8m	7.84	339.39	4891.2m	7.71	338.67
#	4920.0m	8.19	338.17	4948.2m	8.48	335.94
#	4980.2m	8.19	335.87	5009.6m	7.89	329.96
#	5036.0m	7.84	329.96	5066.0m	7.78	329.28
#	5093.9m	7.52	327.67	5112.0m	7.52	327.67
#
# VELOCITY SURVEY:	(Schlumberger)		OWT, vertically corrected, relative to SRD (MSL)
#	Depth	TVD SS	OWT(sec)	Depth	TVD SS	OWT(sec)
#	29.3m	2.9m	0.0316	44.4m	18.0m	0.1682
#	59.5m	33.1m	0.3158	784.1m	757.7m	0.6576
#	799.2m	772.8m	0.6603	814.3m	787.9m	0.6620
#	829.5m	803.0m	0.6645	1744.4m	1717.9m	0.8235
#	1759.5m	1733.0m	0.8269	1774.6m	1748.2m	0.8303
#	1789.7m	1763.3m	0.8333	1804.9m	1778.5m	0.8364
#	1820.0m	1793.6m	0.8400	1835.2m	1808.7m	0.8433
#	1850.3m	1823.8m	0.8473	1865.4m	1838.9m	0.8510
#	1880.5m	1854.0m	0.8546	1895.6m	1869.1m	0.8584
#	1910.7m	1884.2m	0.8627	1925.8m	1899.3m	0.8666
#	1940.9m	1914.5m	0.8705	1956.1m	1929.6m	0.8744
#	1971.2m	1944.7m	0.8782	1986.4m	1959.9m	0.8816
#	2001.5m	1975.0m	0.8850	2016.7m	1990.2m	0.8885
#	2031.8m	2005.3m	0.8918	2046.8m	2020.3m	0.8953
#	2062.0m	2035.5m	0.8987	2077.1m	2050.6m	0.9018
#	2092.2m	2065.7m	0.9050	2107.3m	2080.8m	0.9080
#	2122.4m	2095.9m	0.9111	2137.6m	2111.1m	0.9138
#	2152.7m	2126.2m	0.9168	2167.8m	2141.3m	0.9196
#	2182.9m	2156.4m	0.9224	2198.1m	2171.6m	0.9253
#	2213.2m	2186.7m	0.9283	2228.3m	2201.8m	0.9313
#	2243.4m	2216.9m	0.9342	2258.6m	2232.1m	0.9371
#	2273.7m	2247.2m	0.9400	2288.8m	2262.4m	0.9430
#	2304.0m	2277.5m	0.9460	2319.1m	2292.6m	0.9488
#	2334.2m	2307.7m	0.9517	2349.2m	2322.7m	0.9545
#	2364.4m	2337.9m	0.9576	2379.5m	2353.0m	0.9605
#	2394.6m	2368.1m	0.9632	2409.6m	2383.1m	0.9661
#	2424.8m	2398.3m	0.9692	2439.9m	2413.4m	0.9724
#	2455.0m	2428.5m	0.9757	2470.2m	2443.7m	0.9795
#	2485.3m	2458.8m	0.9830	2500.4m	2473.9m	0.9865
#	2515.6m	2489.1m	0.9900	2530.7m	2504.2m	0.9937
#	2545.9m	2519.4m	0.9973	2561.0m	2534.5m	1.0010
#	2576.1m	2549.6m	1.0046	2591.2m	2564.7m	1.0080
#	2606.3m	2579.8m	1.0113	2621.5m	2595.0m	1.0147
#	2636.6m	2610.1m	1.0183	2651.6m	2625.1m	1.0215
#	2666.8m	2640.3m	1.0249	2681.9m	2655.4m	1.0285
#	2697.0m	2670.5m	1.0325	2712.1m	2685.6m	1.0361
#	2727.3m	2700.8m	1.0399	2742.4m	2715.9m	1.0434
#	2757.5m	2731.0m	1.0472	2772.6m	2746.1m	1.0510
#	2787.7m	2761.2m	1.0547	2802.8m	2776.3m	1.0582
#	2817.9m	2791.4m	1.0617	2833.0m	2806.5m	1.0651
#	2848.2m	2821.7m	1.0685	2863.3m	2836.8m	1.0718
#	2878.4m	2851.9m	1.0750	2893.6m	2867.1m	1.0781
#	2908.8m	2882.3m	1.0814	2914.1m	2887.6m	1.0824
#	2923.9m	2897.4m	1.0844	2929.2m	2902.7m	1.0855
#	2939.0m	2912.5m	1.0875	2944.4m	2917.8m	1.0887
#	2954.0m	2927.5m	1.0907	2959.5m	2933.0m	1.0921
#	2969.1m	2942.6m	1.0941	2984.3m	2957.8m	1.0975
#	2999.4m	2972.9m	1.1008	3014.5m	2988.0m	1.1040
#	3029.6m	3003.1m	1.1072	3044.8m	3018.3m	1.1103
#	3059.9m	3033.4m	1.1134	3075.1m	3048.5m	1.1165
#	3090.2m	3063.7m	1.1194	3105.3m	3078.8m	1.1224
#	3120.4m	3093.9m	1.1253	3135.6m	3109.0m	1.1284
#	3150.7m	3124.2m	1.1318	3165.8m	3139.3m	1.1352
#	3180.9m	3154.4m	1.1385	3196.0m	3169.5m	1.1420
#	3211.2m	3184.6m	1.1452	3226.3m	3199.8m	1.1486
#	3241.4m	3214.9m	1.1518	3256.4m	3229.9m	1.1550
#	3271.6m	3245.0m	1.1583	3286.7m	3260.2m	1.1618
#	3301.8m	3275.3m	1.1653	3316.9m	3290.4m	1.1690
#	3332.1m	3305.6m	1.1726	3347.2m	3320.7m	1.1767
#	3362.3m	3335.8m	1.1808	3377.4m	3350.9m	1.1849
#	3392.6m	3366.0m	1.1889	3407.7m	3381.2m	1.1926
#	3831.1m	3804.5m	1.2951	3846.2m	3819.6m	1.2989
#	3861.2m	3834.7m	1.3025	3876.3m	3849.8m	1.3067
#	3891.5m	3864.9m	1.3108	3906.6m	3880.0m	1.3154
#	3921.7m	3895.1m	1.3196	3936.8m	3910.2m	1.3245
#	3952.0m	3925.3m	1.3297	3967.1m	3940.4m	1.3350
#	3982.3m	3955.6m	1.3402	3997.4m	3970.7m	1.3452
#	4012.5m	3985.8m	1.3502	4027.6m	4000.9m	1.3552
#	4042.6m	4015.9m	1.3603	4057.8m	4031.0m	1.3653
#	4072.9m	4046.0m	1.3703	4088.0m	4061.0m	1.3752
#	4103.2m	4076.1m	1.3799	4118.3m	4091.0m	1.3848
#	4133.4m	4105.8m	1.3895	4148.5m	4120.7m	1.3944
#	4163.7m	4135.4m	1.3993	4178.8m	4150.1m	1.4041
#	4193.9m	4164.7m	1.4089	4209.0m	4179.3m	1.4135
#	4224.1m	4193.9m	1.4181	4239.2m	4208.6m	1.4227
#	4254.3m	4223.3m	1.4271	4269.4m	4238.1m	1.4316
#	4284.7m	4253.0m	1.4359	4284.7m	4253.0m	1.4358
#	4299.8m	4267.8m	1.4402	4299.8m	4267.8m	1.4402
#	4314.9m	4282.6m	1.4448	4314.9m	4282.6m	1.4447
#	4330.0m	4297.5m	1.4493	4330.0m	4297.5m	1.4493	
#
# ************************************************************
#    This LAS file was created by Occam Technology Pty. Ltd.
# The edit data contained herein are copyright property of
# Occam Technology Pty. Ltd. The data are licensed to the
# purchasing company and subsidiaries worldwide, and are NOT
# for on-copying to third parties.  We place no restriction on
# the distribution of plots generated from the digital data.
#
#    We supply the data on a 'best effort' basis.  We cannot
# control either the original data acquisition or the application
# of the data, and therefore we cannot be held responsible for
# the consequences of any interpretations based on the data.  We
# urge purchasers to apply normal quality control procedures to
# the data before use for any quantitative interpretative
# procedures.
# ************************************************************
~A      DEPT        ECGR        ATRX        ATRT        NPHI        CAL1        HDAR        HROM        DTSM        DTCO
# ...
   3896.0000     31.0348   -999.2500   -999.2500     15.7700     12.2554     12.2544      2.5494   -999.2500   -999.2500
   3896.5000     30.4726   -999.2500   -999.2500     15.4700     12.2810     12.2672      2.5358   -999.2500   -999.2500
   3897.0000     26.4406   -999.2500   -999.2500     14.0600      9.5819      9.5680      2.4681   -999.2500   -999.2500
   3897.5000     24.9572   -999.2500   -999.2500     17.9600      9.5223      9.5680      2.5006   -999.2500   -999.2500
   3898.0000     28.6331   -999.2500   -999.2500     10.8100      9.5223      9.5680      2.5791   -999.2500   -999.2500
   3898.5000     32.5932   -999.2500   -999.2500      9.9500      9.5223      9.5680      2.6007   -999.2500   -999.2500
   3899.0000     31.3112   -999.2500   -999.2500     10.0500      9.5223      9.5595      2.6376   -999.2500   -999.2500
   3899.5000     32.2863   -999.2500   -999.2500     10.5100      9.5223      9.5384      2.5959   -999.2500   -999.2500
   3900.0000     23.7236   -999.2500   -999.2500      9.9800      9.5223      9.5680      2.5767   -999.2500   -999.2500
   3900.5000     23.7231   -999.2500   -999.2500      7.4700      9.5223      9.5680      2.6301   -999.2500   -999.2500
   3901.0000     22.2119   -999.2500   -999.2500      8.4600      9.4456      9.4874      2.6494   -999.2500   -999.2500
   3901.5000     30.2044   -999.2500   -999.2500      8.4200      9.5223      9.5680      2.6430   -999.2500   -999.2500
   3902.0000     32.6787   -999.2500   -999.2500     10.1300      9.4371      9.1476      2.5924   -999.2500   -999.2500
   3902.5000     46.9196   -999.2500   -999.2500      7.5800      9.3690      9.3771      2.6329   -999.2500   -999.2500
   3903.0000    107.8633   -999.2500   -999.2500     26.2100      9.3434      9.4154      2.6024   -999.2500   -999.2500
   3903.5000    102.3498   -999.2500   -999.2500     33.0100      9.3264      9.4189      2.3523   -999.2500   -999.2500
   3904.0000    115.5697   -999.2500   -999.2500     30.8200      9.2413      9.3758      2.4828   -999.2500   -999.2500
   3904.5000    121.6144   -999.2500   -999.2500     29.8000      9.4201      9.5165      2.4303   -999.2500   -999.2500
   3905.0000    105.5969   -999.2500   -999.2500     27.5900      9.5648      9.5977      2.5530   -999.2500   -999.2500
   3905.5000    104.2393   -999.2500   -999.2500     28.3600      9.5648      9.6020      2.4972   -999.2500   -999.2500
   3906.0000     94.8087   -999.2500   -999.2500     28.3400      9.5734      9.6312      2.4936   -999.2500   -999.2500
   3906.5000    104.6529   -999.2500   -999.2500     28.3800      9.3349      9.5233      2.5149   -999.2500   -999.2500
   3907.0000     95.0191   -999.2500   -999.2500     29.7700      9.4967      9.5677      2.5087   -999.2500   -999.2500
   3907.5000     93.7307   -999.2500   -999.2500     29.4900      9.2413      9.5121      2.4846   -999.2500   -999.2500
   3908.0000    104.1205   -999.2500   -999.2500     31.3000      9.3179      9.4914      2.4846   -999.2500   -999.2500
   3908.5000     94.7340   -999.2500   -999.2500     28.4000      9.5223      9.5258      2.4845   -999.2500   -999.2500
   3909.0000     93.5344   -999.2500   -999.2500     30.3000      9.4967      9.4537      2.4597   -999.2500   -999.2500
   3909.5000     92.1873   -999.2500   -999.2500     29.5900      9.5734      9.5299      2.4977   -999.2500   -999.2500
   3910.0000     95.4485   -999.2500   -999.2500     29.0300      9.5308      9.4875      2.3732   -999.2500   -999.2500
   3910.5000    100.7332   -999.2500   -999.2500     28.4200      9.5223      9.5173      2.4906   -999.2500   -999.2500
   3911.0000     85.7083   -999.2500   -999.2500     28.4400      9.4967      9.6189      2.4994   -999.2500   -999.2500
   3911.5000     92.2419   -999.2500   -999.2500     29.4800      9.5563      9.5808      2.5199   -999.2500   -999.2500
   3912.0000     89.2220   -999.2500   -999.2500     27.9100      9.5223      9.5595      2.5113   -999.2500   -999.2500
   3912.5000     96.9726   -999.2500   -999.2500     28.3100      9.6244      9.6318      2.5136   -999.2500   -999.2500
   3913.0000    100.7226   -999.2500   -999.2500     28.3800      9.5223      9.5806      2.4645   -999.2500   -999.2500
   3913.5000     92.5950   -999.2500   -999.2500     28.4300      9.5819      9.4703      2.4889   -999.2500   -999.2500
   3914.0000    101.6741   -999.2500   -999.2500     28.3000      9.3690      9.4906      2.5126   -999.2500   -999.2500
   3914.5000     94.8201   -999.2500   -999.2500     29.7300      9.5223      9.5173      2.4814   -999.2500   -999.2500
   3915.0000     99.5260   -999.2500   -999.2500     28.4600      9.4201      9.5119      2.4240   -999.2500   -999.2500
   3915.5000     96.1024   -999.2500   -999.2500     31.7600      9.6074      9.5808      2.4299   -999.2500   -999.2500
   3916.0000     95.9678   -999.2500   -999.2500     30.3200      9.5223      9.5680      2.4795   -999.2500   -999.2500
   3916.5000     93.0889   -999.2500   -999.2500     28.8900      9.5648      9.5640      2.3759   -999.2500   -999.2500
   3917.0000     98.1300   -999.2500   -999.2500     27.7300      9.5904      9.4789      2.5325   -999.2500   -999.2500
   3917.5000    100.1585   -999.2500   -999.2500     29.0000      9.5648      9.4537      2.4440   -999.2500   -999.2500
   3918.0000     88.4069   -999.2500   -999.2500     28.7700      9.4456      9.3925      2.4809   -999.2500   -999.2500
   3918.5000    101.6150   -999.2500   -999.2500     27.0700      9.4712      9.3048      2.5210   -999.2500   -999.2500
   3919.0000     89.6285   -999.2500   -999.2500     29.7900      9.5989      9.4913      2.3630   -999.2500   -999.2500
   3919.5000     91.7421   -999.2500   -999.2500     27.0300      9.5223      9.5342      2.4032   -999.2500   -999.2500
   3920.0000    101.2520   -999.2500   -999.2500     31.2800      9.6926      9.6828      2.3776   -999.2500   -999.2500
   3920.5000    102.9325   -999.2500   -999.2500     26.7600      9.4967      9.4361      2.5170   -999.2500   -999.2500
   3921.0000    100.2221   -999.2500   -999.2500     28.6900      9.3690      9.3518      2.5022   -999.2500   -999.2500
   3921.5000     93.4133   -999.2500   -999.2500     28.8600      9.5052      9.4834      2.5122   -999.2500   -999.2500
   3922.0000     87.8672   -999.2500   -999.2500     29.4200      9.1136      9.4577      2.5132   -999.2500   -999.2500
   3922.5000     98.1371   -999.2500   -999.2500     30.7400      9.4201      9.4535      2.6161   -999.2500   -999.2500
   3923.0000     99.1042   -999.2500   -999.2500     30.6500      9.1902      9.3374      2.5456   -999.2500   -999.2500
   3923.5000    100.9728   -999.2500   -999.2500     28.6200      9.3434      9.4275      2.5483   -999.2500   -999.2500
   3924.0000    108.8319   -999.2500   -999.2500     29.7000      9.3434      9.4188      2.4805   -999.2500   -999.2500
   3924.5000    110.9874   -999.2500   -999.2500     28.8000      9.3434      9.4231      2.5027   -999.2500   -999.2500
   3925.0000    105.0127   -999.2500   -999.2500     30.5700      9.3434      9.4359      2.5632   -999.2500   -999.2500
   3925.5000    101.4796   -999.2500   -999.2500     30.5700      8.9603      8.9571      2.5015   -999.2500   -999.2500
   3926.0000    106.7486   -999.2500   -999.2500     28.4900      9.1391      9.0844      2.4955   -999.2500   -999.2500
   3926.5000    103.2045   -999.2500   -999.2500     29.6500      9.2328      9.2330      2.5016   -999.2500   -999.2500
   3927.0000    103.7310   -999.2500   -999.2500     32.4300      9.4201      9.4661      2.4892   -999.2500   -999.2500
   3927.5000    102.1438   -999.2500   -999.2500     31.4300      9.3264      9.3900      2.4675   -999.2500   -999.2500
   3928.0000    106.2897   -999.2500   -999.2500     29.3600      9.3434      9.4275      2.5134   -999.2500   -999.2500
   3928.5000     97.4497   -999.2500   -999.2500     31.7000      9.3179      9.2754      2.4777   -999.2500   -999.2500
   3929.0000    100.7513   -999.2500   -999.2500     29.9000      9.1987      9.3680      2.4566   -999.2500   -999.2500
