~Version Information
 VERS.           2.0     :   CWLS log ASCII Standard -VERSION 2.0
 WRAP.           NO      :   One line per depth step
~Well Information
#MNEM.UNIT      VALUE/NAME              DESCRIPTION
#--------     --------------            ---------------------
 STRT.M           508.0000              :START DEPTH
 STOP.M          5279.5000              :STOP DEPTH
 STEP.M             0.5000              :STEP
 NULL.             -999.25              :NULL VALUE
 COMP.    ConocoPhillips                :COMPANY
 WELL.    Poseidon North 1              :WELL
 FLD .    Exploration                   :FIELD
 LOC .                                  :LOCATION
 PROV.                                  :PROVINCE
 SRVC.    Schlumberger                  :SERVICE COMPANY
 CTRY.                                  :COUNTRY
 DATE.    05/20/2014                    :LOG DATE
 UWI .                                  :UNIQUE WELL ID
 LATI.DEG -13/34/24.825                  : Latitude
 LONG.DEG 122/20/24.556                 : Longitude
 GDAT.                                  : Geodetic Datum
~PARAMETER INFORMATION
~CURVE INFORMATION
#MNEM    .UNIT     API CODE             Curve Description
 DEPT    .M                             :   Along hole depth
 GRD     .gAPI                          :   Gamma Ray
 RS      .ohm.m                         :   (RM)    (ARC[1])                (6in)                   Phase Shift Resistivity 22 inch Spacing at 2 MHz, Environmentally Corrected.
 RD      .ohm.m                         :   (RM)    (ARC[1])                (6in)                   Phase Shift Resistivity 34 inch Spacing at 2 MHz, Environmentally Corrected.
 RHOB    .g/cm3                         :   (RM)    (ADN[1])                (6in)                   Bulk Density
 TNPH    .pu                            :   (RM)    (ADN[1])                (6in)                   Thermal Neutron Porosity (Ratio Method) in Selected Lithology
 DTCO    .us/ft                         :   Delta-T Compressional
 DTSM    .us/ft                         :   Delta-T Shear
 HDAR    .in                            :   Hole Diameter from Area
#
# Curve              Start        Stop     Minimum     Maximum
# ------------------------------------------------------------
#
# GRD             508.0000   5279.5000      3.5346    204.6889
# RS              568.5000   5279.5000      0.1925    487.9586
# RD              568.5000   5279.5000      0.1945    316.2479
# RHOB           3782.0000   4931.5000      1.9495      3.5107
# TNPH           3780.5000   4931.5000      6.2988     68.6649
# DTCO           3677.0000   5250.0000     48.6167    124.5370
# DTSM           3804.5000   5250.0000     85.6802    273.5039
# HDAR           3808.0000   5273.5000      8.3409     17.3339
# ******************************
# #
# DEVIATION SURVEY:	(Schlumberger)		Definitive Survey
#	Depth	Dev (deg)	Azimuth (deg)	Depth	Dev (deg)	Azimuth (deg)
#	508.3m	0.00	0.00	535.0m	0.51	175.26
#	567.0m	0.46	159.23	632.3m	0.50	124.18
#	690.2m	0.36	105.64	718.4m	0.30	104.70
#	747.0m	0.22	100.37	833.2m	0.12	92.39
#	862.3m	0.14	89.88	948.6m	0.09	77.24
#	1034.5m	0.21	61.94	1120.7m	0.43	72.74
#	1178.5m	0.55	94.45	1234.9m	0.84	96.85
#	1264.2m	1.11	104.58	1293.6m	1.37	101.48
#	1322.8m	1.51	87.02	1353.0m	1.76	69.73
#	1412.0m	1.26	53.07	1440.7m	1.13	48.89
#	1469.3m	0.97	55.84	1497.6m	1.03	53.67
#	1526.2m	0.92	59.74	1554.4m	0.82	58.53
#	1583.8m	0.75	60.20	1641.9m	0.66	59.63
#	1670.7m	0.75	60.62	1698.0m	0.69	57.52
#	1725.9m	0.67	57.15	1754.8m	0.32	52.85
#	1783.6m	0.81	146.83	1812.6m	1.47	161.88
#	1841.3m	1.64	163.20	1870.0m	1.76	163.52
#	1899.8m	1.79	177.44	1927.8m	1.29	184.32
#	1957.9m	1.72	185.24	1986.4m	1.87	187.31
#	2016.7m	1.89	185.97	2045.2m	1.80	187.62
#	2073.8m	1.81	185.62	2102.3m	1.83	186.20
#	2130.6m	1.79	187.06	2159.6m	1.78	184.95
#	2189.6m	1.85	185.18	2218.1m	1.85	184.70
#	2246.2m	1.81	184.66	2274.6m	1.82	181.40
#	2303.7m	1.76	181.56	2331.2m	1.76	183.12
#	2360.1m	1.77	183.23	2389.2m	1.78	181.43
#	2429.8m	1.81	178.67	2453.0m	1.78	181.70
#	2490.3m	1.75	186.73	2519.1m	1.74	190.18
#	2577.7m	1.34	193.07	2606.3m	1.34	194.30
#	2634.8m	1.43	194.62	2663.0m	1.49	196.08
#	2691.9m	1.52	191.72	2720.5m	1.41	196.99
#	2749.1m	1.30	192.26	2778.8m	1.33	197.61
#	2807.5m	1.18	197.33	2836.7m	1.13	193.60
#	2865.4m	1.01	194.63	2894.6m	1.02	201.33
#	2923.5m	0.87	193.21	2952.2m	0.92	194.81
#	2979.9m	0.79	197.44	3007.9m	0.71	189.93
#	3039.2m	0.62	204.55	3068.6m	0.38	211.96
#	3098.5m	0.64	224.56	3126.6m	0.95	223.07
#	3154.6m	0.84	235.70	3185.2m	0.78	238.33
#	3212.8m	0.76	226.49	3242.0m	0.64	244.70
#	3272.3m	0.59	246.79	3300.2m	0.57	235.82
#	3327.8m	0.59	264.08	3357.0m	0.61	267.57
#	3388.0m	0.41	270.93	3443.1m	0.26	299.95
#	3474.8m	0.43	301.03	3500.7m	0.47	288.64
#	3531.2m	0.29	300.47	3558.2m	0.41	316.53
#	3588.3m	0.55	309.28	3617.9m	0.51	307.43
#	3648.0m	0.46	340.11	3676.0m	0.35	315.45
#	3703.6m	0.43	300.04	3730.9m	0.34	326.82
#	3751.3m	0.17	271.57	3780.6m	0.09	301.36
#	3814.8m	0.29	187.90	3828.0m	0.42	183.54
#	3858.7m	0.35	156.45	3888.1m	0.72	141.78
#	3916.0m	0.93	151.39	3944.8m	1.30	136.05
#	3973.2m	1.99	136.59	4001.6m	2.33	140.24
#	4028.8m	2.82	136.91	4057.0m	3.00	139.76
#	4117.2m	2.72	150.07	4147.1m	2.18	148.78
#	4176.6m	1.90	141.66	4205.2m	1.35	129.99
#	4234.2m	0.98	109.72	4261.7m	0.87	84.30
#	4291.0m	1.20	72.60	4320.5m	0.67	70.91
#	4348.8m	0.56	71.19	4376.7m	0.42	56.80
#	4404.4m	0.30	20.79	4433.2m	0.31	341.16
#	4462.6m	0.26	334.54	4521.8m	0.92	284.18
#	4552.1m	1.66	297.93	4580.0m	1.95	318.44
#	4606.9m	2.21	336.83	4636.2m	2.24	345.69
#	4664.8m	2.50	352.22	4693.7m	2.79	352.27
#	4723.0m	2.96	347.28	4753.0m	3.12	334.48
#	4782.4m	3.27	329.12	4811.3m	3.87	326.41
#	4838.8m	4.07	319.63	4866.5m	4.23	317.95
#	4895.6m	4.63	317.81	4927.1m	4.57	312.59
#	4955.7m	3.99	310.09	4983.3m	3.37	308.64
#	5009.6m	2.66	307.75	5040.2m	2.81	307.39
#	5069.7m	3.03	298.46	5100.5m	3.88	292.76
#	5126.7m	3.99	297.59	5157.5m	4.00	296.72
#	5186.1m	4.23	299.71	5213.0m	3.84	304.22
#	5242.0m	3.97	301.56	5265.7m	4.07	299.21
#	5287.0m	4.07	299.21
#
# VELOCITY SURVEY:	No checkshot survey run
# 
# ************************************************************
#
# #
# LOCN 	LAT:	13o 34' 24.825" S			WELL NAME:	Poseidon North 1	
# 	LONG:	122o 20' 24.556" E
# 	EASTING:	428611.91m E	NORTHING: 	8499338.27m N	ZONE:	51	GDA 94
# SEISMIC SURV:	Poseidon 3D	INLINE:  3600	XLINE: 2250	STATUS:	P & A
# ELEVN SF:	- 486.0m MSL 	DATUM RT:	22.0m	OPERATOR:	ConocoPhillips
# BASIN:		Browse	TOTAL D:	5287m	PARTNERS:	Karoon, PetroChina
# SPUD DATE:	19/03/2014	COMPLN DATE:	18/05/2014	LEASE:	WA-315-P
# TARGET:	Montara & Plover Fms, seismic closure	DRILLER:	Transocean
# DATA SOURCE:	WCR (Basic), logs			RIG:	Legend
# #
# HOLE AND CASING DATA:
# 	Hole 	Hole	Casing	Casing 	Weight	Grade	Joints	Cement	TOC
# 	Size	Depth	Size	Depth	lb/ft
# 	36”	568.3m	30”	568m	456 / 310	X-52	2 / 3	221 sx G at SG 1.5	
# 								1118 sx G at SG 1.9
# 								225 sx G at SG 1.9 	Grouted
# 	17.5”	2459m	13 3/8”	2453m	72	P-110	160	1734 sx G at SG 1.44
# 								486 sx G at SG 1.9
# 	12.25”	3820m	9 5/8”	3814.8m	53.5	P-110	267	469 sx HTB at SG 1.89
# 	8.5”	5287m	
# #
# TEMPERATURES:
# 	Depth Driller	Logger	Temp	Log Type	Time since circ	Circ Time
# 	5287m	5234m	165.6 deg C	QAIT-HNGS	25.9 hrs	2.5 hrs
# 		5060m	165.6 deg C	MDT	55 hrs
# #
# MUD PROPERTIES:
# Depth (L)	Fluid Type	SG	Vis.	pH	Fl cc	Rm	Rmf	Rmc
#  5287m	Novatec SBM	1.57	81	na	3.6	Assumed infinite
# #
#
# ************************************************************
#    This LAS file was created by Occam Technology Pty. Ltd.
# The edit data contained herein are copyright property of
# Occam Technology Pty. Ltd. The data are licensed to the
# purchasing company and subsidiaries worldwide, and are NOT
# for on-copying to third parties.  We place no restriction on
# the distribution of plots generated from the digital data.
#
#    We supply the data on a 'best effort' basis.  We cannot
# control either the original data acquisition or the application
# of the data, and therefore we cannot be held responsible for
# the consequences of any interpretations based on the data.  We
# urge purchasers to apply normal quality control procedures to
# the data before use for any quantitative interpretative
# procedures.
# ************************************************************
~A      DEPT         GRD          RS          RD        RHOB        TNPH        DTCO        DTSM        HDAR
# ...
   5244.0000     41.2518     14.2667     14.7967   -999.2500   -999.2500     61.1820    116.6059      8.5846
   5244.5000     38.0827     28.3717     23.0870   -999.2500   -999.2500     56.5626    104.0468      8.5624
   5245.0000     30.9028     27.0125     23.3307   -999.2500   -999.2500     53.9195     98.3947      8.5403
   5245.5000     42.3255     17.3927     16.8926   -999.2500   -999.2500     54.4013    101.5504      8.5624
   5246.0000     62.9739      9.0477      9.1394   -999.2500   -999.2500     57.5104    108.3789      8.5846
   5246.5000     78.4366      7.9659      8.2884   -999.2500   -999.2500     60.6660    113.5052      8.5846
   5247.0000     71.1764     10.4686     10.7406   -999.2500   -999.2500     61.6744    117.1649      8.6288
   5247.5000     43.7741     24.8546     22.0776   -999.2500   -999.2500     53.7026     99.9599      8.5846
   5248.0000     38.3210     38.9906     30.1925   -999.2500   -999.2500     68.2753    126.6315      8.6288
   5248.5000     84.7298      9.5189      9.3276   -999.2500   -999.2500     69.6683    137.6848      8.5846
   5249.0000     92.5811      8.0389      7.9559   -999.2500   -999.2500     69.6683    128.7117      8.6067
   5249.5000    125.1064      3.9405      3.9897   -999.2500   -999.2500     65.7154    128.7117      8.5846
   5250.0000    112.3779      4.5199      4.5990   -999.2500   -999.2500     61.5378    114.4643      8.5846
   5250.5000     78.4965      7.8768      7.6647   -999.2500   -999.2500   -999.2500   -999.2500      8.5624
   5251.0000     51.3975     17.6514     15.9005   -999.2500   -999.2500   -999.2500   -999.2500      8.6067
   5251.5000     35.5990     28.3576     24.2115   -999.2500   -999.2500   -999.2500   -999.2500      8.5846
   5252.0000     51.3317     15.5114     15.2914   -999.2500   -999.2500   -999.2500   -999.2500      8.5846
   5252.5000     64.5938     10.1795     10.7477   -999.2500   -999.2500   -999.2500   -999.2500      8.6067
   5253.0000     56.8361     14.5678     14.4660   -999.2500   -999.2500   -999.2500   -999.2500      8.5846
   5253.5000     34.6971     35.5881     30.3788   -999.2500   -999.2500   -999.2500   -999.2500      8.6067
   5254.0000     23.9034     81.9037     59.5792   -999.2500   -999.2500   -999.2500   -999.2500      8.5846
   5254.5000     29.7844    135.7296    104.7736   -999.2500   -999.2500   -999.2500   -999.2500      8.6288
   5255.0000     30.8613    194.7253    142.6817   -999.2500   -999.2500   -999.2500   -999.2500      8.6067
   5255.5000     28.7928    225.7555    151.2290   -999.2500   -999.2500   -999.2500   -999.2500      8.5403
   5256.0000     31.1577     94.5008     86.9476   -999.2500   -999.2500   -999.2500   -999.2500      8.5403
   5256.5000     37.9820     65.9553     62.3618   -999.2500   -999.2500   -999.2500   -999.2500      8.5403
   5257.0000     33.5802     45.9536     45.0045   -999.2500   -999.2500   -999.2500   -999.2500      8.5624
   5257.5000     35.3446     30.1672     30.1426   -999.2500   -999.2500   -999.2500   -999.2500      8.5846
   5258.0000     45.3818     21.8005     21.7257   -999.2500   -999.2500   -999.2500   -999.2500      8.5403
   5258.5000     39.5487     21.1247     18.0779   -999.2500   -999.2500   -999.2500   -999.2500      8.5846
   5259.0000     50.3275     10.0396     10.6654   -999.2500   -999.2500   -999.2500   -999.2500      8.5846
   5259.5000    137.4967      3.4661      3.5642   -999.2500   -999.2500   -999.2500   -999.2500      8.5624
   5260.0000     50.2783     14.6587     15.1152   -999.2500   -999.2500   -999.2500   -999.2500      8.5846
   5260.5000     24.7546    136.7691     80.3032   -999.2500   -999.2500   -999.2500   -999.2500      8.6067
   5261.0000     24.4259     93.4049     71.7632   -999.2500   -999.2500   -999.2500   -999.2500      8.5624
   5261.5000     34.9122     55.1034     55.3438   -999.2500   -999.2500   -999.2500   -999.2500      8.5846
   5262.0000     60.9398     20.6768     22.7999   -999.2500   -999.2500   -999.2500   -999.2500      8.5846
   5262.5000     63.8806     25.3568     27.1445   -999.2500   -999.2500   -999.2500   -999.2500      8.5403
   5263.0000     36.4514     60.1981     53.8560   -999.2500   -999.2500   -999.2500   -999.2500      8.5403
   5263.5000     31.5945    113.2109     77.0848   -999.2500   -999.2500   -999.2500   -999.2500      8.5403
   5264.0000     40.1744     90.9025     78.4196   -999.2500   -999.2500   -999.2500   -999.2500      8.4960
   5264.5000     42.9418     72.8991     73.0715   -999.2500   -999.2500   -999.2500   -999.2500      8.5403
   5265.0000     25.8724    312.1239    179.9304   -999.2500   -999.2500   -999.2500   -999.2500      8.5624
   5265.5000     33.8201    259.7734    170.6810   -999.2500   -999.2500   -999.2500   -999.2500      8.5846
   5266.0000     32.7368    234.3757    167.5509   -999.2500   -999.2500   -999.2500   -999.2500      8.5846
   5266.5000     39.9609    141.6118    121.2825   -999.2500   -999.2500   -999.2500   -999.2500      8.5624
   5267.0000     39.4066    117.5765    105.1188   -999.2500   -999.2500   -999.2500   -999.2500      8.5403
   5267.5000     42.4205     97.7919     87.7737   -999.2500   -999.2500   -999.2500   -999.2500      8.4960
   5268.0000     39.6438     98.1646     84.9097   -999.2500   -999.2500   -999.2500   -999.2500      8.4073
   5268.5000     37.5187     81.0519     69.7536   -999.2500   -999.2500   -999.2500   -999.2500      8.3852
   5269.0000     41.8785     60.2235     49.0400   -999.2500   -999.2500   -999.2500   -999.2500      8.3630
   5269.5000     39.6745     29.1977     27.4089   -999.2500   -999.2500   -999.2500   -999.2500      8.3409
   5270.0000     57.1194     12.8140     12.5132   -999.2500   -999.2500   -999.2500   -999.2500      8.3409
   5270.5000     56.8400     10.9095     10.3965   -999.2500   -999.2500   -999.2500   -999.2500      8.3409
   5271.0000     75.9219      6.5463      6.3407   -999.2500   -999.2500   -999.2500   -999.2500      8.3409
   5271.5000    106.4513      3.8850      3.8007   -999.2500   -999.2500   -999.2500   -999.2500      8.3409
   5272.0000    103.0008      3.4354      3.3585   -999.2500   -999.2500   -999.2500   -999.2500      8.3409
   5272.5000    107.8095      3.4053      3.3577   -999.2500   -999.2500   -999.2500   -999.2500      8.3630
   5273.0000     96.7807      4.1801      4.0949   -999.2500   -999.2500   -999.2500   -999.2500      8.3630
   5273.5000     55.7727      9.6410      9.2373   -999.2500   -999.2500   -999.2500   -999.2500      8.3409
   5274.0000     55.2860     13.0593     12.1459   -999.2500   -999.2500   -999.2500   -999.2500   -999.2500
   5274.5000     50.7429     14.2560     13.3058   -999.2500   -999.2500   -999.2500   -999.2500   -999.2500
   5275.0000     50.7733     13.6387     12.0978   -999.2500   -999.2500   -999.2500   -999.2500   -999.2500
   5275.5000     66.1236      7.7399      7.5358   -999.2500   -999.2500   -999.2500   -999.2500   -999.2500
   5276.0000    119.3602      3.9822      3.9320   -999.2500   -999.2500   -999.2500   -999.2500   -999.2500
   5276.5000    111.6996      3.9785      3.9473   -999.2500   -999.2500   -999.2500   -999.2500   -999.2500
   5277.0000    109.0819      3.8004      3.6440   -999.2500   -999.2500   -999.2500   -999.2500   -999.2500
   5277.5000    108.5916      3.7810      3.6650   -999.2500   -999.2500   -999.2500   -999.2500   -999.2500
   5278.0000    112.9916      3.2471      3.1644   -999.2500   -999.2500   -999.2500   -999.2500   -999.2500
   5278.5000    113.8343      3.2651      3.2343   -999.2500   -999.2500   -999.2500   -999.2500   -999.2500
   5279.0000     97.3979      5.0563      5.1025   -999.2500   -999.2500   -999.2500   -999.2500   -999.2500
   5279.5000     66.2433     10.8120     10.5893   -999.2500   -999.2500   -999.2500   -999.2500   -999.2500
