~Version Information
 VERS.           2.0     :   CWLS log ASCII Standard -VERSION 2.0
 WRAP.           NO      :   One line per depth step
~Well Information
#MNEM.UNIT      VALUE/NAME              DESCRIPTION
#--------     --------------            ---------------------
 STRT.M           508.0000              :START DEPTH
 STOP.M          5279.5000              :STOP DEPTH
 STEP.M             0.5000              :STEP
 NULL.             -999.25              :NULL VALUE
 COMP.    ConocoPhillips                :COMPANY
 WELL.    Poseidon North 1              :WELL
 FLD .    Exploration                   :FIELD
 LOC .                                  :LOCATION
 PROV.                                  :PROVINCE
 SRVC.    Schlumberger                  :SERVICE COMPANY
 CTRY.                                  :COUNTRY
 DATE.    05/20/2014                    :LOG DATE
 UWI .                                  :UNIQUE WELL ID
 LATI.DEG -13/34/24.825                  : Latitude
 LONG.DEG 122/20/24.556                 : Longitude
 GDAT.                                  : Geodetic Datum
~PARAMETER INFORMATION
~CURVE INFORMATION
#MNEM    .UNIT     API CODE             Curve Description
 DEPT    .M                             :   Along hole depth
 GRD     .gAPI                          :   Gamma Ray
 RS      .ohm.m                         :   (RM)    (ARC[1])                (6in)                   Phase Shift Resistivity 22 inch Spacing at 2 MHz, Environmentally Corrected.
 RD      .ohm.m                         :   (RM)    (ARC[1])                (6in)                   Phase Shift Resistivity 34 inch Spacing at 2 MHz, Environmentally Corrected.
 RHOB    .g/cm3                         :   (RM)    (ADN[1])                (6in)                   Bulk Density
 TNPH    .pu                            :   (RM)    (ADN[1])                (6in)                   Thermal Neutron Porosity (Ratio Method) in Selected Lithology
 DTCO    .us/ft                         :   Delta-T Compressional
 DTSM    .us/ft                         :   Delta-T Shear
 HDAR    .in                            :   Hole Diameter from Area
#
# Curve              Start        Stop     Minimum     Maximum
# ------------------------------------------------------------
#
# GRD             508.0000   5279.5000      3.5346    204.6889
# RS              568.5000   5279.5000      0.1925    487.9586
# RD              568.5000   5279.5000      0.1945    316.2479
# RHOB           3782.0000   4931.5000      1.9495      3.5107
# TNPH           3780.5000   4931.5000      6.2988     68.6649
# DTCO           3677.0000   5250.0000     48.6167    124.5370
# DTSM           3804.5000   5250.0000     85.6802    273.5039
# HDAR           3808.0000   5273.5000      8.3409     17.3339
# ******************************
# #
# DEVIATION SURVEY:	(Schlumberger)		Definitive Survey
#	Depth	Dev (deg)	Azimuth (deg)	Depth	Dev (deg)	Azimuth (deg)
#	508.3m	0.00	0.00	535.0m	0.51	175.26
#	567.0m	0.46	159.23	632.3m	0.50	124.18
#	690.2m	0.36	105.64	718.4m	0.30	104.70
#	747.0m	0.22	100.37	833.2m	0.12	92.39
#	862.3m	0.14	89.88	948.6m	0.09	77.24
#	1034.5m	0.21	61.94	1120.7m	0.43	72.74
#	1178.5m	0.55	94.45	1234.9m	0.84	96.85
#	1264.2m	1.11	104.58	1293.6m	1.37	101.48
#	1322.8m	1.51	87.02	1353.0m	1.76	69.73
#	1412.0m	1.26	53.07	1440.7m	1.13	48.89
#	1469.3m	0.97	55.84	1497.6m	1.03	53.67
#	1526.2m	0.92	59.74	1554.4m	0.82	58.53
#	1583.8m	0.75	60.20	1641.9m	0.66	59.63
#	1670.7m	0.75	60.62	1698.0m	0.69	57.52
#	1725.9m	0.67	57.15	1754.8m	0.32	52.85
#	1783.6m	0.81	146.83	1812.6m	1.47	161.88
#	1841.3m	1.64	163.20	1870.0m	1.76	163.52
#	1899.8m	1.79	177.44	1927.8m	1.29	184.32
#	1957.9m	1.72	185.24	1986.4m	1.87	187.31
#	2016.7m	1.89	185.97	2045.2m	1.80	187.62
#	2073.8m	1.81	185.62	2102.3m	1.83	186.20
#	2130.6m	1.79	187.06	2159.6m	1.78	184.95
#	2189.6m	1.85	185.18	2218.1m	1.85	184.70
#	2246.2m	1.81	184.66	2274.6m	1.82	181.40
#	2303.7m	1.76	181.56	2331.2m	1.76	183.12
#	2360.1m	1.77	183.23	2389.2m	1.78	181.43
#	2429.8m	1.81	178.67	2453.0m	1.78	181.70
#	2490.3m	1.75	186.73	2519.1m	1.74	190.18
#	2577.7m	1.34	193.07	2606.3m	1.34	194.30
#	2634.8m	1.43	194.62	2663.0m	1.49	196.08
#	2691.9m	1.52	191.72	2720.5m	1.41	196.99
#	2749.1m	1.30	192.26	2778.8m	1.33	197.61
#	2807.5m	1.18	197.33	2836.7m	1.13	193.60
#	2865.4m	1.01	194.63	2894.6m	1.02	201.33
#	2923.5m	0.87	193.21	2952.2m	0.92	194.81
#	2979.9m	0.79	197.44	3007.9m	0.71	189.93
#	3039.2m	0.62	204.55	3068.6m	0.38	211.96
#	3098.5m	0.64	224.56	3126.6m	0.95	223.07
#	3154.6m	0.84	235.70	3185.2m	0.78	238.33
#	3212.8m	0.76	226.49	3242.0m	0.64	244.70
#	3272.3m	0.59	246.79	3300.2m	0.57	235.82
#	3327.8m	0.59	264.08	3357.0m	0.61	267.57
#	3388.0m	0.41	270.93	3443.1m	0.26	299.95
#	3474.8m	0.43	301.03	3500.7m	0.47	288.64
#	3531.2m	0.29	300.47	3558.2m	0.41	316.53
#	3588.3m	0.55	309.28	3617.9m	0.51	307.43
#	3648.0m	0.46	340.11	3676.0m	0.35	315.45
#	3703.6m	0.43	300.04	3730.9m	0.34	326.82
#	3751.3m	0.17	271.57	3780.6m	0.09	301.36
#	3814.8m	0.29	187.90	3828.0m	0.42	183.54
#	3858.7m	0.35	156.45	3888.1m	0.72	141.78
#	3916.0m	0.93	151.39	3944.8m	1.30	136.05
#	3973.2m	1.99	136.59	4001.6m	2.33	140.24
#	4028.8m	2.82	136.91	4057.0m	3.00	139.76
#	4117.2m	2.72	150.07	4147.1m	2.18	148.78
#	4176.6m	1.90	141.66	4205.2m	1.35	129.99
#	4234.2m	0.98	109.72	4261.7m	0.87	84.30
#	4291.0m	1.20	72.60	4320.5m	0.67	70.91
#	4348.8m	0.56	71.19	4376.7m	0.42	56.80
#	4404.4m	0.30	20.79	4433.2m	0.31	341.16
#	4462.6m	0.26	334.54	4521.8m	0.92	284.18
#	4552.1m	1.66	297.93	4580.0m	1.95	318.44
#	4606.9m	2.21	336.83	4636.2m	2.24	345.69
#	4664.8m	2.50	352.22	4693.7m	2.79	352.27
#	4723.0m	2.96	347.28	4753.0m	3.12	334.48
#	4782.4m	3.27	329.12	4811.3m	3.87	326.41
#	4838.8m	4.07	319.63	4866.5m	4.23	317.95
#	4895.6m	4.63	317.81	4927.1m	4.57	312.59
#	4955.7m	3.99	310.09	4983.3m	3.37	308.64
#	5009.6m	2.66	307.75	5040.2m	2.81	307.39
#	5069.7m	3.03	298.46	5100.5m	3.88	292.76
#	5126.7m	3.99	297.59	5157.5m	4.00	296.72
#	5186.1m	4.23	299.71	5213.0m	3.84	304.22
#	5242.0m	3.97	301.56	5265.7m	4.07	299.21
#	5287.0m	4.07	299.21
#
# VELOCITY SURVEY:	No checkshot survey run
# 
# ************************************************************
#
# #
# LOCN 	LAT:	13o 34' 24.825" S			WELL NAME:	Poseidon North 1	
# 	LONG:	122o 20' 24.556" E
# 	EASTING:	428611.91m E	NORTHING: 	8499338.27m N	ZONE:	51	GDA 94
# SEISMIC SURV:	Poseidon 3D	INLINE:  3600	XLINE: 2250	STATUS:	P & A
# ELEVN SF:	- 486.0m MSL 	DATUM RT:	22.0m	OPERATOR:	ConocoPhillips
# BASIN:		Browse	TOTAL D:	5287m	PARTNERS:	Karoon, PetroChina
# SPUD DATE:	19/03/2014	COMPLN DATE:	18/05/2014	LEASE:	WA-315-P
# TARGET:	Montara & Plover Fms, seismic closure	DRILLER:	Transocean
# DATA SOURCE:	WCR (Basic), logs			RIG:	Legend
# #
# HOLE AND CASING DATA:
# 	Hole 	Hole	Casing	Casing 	Weight	Grade	Joints	Cement	TOC
# 	Size	Depth	Size	Depth	lb/ft
# 	36”	568.3m	30”	568m	456 / 310	X-52	2 / 3	221 sx G at SG 1.5	
# 								1118 sx G at SG 1.9
# 								225 sx G at SG 1.9 	Grouted
# 	17.5”	2459m	13 3/8”	2453m	72	P-110	160	1734 sx G at SG 1.44
# 								486 sx G at SG 1.9
# 	12.25”	3820m	9 5/8”	3814.8m	53.5	P-110	267	469 sx HTB at SG 1.89
# 	8.5”	5287m	
# #
# TEMPERATURES:
# 	Depth Driller	Logger	Temp	Log Type	Time since circ	Circ Time
# 	5287m	5234m	165.6 deg C	QAIT-HNGS	25.9 hrs	2.5 hrs
# 		5060m	165.6 deg C	MDT	55 hrs
# #
# MUD PROPERTIES:
# Depth (L)	Fluid Type	SG	Vis.	pH	Fl cc	Rm	Rmf	Rmc
#  5287m	Novatec SBM	1.57	81	na	3.6	Assumed infinite
# #
#
# ************************************************************
#    This LAS file was created by Occam Technology Pty. Ltd.
# The edit data contained herein are copyright property of
# Occam Technology Pty. Ltd. The data are licensed to the
# purchasing company and subsidiaries worldwide, and are NOT
# for on-copying to third parties.  We place no restriction on
# the distribution of plots generated from the digital data.
#
#    We supply the data on a 'best effort' basis.  We cannot
# control either the original data acquisition or the application
# of the data, and therefore we cannot be held responsible for
# the consequences of any interpretations based on the data.  We
# urge purchasers to apply normal quality control procedures to
# the data before use for any quantitative interpretative
# procedures.
# ************************************************************
~A      DEPT         GRD          RS          RD        RHOB        TNPH        DTCO        DTSM        HDAR
# ...
   3986.0000     99.9462      0.7156      0.7076      2.4589     29.1087    106.3823    240.5707      8.5846
   3986.5000    102.7298      0.7255      0.7185      2.4470     31.1614    106.8470    240.3444      8.5846
   3987.0000    112.0239      0.7228      0.7166      2.4685     33.0533    108.9560    244.2220      8.5846
   3987.5000    104.6068      0.7086      0.7026      2.4572     33.0113    110.2815    248.8253      8.6288
   3988.0000    106.0689      0.6969      0.6895      2.4657     33.1204    105.4536    242.0601      8.5846
   3988.5000    107.7305      0.6949      0.6874      2.4593     31.6747    106.3575    239.1519      8.5846
   3989.0000     97.1300      0.9327      0.9423      2.5886     32.5555    106.3575    239.1519      8.6067
   3989.5000    107.7305      0.7225      0.6890      2.4923     32.3040    106.3575    239.1519      8.5846
   3990.0000     70.3624      1.1839      1.1703      2.8773     28.7350    106.3575    240.0571      8.5846
   3990.5000     97.3709      0.6901      0.6493      2.5596     30.6040    106.6068    240.0571      8.5846
   3991.0000    110.5595      0.7090      0.6945      2.4675     34.2833    106.6068    240.0571      8.5846
   3991.5000    110.2377      0.7267      0.7195      2.4647     32.8014    106.5605    240.0223      8.5846
   3992.0000    115.9887      0.7244      0.7164      2.4687     29.9380    106.6072    239.9895      8.5846
   3992.5000    109.2686      0.7251      0.7231      2.4611     31.5422    106.5815    240.0439      8.5846
   3993.0000    101.8457      0.7418      0.7442      2.4581     31.1676    106.6224    239.9650      8.5846
   3993.5000     90.7789      0.9549      1.0037      2.4585     31.1181    106.6107    239.9544      8.5846
   3994.0000     94.7686      0.7478      0.7518      2.4635     32.4385    106.6395    239.9447      8.5846
   3994.5000     96.2420      0.7376      0.7395      2.4695     31.1633    106.6179    239.9843      8.5846
   3995.0000     98.9759      0.7143      0.7083      2.4752     30.1444    106.6204    239.9133      8.5846
   3995.5000    103.8859      0.7088      0.7075      2.4609     33.8275    106.6499    239.8874      8.5846
   3996.0000    109.0136      0.7487      0.7503      2.4681     31.9179    106.6261    239.9190      8.5846
   3996.5000    104.0608      0.7277      0.7269      2.4492     33.7849    106.8755    238.7172      8.5846
   3997.0000    101.0342      0.7179      0.7126      2.4634     30.9098    106.8871    241.2667      8.5846
   3997.5000    112.4025      0.7087      0.7022      2.4453     31.3407    106.7789    238.4300      8.5846
   3998.0000    107.6942      0.7136      0.7099      2.4592     31.0529    106.2476    238.5645      8.6288
   3998.5000     99.5630      0.7315      0.7245      2.4760     31.7631    106.0487    234.0321      8.6067
   3999.0000     98.9940      0.7559      0.7502      2.4668     31.9220    106.1789    235.2304      8.5846
   3999.5000    105.8649      0.7440      0.7376      2.4436     30.8695    106.5477    235.1086      8.5846
   4000.0000    100.7984      0.7280      0.7226      2.4473     33.0954    106.6768    237.1239      8.5846
   4000.5000    100.4652      0.7281      0.7229      2.4596     34.1958    106.4935    237.1110      8.6067
   4001.0000    105.2268      0.7276      0.7306      2.4548     31.5983    105.3308    238.8127      8.6067
   4001.5000     96.6909      0.7474      0.7330      2.4602     28.9608    103.1785    233.5669      8.5846
   4002.0000     99.6491      0.9933      1.0101      2.4802     29.2167    103.5794    229.1777      8.5846
   4002.5000    107.5004      0.7754      0.7696      2.4685     30.8768    104.9539    230.6277      8.5846
   4003.0000    100.7916      0.7345      0.7331      2.4563     32.3489    106.7813    235.0413      8.5846
   4003.5000    105.8581      0.7397      0.7357      2.4599     31.2092    106.7063    236.9168      8.5846
   4004.0000    111.9106      0.7438      0.7398      2.4601     29.7505    105.8756    233.8607      8.5846
   4004.5000    103.1854      0.7431      0.7383      2.4438     31.6265    105.0078    232.6789      8.5846
   4005.0000    101.8321      0.7647      0.7726      2.4524     31.9522    105.4472    231.3391      8.5846
   4005.5000    105.2460      0.7859      0.7927      2.4603     31.6910    106.0064    233.6052      8.5846
   4006.0000    102.2102      0.7624      0.7659      2.4643     32.6614    106.2220    239.5988      8.5846
   4006.5000    104.3347      0.7364      0.7299      2.4695     32.9391    106.2220    239.5988      8.5846
   4007.0000     96.4529      0.7767      0.7700      2.4832     31.0483    106.2220    240.0178      8.5846
   4007.5000     90.1396      0.7342      0.7206      2.5444     31.6297    106.3766    240.0178      8.5846
   4008.0000     94.3243      0.7260      0.7151      2.4709     30.6240    106.3766    240.0178      8.5846
   4008.5000    102.7910      0.7115      0.7098      2.4670     30.5383    106.3580    239.6258      8.5846
   4009.0000    105.7810      0.7107      0.7053      2.4579     31.9410    106.3616    239.5853      8.6067
   4009.5000    103.7408      0.7317      0.7279      2.4579     31.7771    106.3755    239.6163      8.5846
   4010.0000    108.5212      0.7312      0.7250      2.4714     31.1561    106.3966    239.5088      8.5846
   4010.5000    105.4772      0.7249      0.7168      2.4575     33.4784    106.3755    239.5185      8.6067
   4011.0000    104.6068      0.7017      0.6952      2.4470     33.7919    106.3729    239.5006      8.5846
   4011.5000    103.7816      0.7218      0.7153      2.4851     33.1030    106.3466    239.5305      8.5846
   4012.0000    103.2557      0.7004      0.6973      2.4657     32.8666    106.3907    239.2299      8.6067
   4012.5000    100.3292      0.7363      0.7361      2.4799     32.9454    106.5728    238.4102      8.6067
   4013.0000    106.0598      0.7303      0.7279      2.4659     34.5889    106.4040    238.2705      8.6067
   4013.5000    104.5138      0.7338      0.7281      2.4475     32.7941    107.1188    238.2064      8.6067
   4014.0000    102.6482      0.7260      0.7195      2.4448     32.9479    107.5869    240.8806      8.5846
   4014.5000    105.8513      0.7252      0.7202      2.4359     31.6893    107.8133    240.9801      8.6067
   4015.0000    103.3010      0.7037      0.6972      2.4542     32.2932    106.3139    235.2227      8.6288
   4015.5000    107.1570      0.7402      0.7331      2.4601     33.4837    106.2586    235.2227      8.6067
   4016.0000    103.6093      0.7440      0.7411      2.4711     31.8632    106.2586    235.2227      8.6067
   4016.5000    101.3946      0.7650      0.7554      2.4599     31.6282    106.2433    232.6705      8.6067
   4017.0000     94.6915      0.8082      0.8007      2.4449     31.2226    106.2433    232.6705      8.6067
   4017.5000     89.6999      0.7631      0.7487      2.4722     30.9742    106.2293    232.6237      8.6067
   4018.0000     96.0176      0.7763      0.7657      2.4738     31.1078    106.2038    232.6290      8.6067
   4018.5000    102.2991      0.7370      0.7292      2.4439     32.8103    106.2047    232.5879      8.6288
   4019.0000    104.2871      0.7339      0.7281      2.4393     30.0009    106.1855    232.5712      8.6067
   4019.5000    102.5752      0.7390      0.7330      2.4512     31.7584    106.2104    232.5781      8.5846
   4020.0000     96.1249      0.7595      0.7510      2.4571     32.6729    106.2102    232.5904      8.6288
   4020.5000     88.0405      0.7923      0.7854      2.4714     31.9661    106.0625    232.3945      8.6067
   4021.0000     98.5406      0.7803      0.7699      2.4558     31.1504    105.7614    231.9966      8.6067
   4021.5000     99.3363      0.7814      0.7740      2.4406     30.7225    105.6933    231.2598      8.6067
   4022.0000     93.7100      0.7872      0.7820      2.4468     31.4469    105.8753    230.9292      8.6067
   4022.5000     94.6552      0.7767      0.7716      2.4580     31.6714    105.8514    230.4414      8.6067
