~Version Information
 VERS.           2.0     :   CWLS log ASCII Standard -VERSION 2.0
 WRAP.           NO      :   One line per depth step
~Well Information
#MNEM.UNIT      VALUE/NAME              DESCRIPTION
#--------     --------------            ---------------------
 STRT.M           579.5000              :START DEPTH
 STOP.M          5115.5000              :STOP DEPTH
 STEP.M             0.5000              :STEP
 NULL.             -999.25              :NULL VALUE
 COMP.    ConocoPhillips                :COMPANY
 WELL.    Poseidon 1                    :WELL
 FLD .    Exploration                   :FIELD
 LOC .                                  :LOCATION
 PROV.                                  :PROVINCE
 SRVC.    Schlumberger D&M              :SERVICE COMPANY
 CTRY.                                  :COUNTRY
 DATE.    28-Apr-09                     :LOG DATE
 UWI .                                  :UNIQUE WELL ID
 LATI.DEG -13/37/16.79                   : Latitude
 LONG.DEG 122/18/23.99                  : Longitude
 GDAT.                                  : Geodetic Datum
~PARAMETER INFORMATION
~CURVE INFORMATION
#MNEM    .UNIT     API CODE             Curve Description
 DEPT    .M                             :   Along hole depth
 ECGR    .gAPI                          :   EDTC Corrected Gamma-Ray
 ATRX    .ohm.m                         :   Array Induction Two Foot Rxo
 ATRT    .ohm.m                         :   Array Induction Two Foot Rt
 NPHI    .pu                            :   Thermal Neutron Porosity (Ratio Method)
 CAL1    .in                            :   Caliper 1
 HDAR    .in                            :   Hole Diameter from Area
 HROM    .g/cm3                         :   LDS High Resolution Corrected Bulk Density
 DTSM    .us/ft                         :   Delta-T Shear
 DTCO    .us/ft                         :   Delta-T Compressional
#
# Curve              Start        Stop     Minimum     Maximum
# ------------------------------------------------------------
#
# ECGR            904.0000   5108.0000      5.0321    198.6361
# ATRX            579.5000   5114.0000      0.1100   1950.0000
# ATRT            579.5000   5114.0000      0.1803   1950.0000
# NPHI           3858.0000   5104.5000      1.0400     50.1900
# CAL1           3845.0000   5003.0000      4.5412     12.7663
# HDAR           3884.0000   5110.0000      5.8056     12.6868
# HROM           3887.0000   5115.0000      1.4423      3.0358
# DTSM           4395.0000   4974.0000     83.2234    221.9217
# DTCO           4395.0000   4974.0000     51.4416    111.5382
# ******************************
# 
# ************************************************************
#
# #
# LOCN 	LAT:	13o 37' 16.79" S			WELL NAME:	Poseidon 1
# 	LONG:	122o 18' 23.99" E
# 	EASTING:	425055.467m E	NORTHING: 	8493875.264m N	ZONE:	51	GDA 94
# SHOT POINT:		SEISMIC LINE:		STATUS:	P & A
# SEISMIC SURVEY:		INLINE:	XLINE:
# ELEVN SF:	494.0m	DATUM KB:	26.4m	OPERATOR:	ConocoPhillips
# BASIN :		Browse	TOTAL D:	5112.1m	PARTNERS:	Karoon
# SPUD DATE:	26/01/2009	COMPLN DATE:	29/05/2009	LEASE:	WA-315-P
# TARGET:	Plover SS			DRILLER:	Transocean
# DATA SOURCE:	WCR, logs			RIG:	Sedco 703
# #
# HOLE AND CASING DATA:
# 	Hole 	Hole	Casing	Casing 	Weight	Grade	Joints	Cement	TOC
# 	Size	Depth	Size	Depth	lb/ft
# 	36”	581.8m	30”	578m	310	X-52	5	1105 sx G at SG 1.9	Seafloor
# 								185 sx G at SG 1.9 – top up
# 	17.5”	2296m	13 3/8”	2287.5m	72	P-110	143	688 sx G at SG 1.5
# 								500 sx G at SG 1.9
# 	12.25”	3898m	9 5/8”	3890.8m	53.5	P-110	274	202 sx G at SG 1.62	
# 								133 sx G at SG 1.98
# 	9.5”	3965m	7 5/8”	3957m	30.5	EX-80	14	
# 	8.5”	4588m	7”	4587.5m	32 / 29	P110/L80	47/20	213 sx G at SG 1.9
# 	6”	5112.1m	5”	5088.4m	18	P-110	72	116 sx G at SG 1.9
# #
# TEMPERATURES:
# 	Depth Driller	Logger	Temp	Log Type	Time since circ	Circ Time
# 	3965m	3960m	104 deg C	FMI	22.78 hrs	2.5 hrs
# 	5112.1m	5118m	160 deg C	CMR	22.83 hrs
# 			162 deg C	HNGS	36.17 hrs
# 		4990m	165 deg c	Sonic Scanner	47.47 hrs
# #
# MUD PROPERTIES:
# Depth (L)	Fluid Type	SG	Vis.	pH	Fl cc	Rm	Rmf	Rmc
# 3965m	KCl-Polymer	1.29				0.167 at 18.6 deg C	0.244 at 17.8 deg C	0.261 at 18 deg C
# 		KCl	6%	Barite 	7.5%
# 5112.1m	Novatec SBM	1.20			3.6	
# 				Barite	10.3%
# #
#
# DEVIATION SURVEY:		(Schlumberger)
#	Depth	Dev (deg)	Azimuth (deg)	Depth	Dev (deg)	Azimuth (deg)
#	0.0m	0.00	0.00	520.5m	0.00	0.00
#	527.6m	0.39	259.27	552.8m	1.09	19.41
#	607.9m	0.33	161.06	636.3m	0.28	157.46
#	666.2m	0.42	156.27	723.3m	0.49	158.80
#	752.4m	0.76	145.50	811.0m	0.69	144.79
#	868.3m	0.66	149.14	897.2m	0.66	152.38
#	926.2m	0.53	150.70	1013.9m	0.64	144.22
#	1100.8m	0.45	222.81	1130.8m	0.53	244.07
#	1187.1m	0.69	231.27	1215.1m	0.65	232.48
#	1243.9m	0.64	288.99	1272.6m	0.63	304.63
#	1300.8m	0.62	311.48	1329.9m	0.16	285.18
#	1359.0m	0.11	292.17	1386.3m	0.31	331.80
#	1416.5m	0.53	355.63	1447.1m	0.61	2.60
#	1474.7m	0.94	7.68	1505.2m	1.01	358.08
#	1534.9m	0.92	345.86	1563.8m	0.61	5.17
#	1592.2m	0.76	17.60	1622.0m	0.60	20.84
#	1650.2m	0.65	36.42	1763.9m	0.60	51.71
#	1821.4m	0.46	44.49	1850.5m	0.79	49.16
#	1908.9m	0.96	36.49	1939.6m	0.58	13.70
#	1959.8m	0.13	322.88	2044.1m	0.34	243.01
#	2073.4m	0.44	233.00	2101.7m	0.51	240.40
#	2131.7m	0.50	252.10	2189.0m	0.49	257.69
#	2246.1m	0.42	251.29	2269.4m	0.43	247.24
#	2313.9m	0.33	207.85	2341.6m	0.20	199.21
#	2369.9m	0.15	229.33	2398.5m	0.14	219.45
#	2427.2m	0.22	182.60	2456.2m	0.23	217.52
#	2486.6m	0.30	200.91	2516.1m	0.34	250.17
#	2599.5m	0.23	257.73	2656.6m	0.37	259.03
#	2685.9m	0.36	244.41	2714.4m	0.33	247.01
#	2743.5m	0.44	264.65	2772.9m	0.36	248.49
#	2802.7m	0.49	249.47	2829.7m	0.46	254.82
#	2887.1m	0.37	245.00	2916.6m	0.30	229.13
#	2946.6m	0.14	227.49	3004.8m	0.20	234.38
#	3062.1m	0.52	223.74	3090.7m	0.51	219.43
#	3120.9m	0.47	216.60	3150.2m	0.49	219.95
#	3178.9m	0.44	222.75	3206.5m	0.40	211.30
#	3235.7m	0.35	217.26	3265.7m	0.49	214.66
#	3322.4m	0.35	211.44	3350.4m	0.36	212.61
#	3379.8m	0.35	230.18	3409.2m	0.34	230.92
#	3494.2m	0.34	231.38	3557.7m	0.29	277.76
#	3668.7m	0.32	324.77	3698.3m	0.43	340.30
#	3729.8m	0.45	340.13	3756.5m	0.39	332.45
#	3815.7m	0.44	309.71	3873.0m	0.59	285.30
#	4047.5m	4.76	321.71	4065.7m	5.39	333.06
#	4082.1m	6.39	336.20	4098.9m	7.73	337.83
#	4115.7m	9.43	344.07	4147.0m	12.37	344.49
#	4160.9m	13.41	345.79	4170.7m	13.89	349.54
#	4182.8m	14.27	348.89	4198.0m	15.83	349.61
#	4230.3m	13.55	353.68	4255.8m	12.41	353.57
#	4287.3m	11.70	355.88	4312.9m	11.40	355.42
#	4344.1m	10.54	354.84	4370.2m	10.32	356.38
#	4403.0m	10.25	3.71	4428.6m	10.50	359.63
#	4443.5m	9.94	359.87	4458.4m	10.08	1.47
#	4486.5m	9.71	359.12	4514.6m	9.26	359.81
#	4545.3m	9.64	0.67	4572.5m	9.26	356.64
#	4602.8m	8.97	350.43	4631.2m	8.70	344.94
#	4660.8m	8.34	342.12	4688.5m	8.14	338.90
#	4718.7m	8.30	333.76	4776.7m	8.03	335.31
#	4804.1m	7.88	336.68	4832.6m	7.95	337.54
#	4862.8m	7.84	339.39	4891.2m	7.71	338.67
#	4920.0m	8.19	338.17	4948.2m	8.48	335.94
#	4980.2m	8.19	335.87	5009.6m	7.89	329.96
#	5036.0m	7.84	329.96	5066.0m	7.78	329.28
#	5093.9m	7.52	327.67	5112.0m	7.52	327.67
#
# VELOCITY SURVEY:	(Schlumberger)		OWT, vertically corrected, relative to SRD (MSL)
#	Depth	TVD SS	OWT(sec)	Depth	TVD SS	OWT(sec)
#	29.3m	2.9m	0.0316	44.4m	18.0m	0.1682
#	59.5m	33.1m	0.3158	784.1m	757.7m	0.6576
#	799.2m	772.8m	0.6603	814.3m	787.9m	0.6620
#	829.5m	803.0m	0.6645	1744.4m	1717.9m	0.8235
#	1759.5m	1733.0m	0.8269	1774.6m	1748.2m	0.8303
#	1789.7m	1763.3m	0.8333	1804.9m	1778.5m	0.8364
#	1820.0m	1793.6m	0.8400	1835.2m	1808.7m	0.8433
#	1850.3m	1823.8m	0.8473	1865.4m	1838.9m	0.8510
#	1880.5m	1854.0m	0.8546	1895.6m	1869.1m	0.8584
#	1910.7m	1884.2m	0.8627	1925.8m	1899.3m	0.8666
#	1940.9m	1914.5m	0.8705	1956.1m	1929.6m	0.8744
#	1971.2m	1944.7m	0.8782	1986.4m	1959.9m	0.8816
#	2001.5m	1975.0m	0.8850	2016.7m	1990.2m	0.8885
#	2031.8m	2005.3m	0.8918	2046.8m	2020.3m	0.8953
#	2062.0m	2035.5m	0.8987	2077.1m	2050.6m	0.9018
#	2092.2m	2065.7m	0.9050	2107.3m	2080.8m	0.9080
#	2122.4m	2095.9m	0.9111	2137.6m	2111.1m	0.9138
#	2152.7m	2126.2m	0.9168	2167.8m	2141.3m	0.9196
#	2182.9m	2156.4m	0.9224	2198.1m	2171.6m	0.9253
#	2213.2m	2186.7m	0.9283	2228.3m	2201.8m	0.9313
#	2243.4m	2216.9m	0.9342	2258.6m	2232.1m	0.9371
#	2273.7m	2247.2m	0.9400	2288.8m	2262.4m	0.9430
#	2304.0m	2277.5m	0.9460	2319.1m	2292.6m	0.9488
#	2334.2m	2307.7m	0.9517	2349.2m	2322.7m	0.9545
#	2364.4m	2337.9m	0.9576	2379.5m	2353.0m	0.9605
#	2394.6m	2368.1m	0.9632	2409.6m	2383.1m	0.9661
#	2424.8m	2398.3m	0.9692	2439.9m	2413.4m	0.9724
#	2455.0m	2428.5m	0.9757	2470.2m	2443.7m	0.9795
#	2485.3m	2458.8m	0.9830	2500.4m	2473.9m	0.9865
#	2515.6m	2489.1m	0.9900	2530.7m	2504.2m	0.9937
#	2545.9m	2519.4m	0.9973	2561.0m	2534.5m	1.0010
#	2576.1m	2549.6m	1.0046	2591.2m	2564.7m	1.0080
#	2606.3m	2579.8m	1.0113	2621.5m	2595.0m	1.0147
#	2636.6m	2610.1m	1.0183	2651.6m	2625.1m	1.0215
#	2666.8m	2640.3m	1.0249	2681.9m	2655.4m	1.0285
#	2697.0m	2670.5m	1.0325	2712.1m	2685.6m	1.0361
#	2727.3m	2700.8m	1.0399	2742.4m	2715.9m	1.0434
#	2757.5m	2731.0m	1.0472	2772.6m	2746.1m	1.0510
#	2787.7m	2761.2m	1.0547	2802.8m	2776.3m	1.0582
#	2817.9m	2791.4m	1.0617	2833.0m	2806.5m	1.0651
#	2848.2m	2821.7m	1.0685	2863.3m	2836.8m	1.0718
#	2878.4m	2851.9m	1.0750	2893.6m	2867.1m	1.0781
#	2908.8m	2882.3m	1.0814	2914.1m	2887.6m	1.0824
#	2923.9m	2897.4m	1.0844	2929.2m	2902.7m	1.0855
#	2939.0m	2912.5m	1.0875	2944.4m	2917.8m	1.0887
#	2954.0m	2927.5m	1.0907	2959.5m	2933.0m	1.0921
#	2969.1m	2942.6m	1.0941	2984.3m	2957.8m	1.0975
#	2999.4m	2972.9m	1.1008	3014.5m	2988.0m	1.1040
#	3029.6m	3003.1m	1.1072	3044.8m	3018.3m	1.1103
#	3059.9m	3033.4m	1.1134	3075.1m	3048.5m	1.1165
#	3090.2m	3063.7m	1.1194	3105.3m	3078.8m	1.1224
#	3120.4m	3093.9m	1.1253	3135.6m	3109.0m	1.1284
#	3150.7m	3124.2m	1.1318	3165.8m	3139.3m	1.1352
#	3180.9m	3154.4m	1.1385	3196.0m	3169.5m	1.1420
#	3211.2m	3184.6m	1.1452	3226.3m	3199.8m	1.1486
#	3241.4m	3214.9m	1.1518	3256.4m	3229.9m	1.1550
#	3271.6m	3245.0m	1.1583	3286.7m	3260.2m	1.1618
#	3301.8m	3275.3m	1.1653	3316.9m	3290.4m	1.1690
#	3332.1m	3305.6m	1.1726	3347.2m	3320.7m	1.1767
#	3362.3m	3335.8m	1.1808	3377.4m	3350.9m	1.1849
#	3392.6m	3366.0m	1.1889	3407.7m	3381.2m	1.1926
#	3831.1m	3804.5m	1.2951	3846.2m	3819.6m	1.2989
#	3861.2m	3834.7m	1.3025	3876.3m	3849.8m	1.3067
#	3891.5m	3864.9m	1.3108	3906.6m	3880.0m	1.3154
#	3921.7m	3895.1m	1.3196	3936.8m	3910.2m	1.3245
#	3952.0m	3925.3m	1.3297	3967.1m	3940.4m	1.3350
#	3982.3m	3955.6m	1.3402	3997.4m	3970.7m	1.3452
#	4012.5m	3985.8m	1.3502	4027.6m	4000.9m	1.3552
#	4042.6m	4015.9m	1.3603	4057.8m	4031.0m	1.3653
#	4072.9m	4046.0m	1.3703	4088.0m	4061.0m	1.3752
#	4103.2m	4076.1m	1.3799	4118.3m	4091.0m	1.3848
#	4133.4m	4105.8m	1.3895	4148.5m	4120.7m	1.3944
#	4163.7m	4135.4m	1.3993	4178.8m	4150.1m	1.4041
#	4193.9m	4164.7m	1.4089	4209.0m	4179.3m	1.4135
#	4224.1m	4193.9m	1.4181	4239.2m	4208.6m	1.4227
#	4254.3m	4223.3m	1.4271	4269.4m	4238.1m	1.4316
#	4284.7m	4253.0m	1.4359	4284.7m	4253.0m	1.4358
#	4299.8m	4267.8m	1.4402	4299.8m	4267.8m	1.4402
#	4314.9m	4282.6m	1.4448	4314.9m	4282.6m	1.4447
#	4330.0m	4297.5m	1.4493	4330.0m	4297.5m	1.4493	
#
# ************************************************************
#    This LAS file was created by Occam Technology Pty. Ltd.
# The edit data contained herein are copyright property of
# Occam Technology Pty. Ltd. The data are licensed to the
# purchasing company and subsidiaries worldwide, and are NOT
# for on-copying to third parties.  We place no restriction on
# the distribution of plots generated from the digital data.
#
#    We supply the data on a 'best effort' basis.  We cannot
# control either the original data acquisition or the application
# of the data, and therefore we cannot be held responsible for
# the consequences of any interpretations based on the data.  We
# urge purchasers to apply normal quality control procedures to
# the data before use for any quantitative interpretative
# procedures.
# ************************************************************
~A      DEPT        ECGR        ATRX        ATRT        NPHI        CAL1        HDAR        HROM        DTSM        DTCO
# ...
   4566.0000     44.8623      2.8691      2.6702     19.9800      5.1226      6.2891      2.2892    130.9632   -999.2500
   4566.5000     37.5560      2.5995      2.4990     19.8900      5.1208      6.2966      2.2030    135.3068   -999.2500
   4567.0000     35.6411      2.4900      2.4096     19.1800      5.1208      6.2791      2.1927    131.9245   -999.2500
   4567.5000     35.4123      2.4119      2.3211     19.2400      5.1223      6.2941      2.2208    127.5091     56.5047
   4568.0000     34.5231      2.4779      2.3291     19.3700      5.1238      6.2791      2.1878    141.4812   -999.2500
   4568.5000     34.5250      2.5508      2.4495     20.6400      5.1216      6.2791      2.1847    128.6788   -999.2500
   4569.0000     34.8339      2.6998      2.5398     21.0600      5.1211      6.2841      2.1851    129.0015   -999.2500
   4569.5000     32.9145      2.6012      2.4908     21.8200      5.1211      6.2799      2.2046    131.4227   -999.2500
   4570.0000     42.4721      2.7200      2.5300     20.7900      5.1223      6.2841      2.1428    141.3368     76.0887
   4570.5000     42.8067      2.7200      2.4498     19.5300      5.1230      6.2799      2.0836    147.2407     73.8677
   4571.0000     45.6763      2.7997      2.5099     20.5000      5.1216      6.2841      2.0817    147.6656     85.2711
   4571.5000     41.0314      3.0704      2.7900     21.2000      5.3420      6.2883      2.2573    140.2323     82.3025
   4572.0000     39.4355      3.7070      3.1089     20.1000      6.0280      6.3042      2.2840    133.1986     75.0495
   4572.5000     39.1537      3.1521      2.7312     19.9600      6.2147      6.2941      2.1819    139.7040     75.3328
   4573.0000     42.1556      3.5607      3.1296     18.5000      6.2162      6.2966      2.2887    141.3071     81.4545
   4573.5000     43.4533      4.3581      3.5889     19.5100      6.1856      6.2590      2.2737    141.1914     80.8968
   4574.0000     45.1483      4.0807      3.3912     19.7300      6.1816      6.2423      2.2033    134.7191     78.7346
   4574.5000     39.4104      4.0903      3.4815     19.2000      6.1020      6.2490      2.2257    131.7617     78.4570
   4575.0000     43.2828      4.1105      3.4686     19.1200      6.1055      6.2423      2.2161    130.2866     78.0872
   4575.5000     42.1868      4.0126      3.4326     18.9500      6.1397      6.2439      2.2214    130.2618     78.0789
   4576.0000     39.6245      4.6500      3.7100     18.4700      6.1404      6.2741      2.2466    128.2788     77.2421
   4576.5000     31.1831      4.8186      4.0384     19.4300      6.1412      6.3092      2.1203    124.0786     73.8557
   4577.0000     30.8115      4.7326      4.0396     17.9200      6.1374      6.3092      2.1470    128.2865     78.9936
   4577.5000     32.5539   -999.2500   -999.2500     17.9200      6.1407      6.3301      2.2097    126.0740     75.9740
   4578.0000     32.4056   -999.2500   -999.2500     18.1600      6.1401      6.3259      2.1883    120.5397     70.5919
   4578.5000     32.3000   -999.2500   -999.2500     16.9900      6.0975      6.3218      2.1205    120.5652     77.1106
   4579.0000     28.7755   -999.2500   -999.2500     17.3400      6.1419      6.3243      2.2120    120.8328     73.4547
   4579.5000     27.7338   -999.2500   -999.2500     17.9600      6.1419      6.3259      2.1528    126.7169     78.2846
   4580.0000     33.8016   -999.2500   -999.2500     18.7000      6.1191      6.3243      2.2102    121.6331     74.8030
   4580.5000     31.1953   -999.2500   -999.2500     17.3200      6.1014      6.3243      2.1858    122.7124     74.5288
   4581.0000     33.0640   -999.2500   -999.2500     18.6400      6.1029      6.3176      2.1667    119.9092     74.4098
   4581.5000     30.6605   -999.2500   -999.2500     17.0700      6.1071      6.3293      2.2224    125.8960     77.4964
   4582.0000     31.8549   -999.2500   -999.2500     18.3700      6.1094      6.3176      2.2064    132.4933     76.8701
   4582.5000     31.4352   -999.2500   -999.2500     17.2500      6.1079      6.3243      2.2467    122.6876     73.8445
   4583.0000     27.4400   -999.2500   -999.2500     17.0800      6.1098      6.3092      2.2922    115.3376     74.9339
   4583.5000     27.3114   -999.2500   -999.2500     18.2400      6.1044      6.3293      2.1520    115.0172     71.6948
   4584.0000     30.0950   -999.2500   -999.2500     17.0300      6.1048      6.3235      2.2154    125.5811     72.5150
   4584.5000     30.8365   -999.2500   -999.2500     16.2100      6.1041      6.3253      2.1922    123.7206     76.2313
   4585.0000     26.6398   -999.2500   -999.2500     16.4100      6.1046      6.3253      2.2198    120.1223     68.7588
   4585.5000     23.3286   -999.2500   -999.2500     17.1100      6.1037      6.3289      2.1917    123.1755     72.8733
   4586.0000     27.7594   -999.2500   -999.2500     17.6700      6.1071      6.2841      2.2460    124.8910     73.1607
   4586.5000     27.2194   -999.2500   -999.2500     17.2600      6.1071      6.2823      2.2328    125.3064     74.8046
   4587.0000     31.4171   -999.2500   -999.2500     17.9000      6.1076      6.2841      2.1797    128.0565     72.6169
   4587.5000     32.3045   -999.2500   -999.2500     19.4900      6.1140      6.2895      2.1627    132.0183     77.5376
   4588.0000     32.1033   -999.2500   -999.2500     19.1200      6.1067      6.2841      2.2279    125.5443     76.3104
   4588.5000     34.0166   -999.2500   -999.2500     18.7500      6.1044      6.2805      2.1021    123.0237     76.8446
   4589.0000     34.1527   -999.2500   -999.2500     18.5100      6.0730      6.2554      2.1156    121.6357     74.0509
   4589.5000     28.1221   -999.2500   -999.2500     18.6300      6.9895      6.2823      1.8998    114.9040     76.4326
   4590.0000     43.3511   -999.2500   -999.2500     17.3300      7.0099      6.9725      1.7306    103.6998     72.9804
   4590.5000     40.6155   -999.2500   -999.2500     16.4000      7.0453      7.7111      2.4416    120.4080     66.5336
   4591.0000     34.5700      3.5922   -999.2500     11.9500      7.0499      6.2464      2.5162    126.3800     83.4951
   4591.5000     29.5374      4.0826      3.9323      9.6200      8.2547      6.2052      2.4696    104.9980     68.3756
   4592.0000     35.3460      4.3293      4.1013     11.1000      6.1079      6.2088      2.4851    105.5691     68.6427
   4592.5000     36.9678      4.3996      4.4726     11.3600      6.0902      6.2088      2.4800    112.2632     71.0087
   4593.0000     42.3168      4.3913      4.3753     11.3000      6.1056      6.2142      2.4842    113.7052     71.4039
   4593.5000     42.3184      4.1045      4.0670     10.5900      6.1048      6.2106      2.4968    119.7163     74.4223
   4594.0000     54.3600      3.7161      3.6543     13.1200      6.1064      6.2106      2.5054    121.7780     74.5297
   4594.5000     44.3620      3.4789      3.4024     12.1300      6.0792      6.2052      2.4944    121.3074     77.0792
   4595.0000     52.7915      3.4306      3.3326     11.9400      6.0842      6.2070      2.4860    118.1132     75.1453
   4595.5000     50.5501      3.3246      3.2495     13.2800      6.0679      6.2160      2.5131    121.1056     77.4928
   4596.0000     55.6866      3.2902      3.2353     12.3400      6.0673      6.2124      2.5171    119.8223     74.3163
   4596.5000     52.7064      3.1215      3.0830     12.9500      6.0585      6.2016      2.5140    122.5062     77.3832
   4597.0000     69.3395      2.9045      2.8798     12.1600      6.0666      6.2070      2.5082    130.9788     80.5407
   4597.5000     47.0722      3.0555      3.0029     11.8200      6.0730      6.2088      2.4999    117.6822     73.3465
   4598.0000     40.3600      3.7790      3.6778     11.1400      6.0410      6.2142      2.5080    112.1917     68.9592
   4598.5000     47.8666      3.9549      3.8276     13.0600      6.0738      6.2138      2.5266    121.5774     75.5288
   4599.0000     77.1847      2.9903      2.8714     14.6900      6.1164      6.2052      2.4980    137.3015     80.6113
