~Version Information
 VERS.           2.0     :   CWLS log ASCII Standard -VERSION 2.0
 WRAP.           NO      :   One line per depth step
~Well Information
#MNEM.UNIT      VALUE/NAME              DESCRIPTION
#--------     --------------            ---------------------
 STRT.M           508.0000              :START DEPTH
 STOP.M          5279.5000              :STOP DEPTH
 STEP.M             0.5000              :STEP
 NULL.             -999.25              :NULL VALUE
 COMP.    ConocoPhillips                :COMPANY
 WELL.    Poseidon North 1              :WELL
 FLD .    Exploration                   :FIELD
 LOC .                                  :LOCATION
 PROV.                                  :PROVINCE
 SRVC.    Schlumberger                  :SERVICE COMPANY
 CTRY.                                  :COUNTRY
 DATE.    05/20/2014                    :LOG DATE
 UWI .                                  :UNIQUE WELL ID
 LATI.DEG -13/34/24.825                  : Latitude
 LONG.DEG 122/20/24.556                 : Longitude
 GDAT.                                  : Geodetic Datum
~PARAMETER INFORMATION
~CURVE INFORMATION
#MNEM    .UNIT     API CODE             Curve Description
 DEPT    .M                             :   Along hole depth
 GRD     .gAPI                          :   Gamma Ray
 RS      .ohm.m                         :   (RM)    (ARC[1])                (6in)                   Phase Shift Resistivity 22 inch Spacing at 2 MHz, Environmentally Corrected.
 RD      .ohm.m                         :   (RM)    (ARC[1])                (6in)                   Phase Shift Resistivity 34 inch Spacing at 2 MHz, Environmentally Corrected.
 RHOB    .g/cm3                         :   (RM)    (ADN[1])                (6in)                   Bulk Density
 TNPH    .pu                            :   (RM)    (ADN[1])                (6in)                   Thermal Neutron Porosity (Ratio Method) in Selected Lithology
 DTCO    .us/ft                         :   Delta-T Compressional
 DTSM    .us/ft                         :   Delta-T Shear
 HDAR    .in                            :   Hole Diameter from Area
#
# Curve              Start        Stop     Minimum     Maximum
# ------------------------------------------------------------
#
# GRD             508.0000   5279.5000      3.5346    204.6889
# RS              568.5000   5279.5000      0.1925    487.9586
# RD              568.5000   5279.5000      0.1945    316.2479
# RHOB           3782.0000   4931.5000      1.9495      3.5107
# TNPH           3780.5000   4931.5000      6.2988     68.6649
# DTCO           3677.0000   5250.0000     48.6167    124.5370
# DTSM           3804.5000   5250.0000     85.6802    273.5039
# HDAR           3808.0000   5273.5000      8.3409     17.3339
# ******************************
# #
# DEVIATION SURVEY:	(Schlumberger)		Definitive Survey
#	Depth	Dev (deg)	Azimuth (deg)	Depth	Dev (deg)	Azimuth (deg)
#	508.3m	0.00	0.00	535.0m	0.51	175.26
#	567.0m	0.46	159.23	632.3m	0.50	124.18
#	690.2m	0.36	105.64	718.4m	0.30	104.70
#	747.0m	0.22	100.37	833.2m	0.12	92.39
#	862.3m	0.14	89.88	948.6m	0.09	77.24
#	1034.5m	0.21	61.94	1120.7m	0.43	72.74
#	1178.5m	0.55	94.45	1234.9m	0.84	96.85
#	1264.2m	1.11	104.58	1293.6m	1.37	101.48
#	1322.8m	1.51	87.02	1353.0m	1.76	69.73
#	1412.0m	1.26	53.07	1440.7m	1.13	48.89
#	1469.3m	0.97	55.84	1497.6m	1.03	53.67
#	1526.2m	0.92	59.74	1554.4m	0.82	58.53
#	1583.8m	0.75	60.20	1641.9m	0.66	59.63
#	1670.7m	0.75	60.62	1698.0m	0.69	57.52
#	1725.9m	0.67	57.15	1754.8m	0.32	52.85
#	1783.6m	0.81	146.83	1812.6m	1.47	161.88
#	1841.3m	1.64	163.20	1870.0m	1.76	163.52
#	1899.8m	1.79	177.44	1927.8m	1.29	184.32
#	1957.9m	1.72	185.24	1986.4m	1.87	187.31
#	2016.7m	1.89	185.97	2045.2m	1.80	187.62
#	2073.8m	1.81	185.62	2102.3m	1.83	186.20
#	2130.6m	1.79	187.06	2159.6m	1.78	184.95
#	2189.6m	1.85	185.18	2218.1m	1.85	184.70
#	2246.2m	1.81	184.66	2274.6m	1.82	181.40
#	2303.7m	1.76	181.56	2331.2m	1.76	183.12
#	2360.1m	1.77	183.23	2389.2m	1.78	181.43
#	2429.8m	1.81	178.67	2453.0m	1.78	181.70
#	2490.3m	1.75	186.73	2519.1m	1.74	190.18
#	2577.7m	1.34	193.07	2606.3m	1.34	194.30
#	2634.8m	1.43	194.62	2663.0m	1.49	196.08
#	2691.9m	1.52	191.72	2720.5m	1.41	196.99
#	2749.1m	1.30	192.26	2778.8m	1.33	197.61
#	2807.5m	1.18	197.33	2836.7m	1.13	193.60
#	2865.4m	1.01	194.63	2894.6m	1.02	201.33
#	2923.5m	0.87	193.21	2952.2m	0.92	194.81
#	2979.9m	0.79	197.44	3007.9m	0.71	189.93
#	3039.2m	0.62	204.55	3068.6m	0.38	211.96
#	3098.5m	0.64	224.56	3126.6m	0.95	223.07
#	3154.6m	0.84	235.70	3185.2m	0.78	238.33
#	3212.8m	0.76	226.49	3242.0m	0.64	244.70
#	3272.3m	0.59	246.79	3300.2m	0.57	235.82
#	3327.8m	0.59	264.08	3357.0m	0.61	267.57
#	3388.0m	0.41	270.93	3443.1m	0.26	299.95
#	3474.8m	0.43	301.03	3500.7m	0.47	288.64
#	3531.2m	0.29	300.47	3558.2m	0.41	316.53
#	3588.3m	0.55	309.28	3617.9m	0.51	307.43
#	3648.0m	0.46	340.11	3676.0m	0.35	315.45
#	3703.6m	0.43	300.04	3730.9m	0.34	326.82
#	3751.3m	0.17	271.57	3780.6m	0.09	301.36
#	3814.8m	0.29	187.90	3828.0m	0.42	183.54
#	3858.7m	0.35	156.45	3888.1m	0.72	141.78
#	3916.0m	0.93	151.39	3944.8m	1.30	136.05
#	3973.2m	1.99	136.59	4001.6m	2.33	140.24
#	4028.8m	2.82	136.91	4057.0m	3.00	139.76
#	4117.2m	2.72	150.07	4147.1m	2.18	148.78
#	4176.6m	1.90	141.66	4205.2m	1.35	129.99
#	4234.2m	0.98	109.72	4261.7m	0.87	84.30
#	4291.0m	1.20	72.60	4320.5m	0.67	70.91
#	4348.8m	0.56	71.19	4376.7m	0.42	56.80
#	4404.4m	0.30	20.79	4433.2m	0.31	341.16
#	4462.6m	0.26	334.54	4521.8m	0.92	284.18
#	4552.1m	1.66	297.93	4580.0m	1.95	318.44
#	4606.9m	2.21	336.83	4636.2m	2.24	345.69
#	4664.8m	2.50	352.22	4693.7m	2.79	352.27
#	4723.0m	2.96	347.28	4753.0m	3.12	334.48
#	4782.4m	3.27	329.12	4811.3m	3.87	326.41
#	4838.8m	4.07	319.63	4866.5m	4.23	317.95
#	4895.6m	4.63	317.81	4927.1m	4.57	312.59
#	4955.7m	3.99	310.09	4983.3m	3.37	308.64
#	5009.6m	2.66	307.75	5040.2m	2.81	307.39
#	5069.7m	3.03	298.46	5100.5m	3.88	292.76
#	5126.7m	3.99	297.59	5157.5m	4.00	296.72
#	5186.1m	4.23	299.71	5213.0m	3.84	304.22
#	5242.0m	3.97	301.56	5265.7m	4.07	299.21
#	5287.0m	4.07	299.21
#
# VELOCITY SURVEY:	No checkshot survey run
# 
# ************************************************************
#
# #
# LOCN 	LAT:	13o 34' 24.825" S			WELL NAME:	Poseidon North 1	
# 	LONG:	122o 20' 24.556" E
# 	EASTING:	428611.91m E	NORTHING: 	8499338.27m N	ZONE:	51	GDA 94
# SEISMIC SURV:	Poseidon 3D	INLINE:  3600	XLINE: 2250	STATUS:	P & A
# ELEVN SF:	- 486.0m MSL 	DATUM RT:	22.0m	OPERATOR:	ConocoPhillips
# BASIN:		Browse	TOTAL D:	5287m	PARTNERS:	Karoon, PetroChina
# SPUD DATE:	19/03/2014	COMPLN DATE:	18/05/2014	LEASE:	WA-315-P
# TARGET:	Montara & Plover Fms, seismic closure	DRILLER:	Transocean
# DATA SOURCE:	WCR (Basic), logs			RIG:	Legend
# #
# HOLE AND CASING DATA:
# 	Hole 	Hole	Casing	Casing 	Weight	Grade	Joints	Cement	TOC
# 	Size	Depth	Size	Depth	lb/ft
# 	36”	568.3m	30”	568m	456 / 310	X-52	2 / 3	221 sx G at SG 1.5	
# 								1118 sx G at SG 1.9
# 								225 sx G at SG 1.9 	Grouted
# 	17.5”	2459m	13 3/8”	2453m	72	P-110	160	1734 sx G at SG 1.44
# 								486 sx G at SG 1.9
# 	12.25”	3820m	9 5/8”	3814.8m	53.5	P-110	267	469 sx HTB at SG 1.89
# 	8.5”	5287m	
# #
# TEMPERATURES:
# 	Depth Driller	Logger	Temp	Log Type	Time since circ	Circ Time
# 	5287m	5234m	165.6 deg C	QAIT-HNGS	25.9 hrs	2.5 hrs
# 		5060m	165.6 deg C	MDT	55 hrs
# #
# MUD PROPERTIES:
# Depth (L)	Fluid Type	SG	Vis.	pH	Fl cc	Rm	Rmf	Rmc
#  5287m	Novatec SBM	1.57	81	na	3.6	Assumed infinite
# #
#
# ************************************************************
#    This LAS file was created by Occam Technology Pty. Ltd.
# The edit data contained herein are copyright property of
# Occam Technology Pty. Ltd. The data are licensed to the
# purchasing company and subsidiaries worldwide, and are NOT
# for on-copying to third parties.  We place no restriction on
# the distribution of plots generated from the digital data.
#
#    We supply the data on a 'best effort' basis.  We cannot
# control either the original data acquisition or the application
# of the data, and therefore we cannot be held responsible for
# the consequences of any interpretations based on the data.  We
# urge purchasers to apply normal quality control procedures to
# the data before use for any quantitative interpretative
# procedures.
# ************************************************************
~A      DEPT         GRD          RS          RD        RHOB        TNPH        DTCO        DTSM        HDAR
# ...
   4837.0000    157.1880      1.8441      1.8256      2.6599     27.7857     85.7493    166.5040      8.5181
   4837.5000    154.3771      1.6599      1.6328      2.5971     28.1240     84.9775    159.6220      8.5403
   4838.0000    160.5003      1.7422      1.7529      2.6443     28.4997     84.5186    168.2980      8.5403
   4838.5000    152.1586      1.7191      1.6818      2.6761     28.4261     84.5186    168.2980      8.5181
   4839.0000    148.5601      1.6729      1.6436      2.6365     27.0509     84.5186    164.7325      8.5403
   4839.5000    145.4216      1.8736      1.8762      2.6261     24.8734     84.5472    164.7325      8.5181
   4840.0000    151.2651      1.9357      1.9082      2.6322     24.5422     84.5472    164.7325      8.5181
   4840.5000    140.8867      2.1034      2.0799      2.6090     23.8232     84.5466    164.7322      8.5403
   4841.0000    152.2901      1.9423      1.9136      2.6189     24.9166     84.5411    164.7471      8.5181
   4841.5000    146.2185      1.8612      1.8424      2.6193     25.7590     84.5325    164.7371      8.5403
   4842.0000    152.8101      1.8002      1.7737      2.6308     26.2507     84.5371    164.7568      8.5403
   4842.5000    149.7966      2.0087      1.9938      2.6328     26.4403     84.5452    164.7174      8.5403
   4843.0000    150.6976      2.1374      2.1128      2.6114     24.0617     84.5490    164.7358      8.5403
   4843.5000    158.7088      2.1173      2.0968      2.6027     24.0676     84.5410    164.7503      8.5181
   4844.0000    166.3411      1.8786      1.8651      2.6073     25.6222     84.9660    165.5193      8.5624
   4844.5000    157.7577      1.7828      1.7456      2.6175     27.5269     85.1144    162.8451      8.5403
   4845.0000    146.0491      2.1311      2.0986      2.6889     28.5560     84.2297    158.6994      8.5624
   4845.5000    155.3147      1.9252      1.8830      2.6188     28.2701     84.0966    165.4389      8.5403
   4846.0000    165.3649      1.9036      1.8793      2.6159     28.6340     84.8265    166.9175      8.5181
   4846.5000    150.6629      2.0640      2.0562      2.6380     26.4517     84.7772    167.8092      8.5181
   4847.0000    153.8690      1.8002      1.7845      2.5982     24.4688     84.7772    167.4509      8.5624
   4847.5000    155.5567      1.8136      1.7927      2.6191     23.1623     84.8311    167.6738      8.5181
   4848.0000    150.5319      1.8595      1.8282      2.6148     23.6260     84.8342    167.6724      8.5403
   4848.5000    148.8168      1.8723      1.8566      2.6229     23.4202     84.8304    167.6745      8.5403
   4849.0000    153.9003      1.8401      1.8133      2.6195     24.4739     84.8356    167.6719      8.5181
   4849.5000    153.9483      1.8942      1.8787      2.6597     25.6428     84.7550    167.6212      8.5403
   4850.0000    155.9568      1.8302      1.8103      2.6605     26.4989     84.4968    167.5704      8.5624
   4850.5000    161.7617      1.8636      1.8358      2.6452     25.9405     84.4997    167.5379      8.5403
   4851.0000    151.8414      1.8845      1.8580      2.6550     24.5179     84.5534    167.8298      8.5403
   4851.5000    147.4290      1.8575      1.8277      2.6398     25.7022     84.5639    167.8365      8.5403
   4852.0000    149.9405      1.8987      1.8642      2.6553     27.4491     84.5780    167.8040      8.5403
   4852.5000    158.1554      1.7897      1.7622      2.6455     28.1136     84.6709    167.9144      8.5181
   4853.0000    157.0830      1.8501      1.8274      2.6236     27.1633     85.0169    168.4420      8.5403
   4853.5000    158.7407      1.8955      1.8647      2.6348     26.5024     85.2895    167.3967      8.5181
   4854.0000    146.7332      1.9724      1.9284      2.6785     26.2208     84.4558    166.9036      8.5403
   4854.5000    154.0871      1.9462      1.9120      2.6443     25.4489     83.6721    159.7644      8.5403
   4855.0000    157.7722      1.9268      1.8937      2.6140     26.4768     83.1206    167.5478      8.5403
   4855.5000    159.1335      1.8825      1.8695      2.6260     26.0932     84.1979    166.9553      8.5403
   4856.0000    152.9176      1.9085      1.8734      2.6383     26.6292     84.1979    166.9553      8.5181
   4856.5000    138.0918      2.1609      2.1308      2.6459     25.1497     84.9893    166.2117      8.5624
   4857.0000    155.6449      1.9191      1.8928      2.6481     27.5231     84.9893    166.4260      8.5403
   4857.5000    152.5641      1.9372      1.9142      2.6516     28.0269     84.9893    166.2117      8.5624
   4858.0000    156.6754      1.9483      1.9252      2.6234     26.8149     84.9896    168.0518      8.5181
   4858.5000    162.0254      1.9200      1.8903      2.6127     26.0499     84.9938    168.0575      8.5403
   4859.0000    151.0787      1.9983      1.9739      2.6332     27.8071     84.9862    168.0556      8.5403
   4859.5000    160.0560      1.8768      1.8429      2.6282     28.9126     84.9970    168.0356      8.5181
   4860.0000    154.1041      1.8970      1.8754      2.6191     28.0693     85.0321    167.8076      8.5846
   4860.5000    160.1779      1.9215      1.9057      2.6238     30.2935     85.1836    168.0178      8.5403
   4861.0000    153.8268      1.8657      1.8355      2.6203     26.9258     85.0170    167.5306      8.5403
   4861.5000    152.8374      2.0316      2.0086      2.6269     27.5251     84.4247    166.9862      8.5403
   4862.0000    150.4565      1.9634      1.9261      2.6543     26.6578     84.0908    167.4754      8.5403
   4862.5000    151.1650      1.8909      1.8673      2.6618     27.9638     84.0729    167.2352      8.5181
   4863.0000    152.7297      1.9760      1.9538      2.6662     28.1418     84.0522    161.3940      8.5403
   4863.5000    156.6530      1.9465      1.9223      2.6179     27.2173     83.9823    159.5959      8.5181
   4864.0000    149.2166      2.0240      2.0045      2.6451     26.5697     83.4887    157.4919      8.5403
   4864.5000    154.7668      2.1361      2.1058      2.6433     28.0983     82.9003    155.2862      8.5403
   4865.0000    143.3482      2.1551      2.1319      2.6536     28.3588     82.3867    163.8151      8.5624
   4865.5000    154.1442      2.0289      1.9973      2.6733     28.2417     83.0606    166.6238      8.5403
   4866.0000    161.3498      2.0682      2.0599      2.6475     28.8210     83.7073    166.5813      8.5403
   4866.5000    157.9881      1.9361      1.9027      2.6292     27.9597     84.6282    167.9078      8.5181
   4867.0000    153.6168      1.9831      1.9649      2.6374     29.9613     84.9452    168.1728      8.5403
   4867.5000    145.7618      1.9302      1.9005      2.6821     29.3720     84.8050    168.1700      8.5624
   4868.0000    160.0742      1.9918      1.9530      2.6297     28.8794     84.3624    167.6128      8.5624
   4868.5000    146.4238      2.0345      2.0057      2.6706     27.9729     84.2494    167.9081      8.5181
   4869.0000    154.2438      1.9238      1.9018      2.6351     27.9118     85.0405    168.9374      8.5181
   4869.5000    157.9822      1.9681      1.9499      2.6447     27.3118     85.4988    167.5869      8.5181
   4870.0000    161.9558      1.9098      1.8912      2.6277     28.0446     84.6985    167.1194      8.5403
   4870.5000    154.0958      1.9291      1.9007      2.6842     27.8494     84.9243    167.7083      8.4960
   4871.0000    157.9621      1.9401      1.9071      2.6306     27.0860     84.9952    167.7083      8.4960
   4871.5000    160.9171      1.8506      1.8346      2.6300     27.7941     85.0041    167.5572      8.4960
   4872.0000    158.1961      1.8781      1.8606      2.6462     28.0354     85.0280    167.4832      8.4738
   4872.5000    157.9012      1.9448      1.9045      2.6468     28.7573     84.8301    168.2051      8.4738
   4873.0000    155.1646      2.0972      2.0718      2.6368     29.1820     84.5440    167.7346      8.4738
   4873.5000    153.5779      1.9713      1.9432      2.6287     29.0082     84.7492    168.1189      8.4738
