~Version Information
 VERS.           2.0     :   CWLS log ASCII Standard -VERSION 2.0
 WRAP.           NO      :   One line per depth step
~Well Information
#MNEM.UNIT      VALUE/NAME              DESCRIPTION
#--------     --------------            ---------------------
 STRT.M           579.5000              :START DEPTH
 STOP.M          5115.5000              :STOP DEPTH
 STEP.M             0.5000              :STEP
 NULL.             -999.25              :NULL VALUE
 COMP.    ConocoPhillips                :COMPANY
 WELL.    Poseidon 1                    :WELL
 FLD .    Exploration                   :FIELD
 LOC .                                  :LOCATION
 PROV.                                  :PROVINCE
 SRVC.    Schlumberger D&M              :SERVICE COMPANY
 CTRY.                                  :COUNTRY
 DATE.    28-Apr-09                     :LOG DATE
 UWI .                                  :UNIQUE WELL ID
 LATI.DEG -13/37/16.79                   : Latitude
 LONG.DEG 122/18/23.99                  : Longitude
 GDAT.                                  : Geodetic Datum
~PARAMETER INFORMATION
~CURVE INFORMATION
#MNEM    .UNIT     API CODE             Curve Description
 DEPT    .M                             :   Along hole depth
 ECGR    .gAPI                          :   EDTC Corrected Gamma-Ray
 ATRX    .ohm.m                         :   Array Induction Two Foot Rxo
 ATRT    .ohm.m                         :   Array Induction Two Foot Rt
 NPHI    .pu                            :   Thermal Neutron Porosity (Ratio Method)
 CAL1    .in                            :   Caliper 1
 HDAR    .in                            :   Hole Diameter from Area
 HROM    .g/cm3                         :   LDS High Resolution Corrected Bulk Density
 DTSM    .us/ft                         :   Delta-T Shear
 DTCO    .us/ft                         :   Delta-T Compressional
#
# Curve              Start        Stop     Minimum     Maximum
# ------------------------------------------------------------
#
# ECGR            904.0000   5108.0000      5.0321    198.6361
# ATRX            579.5000   5114.0000      0.1100   1950.0000
# ATRT            579.5000   5114.0000      0.1803   1950.0000
# NPHI           3858.0000   5104.5000      1.0400     50.1900
# CAL1           3845.0000   5003.0000      4.5412     12.7663
# HDAR           3884.0000   5110.0000      5.8056     12.6868
# HROM           3887.0000   5115.0000      1.4423      3.0358
# DTSM           4395.0000   4974.0000     83.2234    221.9217
# DTCO           4395.0000   4974.0000     51.4416    111.5382
# ******************************
# 
# ************************************************************
#
# #
# LOCN 	LAT:	13o 37' 16.79" S			WELL NAME:	Poseidon 1
# 	LONG:	122o 18' 23.99" E
# 	EASTING:	425055.467m E	NORTHING: 	8493875.264m N	ZONE:	51	GDA 94
# SHOT POINT:		SEISMIC LINE:		STATUS:	P & A
# SEISMIC SURVEY:		INLINE:	XLINE:
# ELEVN SF:	494.0m	DATUM KB:	26.4m	OPERATOR:	ConocoPhillips
# BASIN :		Browse	TOTAL D:	5112.1m	PARTNERS:	Karoon
# SPUD DATE:	26/01/2009	COMPLN DATE:	29/05/2009	LEASE:	WA-315-P
# TARGET:	Plover SS			DRILLER:	Transocean
# DATA SOURCE:	WCR, logs			RIG:	Sedco 703
# #
# HOLE AND CASING DATA:
# 	Hole 	Hole	Casing	Casing 	Weight	Grade	Joints	Cement	TOC
# 	Size	Depth	Size	Depth	lb/ft
# 	36”	581.8m	30”	578m	310	X-52	5	1105 sx G at SG 1.9	Seafloor
# 								185 sx G at SG 1.9 – top up
# 	17.5”	2296m	13 3/8”	2287.5m	72	P-110	143	688 sx G at SG 1.5
# 								500 sx G at SG 1.9
# 	12.25”	3898m	9 5/8”	3890.8m	53.5	P-110	274	202 sx G at SG 1.62	
# 								133 sx G at SG 1.98
# 	9.5”	3965m	7 5/8”	3957m	30.5	EX-80	14	
# 	8.5”	4588m	7”	4587.5m	32 / 29	P110/L80	47/20	213 sx G at SG 1.9
# 	6”	5112.1m	5”	5088.4m	18	P-110	72	116 sx G at SG 1.9
# #
# TEMPERATURES:
# 	Depth Driller	Logger	Temp	Log Type	Time since circ	Circ Time
# 	3965m	3960m	104 deg C	FMI	22.78 hrs	2.5 hrs
# 	5112.1m	5118m	160 deg C	CMR	22.83 hrs
# 			162 deg C	HNGS	36.17 hrs
# 		4990m	165 deg c	Sonic Scanner	47.47 hrs
# #
# MUD PROPERTIES:
# Depth (L)	Fluid Type	SG	Vis.	pH	Fl cc	Rm	Rmf	Rmc
# 3965m	KCl-Polymer	1.29				0.167 at 18.6 deg C	0.244 at 17.8 deg C	0.261 at 18 deg C
# 		KCl	6%	Barite 	7.5%
# 5112.1m	Novatec SBM	1.20			3.6	
# 				Barite	10.3%
# #
#
# DEVIATION SURVEY:		(Schlumberger)
#	Depth	Dev (deg)	Azimuth (deg)	Depth	Dev (deg)	Azimuth (deg)
#	0.0m	0.00	0.00	520.5m	0.00	0.00
#	527.6m	0.39	259.27	552.8m	1.09	19.41
#	607.9m	0.33	161.06	636.3m	0.28	157.46
#	666.2m	0.42	156.27	723.3m	0.49	158.80
#	752.4m	0.76	145.50	811.0m	0.69	144.79
#	868.3m	0.66	149.14	897.2m	0.66	152.38
#	926.2m	0.53	150.70	1013.9m	0.64	144.22
#	1100.8m	0.45	222.81	1130.8m	0.53	244.07
#	1187.1m	0.69	231.27	1215.1m	0.65	232.48
#	1243.9m	0.64	288.99	1272.6m	0.63	304.63
#	1300.8m	0.62	311.48	1329.9m	0.16	285.18
#	1359.0m	0.11	292.17	1386.3m	0.31	331.80
#	1416.5m	0.53	355.63	1447.1m	0.61	2.60
#	1474.7m	0.94	7.68	1505.2m	1.01	358.08
#	1534.9m	0.92	345.86	1563.8m	0.61	5.17
#	1592.2m	0.76	17.60	1622.0m	0.60	20.84
#	1650.2m	0.65	36.42	1763.9m	0.60	51.71
#	1821.4m	0.46	44.49	1850.5m	0.79	49.16
#	1908.9m	0.96	36.49	1939.6m	0.58	13.70
#	1959.8m	0.13	322.88	2044.1m	0.34	243.01
#	2073.4m	0.44	233.00	2101.7m	0.51	240.40
#	2131.7m	0.50	252.10	2189.0m	0.49	257.69
#	2246.1m	0.42	251.29	2269.4m	0.43	247.24
#	2313.9m	0.33	207.85	2341.6m	0.20	199.21
#	2369.9m	0.15	229.33	2398.5m	0.14	219.45
#	2427.2m	0.22	182.60	2456.2m	0.23	217.52
#	2486.6m	0.30	200.91	2516.1m	0.34	250.17
#	2599.5m	0.23	257.73	2656.6m	0.37	259.03
#	2685.9m	0.36	244.41	2714.4m	0.33	247.01
#	2743.5m	0.44	264.65	2772.9m	0.36	248.49
#	2802.7m	0.49	249.47	2829.7m	0.46	254.82
#	2887.1m	0.37	245.00	2916.6m	0.30	229.13
#	2946.6m	0.14	227.49	3004.8m	0.20	234.38
#	3062.1m	0.52	223.74	3090.7m	0.51	219.43
#	3120.9m	0.47	216.60	3150.2m	0.49	219.95
#	3178.9m	0.44	222.75	3206.5m	0.40	211.30
#	3235.7m	0.35	217.26	3265.7m	0.49	214.66
#	3322.4m	0.35	211.44	3350.4m	0.36	212.61
#	3379.8m	0.35	230.18	3409.2m	0.34	230.92
#	3494.2m	0.34	231.38	3557.7m	0.29	277.76
#	3668.7m	0.32	324.77	3698.3m	0.43	340.30
#	3729.8m	0.45	340.13	3756.5m	0.39	332.45
#	3815.7m	0.44	309.71	3873.0m	0.59	285.30
#	4047.5m	4.76	321.71	4065.7m	5.39	333.06
#	4082.1m	6.39	336.20	4098.9m	7.73	337.83
#	4115.7m	9.43	344.07	4147.0m	12.37	344.49
#	4160.9m	13.41	345.79	4170.7m	13.89	349.54
#	4182.8m	14.27	348.89	4198.0m	15.83	349.61
#	4230.3m	13.55	353.68	4255.8m	12.41	353.57
#	4287.3m	11.70	355.88	4312.9m	11.40	355.42
#	4344.1m	10.54	354.84	4370.2m	10.32	356.38
#	4403.0m	10.25	3.71	4428.6m	10.50	359.63
#	4443.5m	9.94	359.87	4458.4m	10.08	1.47
#	4486.5m	9.71	359.12	4514.6m	9.26	359.81
#	4545.3m	9.64	0.67	4572.5m	9.26	356.64
#	4602.8m	8.97	350.43	4631.2m	8.70	344.94
#	4660.8m	8.34	342.12	4688.5m	8.14	338.90
#	4718.7m	8.30	333.76	4776.7m	8.03	335.31
#	4804.1m	7.88	336.68	4832.6m	7.95	337.54
#	4862.8m	7.84	339.39	4891.2m	7.71	338.67
#	4920.0m	8.19	338.17	4948.2m	8.48	335.94
#	4980.2m	8.19	335.87	5009.6m	7.89	329.96
#	5036.0m	7.84	329.96	5066.0m	7.78	329.28
#	5093.9m	7.52	327.67	5112.0m	7.52	327.67
#
# VELOCITY SURVEY:	(Schlumberger)		OWT, vertically corrected, relative to SRD (MSL)
#	Depth	TVD SS	OWT(sec)	Depth	TVD SS	OWT(sec)
#	29.3m	2.9m	0.0316	44.4m	18.0m	0.1682
#	59.5m	33.1m	0.3158	784.1m	757.7m	0.6576
#	799.2m	772.8m	0.6603	814.3m	787.9m	0.6620
#	829.5m	803.0m	0.6645	1744.4m	1717.9m	0.8235
#	1759.5m	1733.0m	0.8269	1774.6m	1748.2m	0.8303
#	1789.7m	1763.3m	0.8333	1804.9m	1778.5m	0.8364
#	1820.0m	1793.6m	0.8400	1835.2m	1808.7m	0.8433
#	1850.3m	1823.8m	0.8473	1865.4m	1838.9m	0.8510
#	1880.5m	1854.0m	0.8546	1895.6m	1869.1m	0.8584
#	1910.7m	1884.2m	0.8627	1925.8m	1899.3m	0.8666
#	1940.9m	1914.5m	0.8705	1956.1m	1929.6m	0.8744
#	1971.2m	1944.7m	0.8782	1986.4m	1959.9m	0.8816
#	2001.5m	1975.0m	0.8850	2016.7m	1990.2m	0.8885
#	2031.8m	2005.3m	0.8918	2046.8m	2020.3m	0.8953
#	2062.0m	2035.5m	0.8987	2077.1m	2050.6m	0.9018
#	2092.2m	2065.7m	0.9050	2107.3m	2080.8m	0.9080
#	2122.4m	2095.9m	0.9111	2137.6m	2111.1m	0.9138
#	2152.7m	2126.2m	0.9168	2167.8m	2141.3m	0.9196
#	2182.9m	2156.4m	0.9224	2198.1m	2171.6m	0.9253
#	2213.2m	2186.7m	0.9283	2228.3m	2201.8m	0.9313
#	2243.4m	2216.9m	0.9342	2258.6m	2232.1m	0.9371
#	2273.7m	2247.2m	0.9400	2288.8m	2262.4m	0.9430
#	2304.0m	2277.5m	0.9460	2319.1m	2292.6m	0.9488
#	2334.2m	2307.7m	0.9517	2349.2m	2322.7m	0.9545
#	2364.4m	2337.9m	0.9576	2379.5m	2353.0m	0.9605
#	2394.6m	2368.1m	0.9632	2409.6m	2383.1m	0.9661
#	2424.8m	2398.3m	0.9692	2439.9m	2413.4m	0.9724
#	2455.0m	2428.5m	0.9757	2470.2m	2443.7m	0.9795
#	2485.3m	2458.8m	0.9830	2500.4m	2473.9m	0.9865
#	2515.6m	2489.1m	0.9900	2530.7m	2504.2m	0.9937
#	2545.9m	2519.4m	0.9973	2561.0m	2534.5m	1.0010
#	2576.1m	2549.6m	1.0046	2591.2m	2564.7m	1.0080
#	2606.3m	2579.8m	1.0113	2621.5m	2595.0m	1.0147
#	2636.6m	2610.1m	1.0183	2651.6m	2625.1m	1.0215
#	2666.8m	2640.3m	1.0249	2681.9m	2655.4m	1.0285
#	2697.0m	2670.5m	1.0325	2712.1m	2685.6m	1.0361
#	2727.3m	2700.8m	1.0399	2742.4m	2715.9m	1.0434
#	2757.5m	2731.0m	1.0472	2772.6m	2746.1m	1.0510
#	2787.7m	2761.2m	1.0547	2802.8m	2776.3m	1.0582
#	2817.9m	2791.4m	1.0617	2833.0m	2806.5m	1.0651
#	2848.2m	2821.7m	1.0685	2863.3m	2836.8m	1.0718
#	2878.4m	2851.9m	1.0750	2893.6m	2867.1m	1.0781
#	2908.8m	2882.3m	1.0814	2914.1m	2887.6m	1.0824
#	2923.9m	2897.4m	1.0844	2929.2m	2902.7m	1.0855
#	2939.0m	2912.5m	1.0875	2944.4m	2917.8m	1.0887
#	2954.0m	2927.5m	1.0907	2959.5m	2933.0m	1.0921
#	2969.1m	2942.6m	1.0941	2984.3m	2957.8m	1.0975
#	2999.4m	2972.9m	1.1008	3014.5m	2988.0m	1.1040
#	3029.6m	3003.1m	1.1072	3044.8m	3018.3m	1.1103
#	3059.9m	3033.4m	1.1134	3075.1m	3048.5m	1.1165
#	3090.2m	3063.7m	1.1194	3105.3m	3078.8m	1.1224
#	3120.4m	3093.9m	1.1253	3135.6m	3109.0m	1.1284
#	3150.7m	3124.2m	1.1318	3165.8m	3139.3m	1.1352
#	3180.9m	3154.4m	1.1385	3196.0m	3169.5m	1.1420
#	3211.2m	3184.6m	1.1452	3226.3m	3199.8m	1.1486
#	3241.4m	3214.9m	1.1518	3256.4m	3229.9m	1.1550
#	3271.6m	3245.0m	1.1583	3286.7m	3260.2m	1.1618
#	3301.8m	3275.3m	1.1653	3316.9m	3290.4m	1.1690
#	3332.1m	3305.6m	1.1726	3347.2m	3320.7m	1.1767
#	3362.3m	3335.8m	1.1808	3377.4m	3350.9m	1.1849
#	3392.6m	3366.0m	1.1889	3407.7m	3381.2m	1.1926
#	3831.1m	3804.5m	1.2951	3846.2m	3819.6m	1.2989
#	3861.2m	3834.7m	1.3025	3876.3m	3849.8m	1.3067
#	3891.5m	3864.9m	1.3108	3906.6m	3880.0m	1.3154
#	3921.7m	3895.1m	1.3196	3936.8m	3910.2m	1.3245
#	3952.0m	3925.3m	1.3297	3967.1m	3940.4m	1.3350
#	3982.3m	3955.6m	1.3402	3997.4m	3970.7m	1.3452
#	4012.5m	3985.8m	1.3502	4027.6m	4000.9m	1.3552
#	4042.6m	4015.9m	1.3603	4057.8m	4031.0m	1.3653
#	4072.9m	4046.0m	1.3703	4088.0m	4061.0m	1.3752
#	4103.2m	4076.1m	1.3799	4118.3m	4091.0m	1.3848
#	4133.4m	4105.8m	1.3895	4148.5m	4120.7m	1.3944
#	4163.7m	4135.4m	1.3993	4178.8m	4150.1m	1.4041
#	4193.9m	4164.7m	1.4089	4209.0m	4179.3m	1.4135
#	4224.1m	4193.9m	1.4181	4239.2m	4208.6m	1.4227
#	4254.3m	4223.3m	1.4271	4269.4m	4238.1m	1.4316
#	4284.7m	4253.0m	1.4359	4284.7m	4253.0m	1.4358
#	4299.8m	4267.8m	1.4402	4299.8m	4267.8m	1.4402
#	4314.9m	4282.6m	1.4448	4314.9m	4282.6m	1.4447
#	4330.0m	4297.5m	1.4493	4330.0m	4297.5m	1.4493	
#
# ************************************************************
#    This LAS file was created by Occam Technology Pty. Ltd.
# The edit data contained herein are copyright property of
# Occam Technology Pty. Ltd. The data are licensed to the
# purchasing company and subsidiaries worldwide, and are NOT
# for on-copying to third parties.  We place no restriction on
# the distribution of plots generated from the digital data.
#
#    We supply the data on a 'best effort' basis.  We cannot
# control either the original data acquisition or the application
# of the data, and therefore we cannot be held responsible for
# the consequences of any interpretations based on the data.  We
# urge purchasers to apply normal quality control procedures to
# the data before use for any quantitative interpretative
# procedures.
# ************************************************************
~A      DEPT        ECGR        ATRX        ATRT        NPHI        CAL1        HDAR        HROM        DTSM        DTCO
# ...
   4968.0000    105.2814      7.0411      9.0393     11.5000      5.8734      6.0867      2.4467    113.6246     72.8890
   4968.5000    137.4506      2.4344      2.5269     11.4900      5.8396      6.0905      2.4275    112.1450     69.6059
   4969.0000     97.6107      3.3508      3.9537     11.8800      5.8350      6.0851      2.3852    105.1212     67.2223
   4969.5000    131.0548     34.7748     40.5338     13.6800      5.8366      6.0869      2.3711    104.7203     66.9248
   4970.0000    104.0130    112.5997     11.7014     12.0000      5.8458      6.0869      2.4103    103.9286     67.0809
   4970.5000     33.4387      7.7748      2.1918      3.8000      5.8427      6.0883      2.4608    101.7503     69.0925
   4971.0000     21.4127      1.7444      1.6548      1.9700      5.8382      6.0905      2.3545    104.0567     65.4164
   4971.5000     30.6578      0.8246      2.2426      5.9000      5.8373      6.0850      2.7899    104.0128     69.5104
   4972.0000     33.3808      0.3973      1.5806      3.6000      5.8381      6.0883      2.5987    109.9335     72.6598
   4972.5000     26.2362      0.2871      1.8128      3.2800      5.8389      6.0923      2.5005    106.3846     70.3970
   4973.0000     24.0062      0.6886      3.6100      2.3800      5.8358      6.0905      2.4206    104.1512     68.4944
   4973.5000     29.7802      3.7580      4.1860      2.7100      5.8377      6.0900      2.4205    105.6322     72.3066
   4974.0000     34.8371     10.4070      6.9107      3.3300      5.8757      6.0905      2.3788    105.3103     70.5026
   4974.5000     47.6720     19.4949     24.1599      5.8800      5.8716      6.0917      2.4526   -999.2500   -999.2500
   4975.0000     27.8759      8.3868     18.4578      1.9700      5.8358      6.0887      2.3459   -999.2500   -999.2500
   4975.5000     25.3200      5.6103     34.2599      1.9500      5.8363      6.0887      2.3210   -999.2500   -999.2500
   4976.0000     28.2450      5.9215     15.7687      1.6700      5.8358      6.0941      2.2899   -999.2500   -999.2500
   4976.5000     74.2436     12.6343     92.6896      2.8100      5.8396      6.0867      2.2677   -999.2500   -999.2500
   4977.0000     99.0631     24.2452     24.6068      5.1200      5.8373      6.0923      2.3048   -999.2500   -999.2500
   4977.5000     89.7979     27.9040     20.3008      9.8100      5.8376      6.0850      2.3810   -999.2500   -999.2500
   4978.0000     89.3951     37.2720     25.3892      5.0800      5.8381      6.0869      2.3017   -999.2500   -999.2500
   4978.5000    115.4824     97.2413     67.5920      5.4800      5.8749      6.0867      2.2802   -999.2500   -999.2500
   4979.0000    169.5048    146.7727    177.4276     10.9400      5.8389      6.0833      2.3435   -999.2500   -999.2500
   4979.5000    111.7812     55.7166    205.3785      3.7400      5.8688      6.0923      2.3939   -999.2500   -999.2500
   4980.0000     43.4470     35.5782    178.9444      2.0500      5.8764      6.0867      2.2597   -999.2500   -999.2500
   4980.5000     42.9613     59.6157   1066.6442      2.7100      5.8657      6.1030      2.2829   -999.2500   -999.2500
   4981.0000     49.0030    121.1825    587.4792      7.9200      5.8499      6.1174      2.3371   -999.2500   -999.2500
   4981.5000     50.6853     38.7745     75.4921      4.5100      5.8503      6.1048      2.3516   -999.2500   -999.2500
   4982.0000     73.4299     14.9285     39.5726      5.5800      5.8373      6.1066      2.3800   -999.2500   -999.2500
   4982.5000    105.0334     15.1606     25.5649     11.1300      5.8366      6.1084      2.3231   -999.2500   -999.2500
   4983.0000    121.0430     36.0820     44.6076     10.1000      5.8437      6.1048      2.3779   -999.2500   -999.2500
   4983.5000     86.6135     12.3672     12.2251      7.2500      5.8389      6.1151      2.5721   -999.2500   -999.2500
   4984.0000    110.7215      7.0118      7.3189     10.5700      5.8419      6.1048      2.3590   -999.2500   -999.2500
   4984.5000    157.6182     36.3714     64.7085     11.9100      5.8358      6.1048      2.3934   -999.2500   -999.2500
   4985.0000    163.8885    429.5909    626.3346     10.3600      5.8358      6.1102      2.3869   -999.2500   -999.2500
   4985.5000     55.0711   1875.7317   1456.7128      4.0400      5.8363      6.1168      2.3153   -999.2500   -999.2500
   4986.0000     23.4094   1746.3275    970.1628      1.5700      5.8350      6.1246      2.3054   -999.2500   -999.2500
   4986.5000     46.2438   1757.5001    665.6415     10.0800      5.8366      6.1302      2.3402   -999.2500   -999.2500
   4987.0000     72.3055    982.7689    520.6242      9.4900      5.8419      6.1263      2.3460   -999.2500   -999.2500
   4987.5000     67.3619    243.7159    174.7332      2.4000      5.8373      6.1302      2.3319   -999.2500   -999.2500
   4988.0000     31.8744   1139.9655   1088.6952      1.5300      5.8389      6.1263      2.2846   -999.2500   -999.2500
   4988.5000     34.3263   1703.9211    676.9075      2.6600      5.8672      6.1251      2.2723   -999.2500   -999.2500
   4989.0000     28.6062   1950.0000    533.7214      4.2600      5.8741      6.1317      2.4214   -999.2500   -999.2500
   4989.5000     19.8916   1950.0000    635.1483      1.9600      5.8726      6.1263      2.3794   -999.2500   -999.2500
   4990.0000     21.3018   1950.0000    642.5458      1.0700      5.8726      6.1263      2.3132   -999.2500   -999.2500
   4990.5000     16.0302   1892.6740    409.4841      1.1000      5.8389      6.1299      2.3815   -999.2500   -999.2500
   4991.0000     15.5394   1069.0981    223.7205      1.0400      5.8381      6.1168      2.4623   -999.2500   -999.2500
   4991.5000     16.5311    436.6104    252.2537      2.0200      5.8340      6.1299      2.5226   -999.2500   -999.2500
   4992.0000     16.8350    152.6927     64.7007      1.5800      5.8373      6.1246      2.4898   -999.2500   -999.2500
   4992.5000     12.4391    122.9424    121.8253      1.2100      5.8350      6.1235      2.4446   -999.2500   -999.2500
   4993.0000     16.5658     88.9165     77.3475      1.4400      5.8373      6.1302      2.4964   -999.2500   -999.2500
   4993.5000     15.5846     52.5799     18.5583      1.2000      5.8346      6.1235      2.5107   -999.2500   -999.2500
   4994.0000     19.3603     11.7551      7.0801      2.0100      5.8080      6.1263      2.4458   -999.2500   -999.2500
   4994.5000     23.3580      3.3231      4.6054      4.5400      5.8067      6.1299      2.5157   -999.2500   -999.2500
   4995.0000     38.4651      2.1883      4.4455      7.0000      5.8040      6.1184      2.4479   -999.2500   -999.2500
   4995.5000     51.0168      5.0066      6.7775      5.5300      5.7997      6.1184      2.4292   -999.2500   -999.2500
   4996.0000     62.2680     39.3073     18.0137      7.5500      5.7972      6.1281      2.4897   -999.2500   -999.2500
   4996.5000     49.5905    126.8673     50.1707      3.3800      5.7987      6.1228      2.3596   -999.2500   -999.2500
   4997.0000     46.9872    561.2869    343.3221      3.5400      5.7989      6.1246      2.3221   -999.2500   -999.2500
   4997.5000     49.4223    569.8385    231.2528      4.9700      5.7965      6.1184      2.3773   -999.2500   -999.2500
   4998.0000     55.6064    140.9405     75.7441      2.9600      5.7990      6.1218      2.3889   -999.2500   -999.2500
   4998.5000     65.6425    176.7805    174.9722      6.3200      5.7990      6.1317      2.3525   -999.2500   -999.2500
   4999.0000     79.4635    282.7475    234.6384      6.7800      5.7990      6.1228      2.3665   -999.2500   -999.2500
   4999.5000     54.2349    623.3170    310.7329      3.1400      5.7990      6.1246      2.3588   -999.2500   -999.2500
   5000.0000     38.3640   1653.7739    558.1993      2.5100      5.7972      6.1299      2.2973   -999.2500   -999.2500
   5000.5000     38.4255   1950.0000    687.1310      1.6000      5.7990      6.1281      2.3285   -999.2500   -999.2500
   5001.0000     52.0346   1950.0000    856.2222      2.4400      5.7976      6.1268      2.2743   -999.2500   -999.2500
