~Version Information
 VERS.           2.0     :   CWLS log ASCII Standard -VERSION 2.0
 WRAP.           NO      :   One line per depth step
~Well Information
#MNEM.UNIT      VALUE/NAME              DESCRIPTION
#--------     --------------            ---------------------
 STRT.M           508.0000              :START DEPTH
 STOP.M          5279.5000              :STOP DEPTH
 STEP.M             0.5000              :STEP
 NULL.             -999.25              :NULL VALUE
 COMP.    ConocoPhillips                :COMPANY
 WELL.    Poseidon North 1              :WELL
 FLD .    Exploration                   :FIELD
 LOC .                                  :LOCATION
 PROV.                                  :PROVINCE
 SRVC.    Schlumberger                  :SERVICE COMPANY
 CTRY.                                  :COUNTRY
 DATE.    05/20/2014                    :LOG DATE
 UWI .                                  :UNIQUE WELL ID
 LATI.DEG -13/34/24.825                  : Latitude
 LONG.DEG 122/20/24.556                 : Longitude
 GDAT.                                  : Geodetic Datum
~PARAMETER INFORMATION
~CURVE INFORMATION
#MNEM    .UNIT     API CODE             Curve Description
 DEPT    .M                             :   Along hole depth
 GRD     .gAPI                          :   Gamma Ray
 RS      .ohm.m                         :   (RM)    (ARC[1])                (6in)                   Phase Shift Resistivity 22 inch Spacing at 2 MHz, Environmentally Corrected.
 RD      .ohm.m                         :   (RM)    (ARC[1])                (6in)                   Phase Shift Resistivity 34 inch Spacing at 2 MHz, Environmentally Corrected.
 RHOB    .g/cm3                         :   (RM)    (ADN[1])                (6in)                   Bulk Density
 TNPH    .pu                            :   (RM)    (ADN[1])                (6in)                   Thermal Neutron Porosity (Ratio Method) in Selected Lithology
 DTCO    .us/ft                         :   Delta-T Compressional
 DTSM    .us/ft                         :   Delta-T Shear
 HDAR    .in                            :   Hole Diameter from Area
#
# Curve              Start        Stop     Minimum     Maximum
# ------------------------------------------------------------
#
# GRD             508.0000   5279.5000      3.5346    204.6889
# RS              568.5000   5279.5000      0.1925    487.9586
# RD              568.5000   5279.5000      0.1945    316.2479
# RHOB           3782.0000   4931.5000      1.9495      3.5107
# TNPH           3780.5000   4931.5000      6.2988     68.6649
# DTCO           3677.0000   5250.0000     48.6167    124.5370
# DTSM           3804.5000   5250.0000     85.6802    273.5039
# HDAR           3808.0000   5273.5000      8.3409     17.3339
# ******************************
# #
# DEVIATION SURVEY:	(Schlumberger)		Definitive Survey
#	Depth	Dev (deg)	Azimuth (deg)	Depth	Dev (deg)	Azimuth (deg)
#	508.3m	0.00	0.00	535.0m	0.51	175.26
#	567.0m	0.46	159.23	632.3m	0.50	124.18
#	690.2m	0.36	105.64	718.4m	0.30	104.70
#	747.0m	0.22	100.37	833.2m	0.12	92.39
#	862.3m	0.14	89.88	948.6m	0.09	77.24
#	1034.5m	0.21	61.94	1120.7m	0.43	72.74
#	1178.5m	0.55	94.45	1234.9m	0.84	96.85
#	1264.2m	1.11	104.58	1293.6m	1.37	101.48
#	1322.8m	1.51	87.02	1353.0m	1.76	69.73
#	1412.0m	1.26	53.07	1440.7m	1.13	48.89
#	1469.3m	0.97	55.84	1497.6m	1.03	53.67
#	1526.2m	0.92	59.74	1554.4m	0.82	58.53
#	1583.8m	0.75	60.20	1641.9m	0.66	59.63
#	1670.7m	0.75	60.62	1698.0m	0.69	57.52
#	1725.9m	0.67	57.15	1754.8m	0.32	52.85
#	1783.6m	0.81	146.83	1812.6m	1.47	161.88
#	1841.3m	1.64	163.20	1870.0m	1.76	163.52
#	1899.8m	1.79	177.44	1927.8m	1.29	184.32
#	1957.9m	1.72	185.24	1986.4m	1.87	187.31
#	2016.7m	1.89	185.97	2045.2m	1.80	187.62
#	2073.8m	1.81	185.62	2102.3m	1.83	186.20
#	2130.6m	1.79	187.06	2159.6m	1.78	184.95
#	2189.6m	1.85	185.18	2218.1m	1.85	184.70
#	2246.2m	1.81	184.66	2274.6m	1.82	181.40
#	2303.7m	1.76	181.56	2331.2m	1.76	183.12
#	2360.1m	1.77	183.23	2389.2m	1.78	181.43
#	2429.8m	1.81	178.67	2453.0m	1.78	181.70
#	2490.3m	1.75	186.73	2519.1m	1.74	190.18
#	2577.7m	1.34	193.07	2606.3m	1.34	194.30
#	2634.8m	1.43	194.62	2663.0m	1.49	196.08
#	2691.9m	1.52	191.72	2720.5m	1.41	196.99
#	2749.1m	1.30	192.26	2778.8m	1.33	197.61
#	2807.5m	1.18	197.33	2836.7m	1.13	193.60
#	2865.4m	1.01	194.63	2894.6m	1.02	201.33
#	2923.5m	0.87	193.21	2952.2m	0.92	194.81
#	2979.9m	0.79	197.44	3007.9m	0.71	189.93
#	3039.2m	0.62	204.55	3068.6m	0.38	211.96
#	3098.5m	0.64	224.56	3126.6m	0.95	223.07
#	3154.6m	0.84	235.70	3185.2m	0.78	238.33
#	3212.8m	0.76	226.49	3242.0m	0.64	244.70
#	3272.3m	0.59	246.79	3300.2m	0.57	235.82
#	3327.8m	0.59	264.08	3357.0m	0.61	267.57
#	3388.0m	0.41	270.93	3443.1m	0.26	299.95
#	3474.8m	0.43	301.03	3500.7m	0.47	288.64
#	3531.2m	0.29	300.47	3558.2m	0.41	316.53
#	3588.3m	0.55	309.28	3617.9m	0.51	307.43
#	3648.0m	0.46	340.11	3676.0m	0.35	315.45
#	3703.6m	0.43	300.04	3730.9m	0.34	326.82
#	3751.3m	0.17	271.57	3780.6m	0.09	301.36
#	3814.8m	0.29	187.90	3828.0m	0.42	183.54
#	3858.7m	0.35	156.45	3888.1m	0.72	141.78
#	3916.0m	0.93	151.39	3944.8m	1.30	136.05
#	3973.2m	1.99	136.59	4001.6m	2.33	140.24
#	4028.8m	2.82	136.91	4057.0m	3.00	139.76
#	4117.2m	2.72	150.07	4147.1m	2.18	148.78
#	4176.6m	1.90	141.66	4205.2m	1.35	129.99
#	4234.2m	0.98	109.72	4261.7m	0.87	84.30
#	4291.0m	1.20	72.60	4320.5m	0.67	70.91
#	4348.8m	0.56	71.19	4376.7m	0.42	56.80
#	4404.4m	0.30	20.79	4433.2m	0.31	341.16
#	4462.6m	0.26	334.54	4521.8m	0.92	284.18
#	4552.1m	1.66	297.93	4580.0m	1.95	318.44
#	4606.9m	2.21	336.83	4636.2m	2.24	345.69
#	4664.8m	2.50	352.22	4693.7m	2.79	352.27
#	4723.0m	2.96	347.28	4753.0m	3.12	334.48
#	4782.4m	3.27	329.12	4811.3m	3.87	326.41
#	4838.8m	4.07	319.63	4866.5m	4.23	317.95
#	4895.6m	4.63	317.81	4927.1m	4.57	312.59
#	4955.7m	3.99	310.09	4983.3m	3.37	308.64
#	5009.6m	2.66	307.75	5040.2m	2.81	307.39
#	5069.7m	3.03	298.46	5100.5m	3.88	292.76
#	5126.7m	3.99	297.59	5157.5m	4.00	296.72
#	5186.1m	4.23	299.71	5213.0m	3.84	304.22
#	5242.0m	3.97	301.56	5265.7m	4.07	299.21
#	5287.0m	4.07	299.21
#
# VELOCITY SURVEY:	No checkshot survey run
# 
# ************************************************************
#
# #
# LOCN 	LAT:	13o 34' 24.825" S			WELL NAME:	Poseidon North 1	
# 	LONG:	122o 20' 24.556" E
# 	EASTING:	428611.91m E	NORTHING: 	8499338.27m N	ZONE:	51	GDA 94
# SEISMIC SURV:	Poseidon 3D	INLINE:  3600	XLINE: 2250	STATUS:	P & A
# ELEVN SF:	- 486.0m MSL 	DATUM RT:	22.0m	OPERATOR:	ConocoPhillips
# BASIN:		Browse	TOTAL D:	5287m	PARTNERS:	Karoon, PetroChina
# SPUD DATE:	19/03/2014	COMPLN DATE:	18/05/2014	LEASE:	WA-315-P
# TARGET:	Montara & Plover Fms, seismic closure	DRILLER:	Transocean
# DATA SOURCE:	WCR (Basic), logs			RIG:	Legend
# #
# HOLE AND CASING DATA:
# 	Hole 	Hole	Casing	Casing 	Weight	Grade	Joints	Cement	TOC
# 	Size	Depth	Size	Depth	lb/ft
# 	36”	568.3m	30”	568m	456 / 310	X-52	2 / 3	221 sx G at SG 1.5	
# 								1118 sx G at SG 1.9
# 								225 sx G at SG 1.9 	Grouted
# 	17.5”	2459m	13 3/8”	2453m	72	P-110	160	1734 sx G at SG 1.44
# 								486 sx G at SG 1.9
# 	12.25”	3820m	9 5/8”	3814.8m	53.5	P-110	267	469 sx HTB at SG 1.89
# 	8.5”	5287m	
# #
# TEMPERATURES:
# 	Depth Driller	Logger	Temp	Log Type	Time since circ	Circ Time
# 	5287m	5234m	165.6 deg C	QAIT-HNGS	25.9 hrs	2.5 hrs
# 		5060m	165.6 deg C	MDT	55 hrs
# #
# MUD PROPERTIES:
# Depth (L)	Fluid Type	SG	Vis.	pH	Fl cc	Rm	Rmf	Rmc
#  5287m	Novatec SBM	1.57	81	na	3.6	Assumed infinite
# #
#
# ************************************************************
#    This LAS file was created by Occam Technology Pty. Ltd.
# The edit data contained herein are copyright property of
# Occam Technology Pty. Ltd. The data are licensed to the
# purchasing company and subsidiaries worldwide, and are NOT
# for on-copying to third parties.  We place no restriction on
# the distribution of plots generated from the digital data.
#
#    We supply the data on a 'best effort' basis.  We cannot
# control either the original data acquisition or the application
# of the data, and therefore we cannot be held responsible for
# the consequences of any interpretations based on the data.  We
# urge purchasers to apply normal quality control procedures to
# the data before use for any quantitative interpretative
# procedures.
# ************************************************************
~A      DEPT         GRD          RS          RD        RHOB        TNPH        DTCO        DTSM        HDAR
# ...
   3690.0000     90.6052      2.0858      2.0124   -999.2500   -999.2500     87.0135   -999.2500   -999.2500
   3690.5000     95.7656      2.0196      1.9616   -999.2500   -999.2500     87.0135   -999.2500   -999.2500
   3691.0000    106.2632      1.6220      1.5772   -999.2500   -999.2500     87.0135   -999.2500   -999.2500
   3691.5000    113.2500      1.4865      1.4480   -999.2500   -999.2500     87.0135   -999.2500   -999.2500
   3692.0000    108.4715      1.6017      1.5690   -999.2500   -999.2500     87.0135   -999.2500   -999.2500
   3692.5000     97.7636      1.6709      1.6187   -999.2500   -999.2500     87.0135   -999.2500   -999.2500
   3693.0000     99.9023      1.8850      1.8420   -999.2500   -999.2500     87.0135   -999.2500   -999.2500
   3693.5000    108.5083      1.6263      1.5728   -999.2500   -999.2500     87.1833   -999.2500   -999.2500
   3694.0000    104.5925      1.5214      1.4818   -999.2500   -999.2500     88.3343   -999.2500   -999.2500
   3694.5000    107.8797      1.5603      1.5208   -999.2500   -999.2500     89.5354   -999.2500   -999.2500
   3695.0000    104.3529      1.6191      1.5751   -999.2500   -999.2500     90.8398   -999.2500   -999.2500
   3695.5000    103.5329      1.6643      1.6134   -999.2500   -999.2500     89.3308   -999.2500   -999.2500
   3696.0000    100.1691      1.5741      1.5491   -999.2500   -999.2500     87.7698   -999.2500   -999.2500
   3696.5000    107.1810      1.4506      1.4072   -999.2500   -999.2500     85.4329   -999.2500   -999.2500
   3697.0000    114.5696      1.4283      1.3980   -999.2500   -999.2500     85.1740   -999.2500   -999.2500
   3697.5000    111.9382      1.4220      1.3776   -999.2500   -999.2500     85.3553   -999.2500   -999.2500
   3698.0000    103.5127      1.6995      1.6625   -999.2500   -999.2500     85.3490   -999.2500   -999.2500
   3698.5000     97.5935      1.6523      1.5981   -999.2500   -999.2500     85.4239   -999.2500   -999.2500
   3699.0000     96.0130      1.7987      1.7610   -999.2500   -999.2500     85.6666   -999.2500   -999.2500
   3699.5000     86.2852      1.7467      1.7016   -999.2500   -999.2500     84.9388   -999.2500   -999.2500
   3700.0000     85.4521      1.6561      1.6163   -999.2500   -999.2500     84.7922   -999.2500   -999.2500
   3700.5000     91.0710      1.7264      1.6880   -999.2500   -999.2500     85.7849   -999.2500   -999.2500
   3701.0000    108.9213      1.6787      1.6346   -999.2500   -999.2500     81.9100   -999.2500   -999.2500
   3701.5000     95.6974      1.6027      1.5793   -999.2500   -999.2500     77.5490   -999.2500   -999.2500
   3702.0000     83.4891      1.6568      1.6112   -999.2500   -999.2500     73.5210   -999.2500   -999.2500
   3702.5000     86.4350      1.7047      1.6723   -999.2500   -999.2500     74.0373   -999.2500   -999.2500
   3703.0000     90.3382      1.4224      1.4033   -999.2500   -999.2500     70.4077   -999.2500   -999.2500
   3703.5000     77.2015      2.0790      2.0045   -999.2500   -999.2500     68.6899   -999.2500   -999.2500
   3704.0000     63.2635      3.0422      2.8942   -999.2500   -999.2500     70.0330   -999.2500   -999.2500
   3704.5000     66.3729      2.6120      2.5271   -999.2500   -999.2500     72.0895   -999.2500   -999.2500
   3705.0000     64.8724      3.0811      2.9778   -999.2500   -999.2500     73.8583   -999.2500   -999.2500
   3705.5000     45.2699      4.6845      4.4674   -999.2500   -999.2500     76.5897   -999.2500   -999.2500
   3706.0000     43.9347      4.0025      3.9274   -999.2500   -999.2500     80.7477   -999.2500   -999.2500
   3706.5000     54.8390      2.6546      2.5918   -999.2500   -999.2500     83.6054   -999.2500   -999.2500
   3707.0000     42.1071      3.3894      3.3900   -999.2500   -999.2500     83.7943   -999.2500   -999.2500
   3707.5000     63.9818      2.0844      1.9725   -999.2500   -999.2500     82.2515   -999.2500   -999.2500
   3708.0000     60.9115      2.3208      2.3156   -999.2500   -999.2500     80.1392   -999.2500   -999.2500
   3708.5000     68.2737      1.4642      1.4183   -999.2500   -999.2500     78.0232   -999.2500   -999.2500
   3709.0000     63.5204      1.5647      1.5586   -999.2500   -999.2500     75.7433   -999.2500   -999.2500
   3709.5000     65.1741      1.5934      1.5485   -999.2500   -999.2500     76.6920   -999.2500   -999.2500
   3710.0000     57.8059      1.7923      1.7682   -999.2500   -999.2500     79.8728   -999.2500   -999.2500
   3710.5000     57.6383      1.8286      1.7972   -999.2500   -999.2500     81.2002   -999.2500   -999.2500
   3711.0000     54.3219      3.0381      2.9131   -999.2500   -999.2500     81.4855   -999.2500   -999.2500
   3711.5000     45.1400      3.7010      3.5292   -999.2500   -999.2500     83.8185   -999.2500   -999.2500
   3712.0000     64.3081      2.0634      1.9976   -999.2500   -999.2500     83.9141   -999.2500   -999.2500
   3712.5000     58.7399      1.8758      1.8520   -999.2500   -999.2500     83.5116   -999.2500   -999.2500
   3713.0000     62.3517      1.7944      1.7367   -999.2500   -999.2500     83.4034   -999.2500   -999.2500
   3713.5000     66.8601      1.5810      1.5340   -999.2500   -999.2500     83.0446   -999.2500   -999.2500
   3714.0000     77.3978      1.4755      1.4287   -999.2500   -999.2500     82.0995   -999.2500   -999.2500
   3714.5000     65.0121      1.5893      1.5377   -999.2500   -999.2500     79.4504   -999.2500   -999.2500
   3715.0000     62.7206      1.6083      1.5812   -999.2500   -999.2500     78.4580   -999.2500   -999.2500
   3715.5000     67.2864      1.6050      1.5769   -999.2500   -999.2500     77.0701   -999.2500   -999.2500
   3716.0000     70.0668      1.7168      1.6636   -999.2500   -999.2500     75.5300   -999.2500   -999.2500
   3716.5000     61.8008      1.9037      1.8649   -999.2500   -999.2500     73.8530   -999.2500   -999.2500
   3717.0000     49.7095      2.0241      1.9895   -999.2500   -999.2500     73.4818   -999.2500   -999.2500
   3717.5000     49.3988      2.2225      2.1094   -999.2500   -999.2500     76.3708   -999.2500   -999.2500
   3718.0000     48.4858      2.6029      2.5845   -999.2500   -999.2500     80.5449   -999.2500   -999.2500
   3718.5000     53.2204      2.4215      2.3821   -999.2500   -999.2500     81.9003   -999.2500   -999.2500
   3719.0000     43.1926      2.8214      2.6560   -999.2500   -999.2500     80.8079   -999.2500   -999.2500
   3719.5000     41.2480      3.1001      3.0320   -999.2500   -999.2500     80.4948   -999.2500   -999.2500
   3720.0000     64.4173      1.9842      1.9353   -999.2500   -999.2500     80.6428   -999.2500   -999.2500
   3720.5000     63.4257      1.9911      1.9411   -999.2500   -999.2500     79.3075   -999.2500   -999.2500
   3721.0000     55.1252      2.0397      1.9862   -999.2500   -999.2500     79.2702   -999.2500   -999.2500
   3721.5000     57.5657      1.7779      1.7248   -999.2500   -999.2500     80.7088   -999.2500   -999.2500
   3722.0000     53.1578      1.6566      1.6134   -999.2500   -999.2500     84.3493   -999.2500   -999.2500
   3722.5000     52.6796      1.6480      1.5885   -999.2500   -999.2500     83.4785   -999.2500   -999.2500
   3723.0000     45.5328      2.0082      1.9583   -999.2500   -999.2500     79.9398   -999.2500   -999.2500
   3723.5000     50.6854      1.6521      1.5879   -999.2500   -999.2500     77.1904   -999.2500   -999.2500
   3724.0000     52.3547      1.4882      1.4547   -999.2500   -999.2500     75.1663   -999.2500   -999.2500
   3724.5000     57.6564      1.3062      1.2700   -999.2500   -999.2500     74.5348   -999.2500   -999.2500
   3725.0000     51.1261      1.6023      1.5516   -999.2500   -999.2500     73.3505   -999.2500   -999.2500
   3725.5000     42.6958      2.0591      1.9977   -999.2500   -999.2500     74.0023   -999.2500   -999.2500
   3726.0000     40.2677      2.3944      2.3206   -999.2500   -999.2500     75.6738   -999.2500   -999.2500
   3726.5000     37.4199      2.2771      2.2121   -999.2500   -999.2500     75.8728   -999.2500   -999.2500
