~Version Information
 VERS.           2.0     :   CWLS log ASCII Standard -VERSION 2.0
 WRAP.           NO      :   One line per depth step
~Well Information
#MNEM.UNIT      VALUE/NAME              DESCRIPTION
#--------     --------------            ---------------------
 STRT.M           508.0000              :START DEPTH
 STOP.M          5279.5000              :STOP DEPTH
 STEP.M             0.5000              :STEP
 NULL.             -999.25              :NULL VALUE
 COMP.    ConocoPhillips                :COMPANY
 WELL.    Poseidon North 1              :WELL
 FLD .    Exploration                   :FIELD
 LOC .                                  :LOCATION
 PROV.                                  :PROVINCE
 SRVC.    Schlumberger                  :SERVICE COMPANY
 CTRY.                                  :COUNTRY
 DATE.    05/20/2014                    :LOG DATE
 UWI .                                  :UNIQUE WELL ID
 LATI.DEG -13/34/24.825                  : Latitude
 LONG.DEG 122/20/24.556                 : Longitude
 GDAT.                                  : Geodetic Datum
~PARAMETER INFORMATION
~CURVE INFORMATION
#MNEM    .UNIT     API CODE             Curve Description
 DEPT    .M                             :   Along hole depth
 GRD     .gAPI                          :   Gamma Ray
 RS      .ohm.m                         :   (RM)    (ARC[1])                (6in)                   Phase Shift Resistivity 22 inch Spacing at 2 MHz, Environmentally Corrected.
 RD      .ohm.m                         :   (RM)    (ARC[1])                (6in)                   Phase Shift Resistivity 34 inch Spacing at 2 MHz, Environmentally Corrected.
 RHOB    .g/cm3                         :   (RM)    (ADN[1])                (6in)                   Bulk Density
 TNPH    .pu                            :   (RM)    (ADN[1])                (6in)                   Thermal Neutron Porosity (Ratio Method) in Selected Lithology
 DTCO    .us/ft                         :   Delta-T Compressional
 DTSM    .us/ft                         :   Delta-T Shear
 HDAR    .in                            :   Hole Diameter from Area
#
# Curve              Start        Stop     Minimum     Maximum
# ------------------------------------------------------------
#
# GRD             508.0000   5279.5000      3.5346    204.6889
# RS              568.5000   5279.5000      0.1925    487.9586
# RD              568.5000   5279.5000      0.1945    316.2479
# RHOB           3782.0000   4931.5000      1.9495      3.5107
# TNPH           3780.5000   4931.5000      6.2988     68.6649
# DTCO           3677.0000   5250.0000     48.6167    124.5370
# DTSM           3804.5000   5250.0000     85.6802    273.5039
# HDAR           3808.0000   5273.5000      8.3409     17.3339
# ******************************
# #
# DEVIATION SURVEY:	(Schlumberger)		Definitive Survey
#	Depth	Dev (deg)	Azimuth (deg)	Depth	Dev (deg)	Azimuth (deg)
#	508.3m	0.00	0.00	535.0m	0.51	175.26
#	567.0m	0.46	159.23	632.3m	0.50	124.18
#	690.2m	0.36	105.64	718.4m	0.30	104.70
#	747.0m	0.22	100.37	833.2m	0.12	92.39
#	862.3m	0.14	89.88	948.6m	0.09	77.24
#	1034.5m	0.21	61.94	1120.7m	0.43	72.74
#	1178.5m	0.55	94.45	1234.9m	0.84	96.85
#	1264.2m	1.11	104.58	1293.6m	1.37	101.48
#	1322.8m	1.51	87.02	1353.0m	1.76	69.73
#	1412.0m	1.26	53.07	1440.7m	1.13	48.89
#	1469.3m	0.97	55.84	1497.6m	1.03	53.67
#	1526.2m	0.92	59.74	1554.4m	0.82	58.53
#	1583.8m	0.75	60.20	1641.9m	0.66	59.63
#	1670.7m	0.75	60.62	1698.0m	0.69	57.52
#	1725.9m	0.67	57.15	1754.8m	0.32	52.85
#	1783.6m	0.81	146.83	1812.6m	1.47	161.88
#	1841.3m	1.64	163.20	1870.0m	1.76	163.52
#	1899.8m	1.79	177.44	1927.8m	1.29	184.32
#	1957.9m	1.72	185.24	1986.4m	1.87	187.31
#	2016.7m	1.89	185.97	2045.2m	1.80	187.62
#	2073.8m	1.81	185.62	2102.3m	1.83	186.20
#	2130.6m	1.79	187.06	2159.6m	1.78	184.95
#	2189.6m	1.85	185.18	2218.1m	1.85	184.70
#	2246.2m	1.81	184.66	2274.6m	1.82	181.40
#	2303.7m	1.76	181.56	2331.2m	1.76	183.12
#	2360.1m	1.77	183.23	2389.2m	1.78	181.43
#	2429.8m	1.81	178.67	2453.0m	1.78	181.70
#	2490.3m	1.75	186.73	2519.1m	1.74	190.18
#	2577.7m	1.34	193.07	2606.3m	1.34	194.30
#	2634.8m	1.43	194.62	2663.0m	1.49	196.08
#	2691.9m	1.52	191.72	2720.5m	1.41	196.99
#	2749.1m	1.30	192.26	2778.8m	1.33	197.61
#	2807.5m	1.18	197.33	2836.7m	1.13	193.60
#	2865.4m	1.01	194.63	2894.6m	1.02	201.33
#	2923.5m	0.87	193.21	2952.2m	0.92	194.81
#	2979.9m	0.79	197.44	3007.9m	0.71	189.93
#	3039.2m	0.62	204.55	3068.6m	0.38	211.96
#	3098.5m	0.64	224.56	3126.6m	0.95	223.07
#	3154.6m	0.84	235.70	3185.2m	0.78	238.33
#	3212.8m	0.76	226.49	3242.0m	0.64	244.70
#	3272.3m	0.59	246.79	3300.2m	0.57	235.82
#	3327.8m	0.59	264.08	3357.0m	0.61	267.57
#	3388.0m	0.41	270.93	3443.1m	0.26	299.95
#	3474.8m	0.43	301.03	3500.7m	0.47	288.64
#	3531.2m	0.29	300.47	3558.2m	0.41	316.53
#	3588.3m	0.55	309.28	3617.9m	0.51	307.43
#	3648.0m	0.46	340.11	3676.0m	0.35	315.45
#	3703.6m	0.43	300.04	3730.9m	0.34	326.82
#	3751.3m	0.17	271.57	3780.6m	0.09	301.36
#	3814.8m	0.29	187.90	3828.0m	0.42	183.54
#	3858.7m	0.35	156.45	3888.1m	0.72	141.78
#	3916.0m	0.93	151.39	3944.8m	1.30	136.05
#	3973.2m	1.99	136.59	4001.6m	2.33	140.24
#	4028.8m	2.82	136.91	4057.0m	3.00	139.76
#	4117.2m	2.72	150.07	4147.1m	2.18	148.78
#	4176.6m	1.90	141.66	4205.2m	1.35	129.99
#	4234.2m	0.98	109.72	4261.7m	0.87	84.30
#	4291.0m	1.20	72.60	4320.5m	0.67	70.91
#	4348.8m	0.56	71.19	4376.7m	0.42	56.80
#	4404.4m	0.30	20.79	4433.2m	0.31	341.16
#	4462.6m	0.26	334.54	4521.8m	0.92	284.18
#	4552.1m	1.66	297.93	4580.0m	1.95	318.44
#	4606.9m	2.21	336.83	4636.2m	2.24	345.69
#	4664.8m	2.50	352.22	4693.7m	2.79	352.27
#	4723.0m	2.96	347.28	4753.0m	3.12	334.48
#	4782.4m	3.27	329.12	4811.3m	3.87	326.41
#	4838.8m	4.07	319.63	4866.5m	4.23	317.95
#	4895.6m	4.63	317.81	4927.1m	4.57	312.59
#	4955.7m	3.99	310.09	4983.3m	3.37	308.64
#	5009.6m	2.66	307.75	5040.2m	2.81	307.39
#	5069.7m	3.03	298.46	5100.5m	3.88	292.76
#	5126.7m	3.99	297.59	5157.5m	4.00	296.72
#	5186.1m	4.23	299.71	5213.0m	3.84	304.22
#	5242.0m	3.97	301.56	5265.7m	4.07	299.21
#	5287.0m	4.07	299.21
#
# VELOCITY SURVEY:	No checkshot survey run
# 
# ************************************************************
#
# #
# LOCN 	LAT:	13o 34' 24.825" S			WELL NAME:	Poseidon North 1	
# 	LONG:	122o 20' 24.556" E
# 	EASTING:	428611.91m E	NORTHING: 	8499338.27m N	ZONE:	51	GDA 94
# SEISMIC SURV:	Poseidon 3D	INLINE:  3600	XLINE: 2250	STATUS:	P & A
# ELEVN SF:	- 486.0m MSL 	DATUM RT:	22.0m	OPERATOR:	ConocoPhillips
# BASIN:		Browse	TOTAL D:	5287m	PARTNERS:	Karoon, PetroChina
# SPUD DATE:	19/03/2014	COMPLN DATE:	18/05/2014	LEASE:	WA-315-P
# TARGET:	Montara & Plover Fms, seismic closure	DRILLER:	Transocean
# DATA SOURCE:	WCR (Basic), logs			RIG:	Legend
# #
# HOLE AND CASING DATA:
# 	Hole 	Hole	Casing	Casing 	Weight	Grade	Joints	Cement	TOC
# 	Size	Depth	Size	Depth	lb/ft
# 	36”	568.3m	30”	568m	456 / 310	X-52	2 / 3	221 sx G at SG 1.5	
# 								1118 sx G at SG 1.9
# 								225 sx G at SG 1.9 	Grouted
# 	17.5”	2459m	13 3/8”	2453m	72	P-110	160	1734 sx G at SG 1.44
# 								486 sx G at SG 1.9
# 	12.25”	3820m	9 5/8”	3814.8m	53.5	P-110	267	469 sx HTB at SG 1.89
# 	8.5”	5287m	
# #
# TEMPERATURES:
# 	Depth Driller	Logger	Temp	Log Type	Time since circ	Circ Time
# 	5287m	5234m	165.6 deg C	QAIT-HNGS	25.9 hrs	2.5 hrs
# 		5060m	165.6 deg C	MDT	55 hrs
# #
# MUD PROPERTIES:
# Depth (L)	Fluid Type	SG	Vis.	pH	Fl cc	Rm	Rmf	Rmc
#  5287m	Novatec SBM	1.57	81	na	3.6	Assumed infinite
# #
#
# ************************************************************
#    This LAS file was created by Occam Technology Pty. Ltd.
# The edit data contained herein are copyright property of
# Occam Technology Pty. Ltd. The data are licensed to the
# purchasing company and subsidiaries worldwide, and are NOT
# for on-copying to third parties.  We place no restriction on
# the distribution of plots generated from the digital data.
#
#    We supply the data on a 'best effort' basis.  We cannot
# control either the original data acquisition or the application
# of the data, and therefore we cannot be held responsible for
# the consequences of any interpretations based on the data.  We
# urge purchasers to apply normal quality control procedures to
# the data before use for any quantitative interpretative
# procedures.
# ************************************************************
~A      DEPT         GRD          RS          RD        RHOB        TNPH        DTCO        DTSM        HDAR
# ...
   3912.0000     88.5461      0.8002      0.7913      2.5156     26.7107    101.3696    221.6737      8.5624
   3912.5000     84.9585      0.8027      0.7965      2.5362     24.8866    102.9502    225.7005      8.5846
   3913.0000     91.1960      0.7516      0.7527      2.5065     26.3668    103.0503    224.9107      8.6067
   3913.5000     96.6161      0.7312      0.7251      2.4614     27.2624    101.9420    222.3438      8.6288
   3914.0000     87.2959      0.7884      0.7817      2.5173     28.0518    101.0632    218.9456      8.6288
   3914.5000     84.6844      0.8354      0.8297      2.5069     25.9243    101.0750    218.4457      8.6510
   3915.0000     89.7169      0.8127      0.8066      2.5010     28.3282    101.6166    220.2711      8.6510
   3915.5000     94.3442      0.7682      0.7618      2.4884     26.3719    102.0272    221.6633      8.6510
   3916.0000     88.3556      0.7657      0.7628      2.4991     25.7094    102.2284    222.3767      8.6510
   3916.5000     85.5624      0.7986      0.7992      2.4920     24.6726    102.1371    224.3310      8.6510
   3917.0000     87.3237      0.7620      0.7569      2.4867     26.8902    102.1371    224.2442      8.6510
   3917.5000     98.3568      0.7655      0.7594      2.4574     27.2625    102.0927    224.2463      8.6510
   3918.0000    100.7395      0.7734      0.7666      2.4939     25.7306    102.0810    224.2779      8.6510
   3918.5000     84.9440      0.7935      0.7922      2.5032     25.6786    102.7186    226.5963      8.6288
   3919.0000     79.6055      0.8249      0.8194      2.4876     26.1168    103.4200    229.9423      8.6510
   3919.5000     90.1623      0.7073      0.7036      2.4653     28.5797    103.7842    230.7812      8.6510
   3920.0000     93.0328      0.7087      0.7043      2.4686     27.0775    102.9224    228.1118      8.6731
   3920.5000     86.1227      0.7705      0.7633      2.4819     28.6948     99.9818    220.1152      8.6510
   3921.0000     91.8579      0.8303      0.8259      2.5062     26.9818    100.2014    218.9951      8.6510
   3921.5000     87.3786      0.9440      0.9598      2.5037     25.7544    100.9528    219.8356      8.6510
   3922.0000     93.0911      0.7825      0.7694      2.5686     26.8408    102.1353    222.6900      8.6510
   3922.5000     94.7587      0.7934      0.7953      2.4898     26.7880    102.7997    225.6292      8.6510
   3923.0000     97.2050      0.7892      0.7860      2.5086     28.6317    103.2588    227.8609      8.6731
   3923.5000     89.9324      0.7394      0.7346      2.4891     28.6206    103.4540    227.4769      8.6731
   3924.0000     88.3329      0.7791      0.7815      2.5171     31.1376    106.0256    240.0007      8.7396
   3924.5000     98.5932      0.7994      0.7958      2.5122     29.2519    106.0256    236.8454      8.7839
   3925.0000     88.3511      0.9346      0.9316      2.5127     29.0735    105.6547    236.8454      8.7839
   3925.5000     99.8776      0.7955      0.7970      2.5360     30.1986    105.6547    237.1595      8.7396
   3926.0000    107.7849      0.7470      0.7518      2.4491     32.8551    105.6676    237.0076      8.7617
   3926.5000    108.5624      0.6984      0.6986      2.4671     31.5207    105.6494    237.1601      8.6510
   3927.0000    118.3326      0.7258      0.7218      2.4682     34.7444    105.6801    237.1706      8.6731
   3927.5000    112.3186      0.7291      0.7243      2.4555     33.2320    105.6557    237.1547      8.6510
   3928.0000    107.1094      0.7282      0.7227      2.4774     30.3314    105.6516    237.1883      8.6731
   3928.5000    103.1106      0.7318      0.7273      2.4704     32.8542    105.7624    237.5418      8.6731
   3929.0000    101.8797      0.7287      0.7244      2.4768     34.6187    106.2197    239.5038      8.6731
   3929.5000    101.8185      0.7199      0.7139      2.4534     33.9509    106.6660    240.3778      8.6510
   3930.0000    107.5514      0.6917      0.6864      2.4864     30.3851    106.5961    240.5047      8.6510
   3930.5000    102.2220      0.7024      0.6961      2.4617     31.7606    105.9939    239.3287      8.6731
   3931.0000     99.2162      0.7133      0.7095      2.4882     34.0594    105.9340    239.3493      8.6731
   3931.5000    102.1654      0.7184      0.7132      2.4692     30.9036    105.8504    239.8161      8.6731
   3932.0000    100.6760      0.7139      0.7086      2.4668     31.7567    106.3645    242.9821      8.6953
   3932.5000     98.2006      0.7057      0.6994      2.4752     31.8833    105.7911    240.0038      8.7396
   3933.0000     98.0918      0.7136      0.7078      2.5100     29.4778    108.1687    235.9363      8.8061
   3933.5000     98.3094      0.7108      0.7055      2.4705     33.1709    108.4563    237.2560      8.8061
   3934.0000     96.4257      0.6931      0.6883      2.4866     33.5913    105.1141    258.1359      8.8061
   3934.5000     99.8872      0.6943      0.6881      2.4829     31.5642    105.1474    259.6106      8.8061
   3935.0000    101.5193      0.6960      0.6890      2.4806     33.5656    109.1689    242.6799      8.8061
   3935.5000    108.5715      0.6933      0.6731      2.4645     34.5709    109.2025    205.8645      8.7617
   3936.0000     56.1321      1.7645      1.6388      3.0270     24.0893    111.3862    214.0653      8.7617
   3936.5000     83.3277      0.6943      0.6361      2.5760     24.3391    107.2915    231.3016      8.8061
   3937.0000     99.3023      0.6776      0.6703      2.4701     31.9963    106.1601    242.2970      8.6953
   3937.5000     98.5905      0.6930      0.6882      2.4611     31.3474    107.2103    244.1129      8.5624
   3938.0000    106.2933      0.6862      0.6840      2.4645     29.6584    108.9892    243.0761      8.5624
   3938.5000    106.7421      0.6636      0.6597      2.4660     30.4451    106.9341    241.5082      8.5624
   3939.0000    108.4627      0.6736      0.6694      2.4544     32.2775    105.7865    243.3546      8.5403
   3939.5000     99.2071      0.6912      0.6860      2.4626     31.7930    105.7865    241.7141      8.5846
   3940.0000     93.2906      0.7050      0.7068      2.4568     30.5299    105.2668    241.8361      8.5403
   3940.5000    100.6352      0.7107      0.7129      2.4717     34.7834    105.2668    241.7141      8.5624
   3941.0000    104.4299      0.6851      0.6875      2.4643     30.6179    105.2668    241.7141      8.5624
   3941.5000    106.0145      0.6833      0.6812      2.4614     33.2568    105.2789    245.9273      8.5624
   3942.0000     99.6491      0.6875      0.6831      2.4733     33.7745    105.2867    246.0287      8.5403
   3942.5000    104.8652      0.6962      0.6919      2.4636     32.7850    105.2284    246.0230      8.5403
   3943.0000    106.8102      0.7002      0.6951      2.4652     31.8182    105.2592    248.2955      8.5624
   3943.5000    106.6968      0.6872      0.6828      2.4672     32.2505    105.2672    248.0324      8.5624
   3944.0000    103.1310      0.6930      0.6885      2.4766     31.9327    105.2565    248.3237      8.5403
   3944.5000    102.1722      0.7094      0.7067      2.4859     32.7638    105.2346    247.8186      8.5624
   3945.0000    102.2946      0.7266      0.7201      2.4899     31.8955    105.2562    248.0060      8.5403
   3945.5000    106.6265      0.7058      0.6980      2.4825     30.8351    105.2308    247.6986      8.6067
   3946.0000    107.1774      0.6907      0.6854      2.4613     32.3154    104.8108    246.1288      8.5624
   3946.5000    101.8874      0.7164      0.7128      2.4927     33.2220    103.8867    247.4855      8.5846
   3947.0000    103.8111      0.7087      0.7036      2.4768     33.5967    103.0033    246.9421      8.5846
   3947.5000    102.1857      0.6984      0.7136      2.4680     31.5167    106.0515    239.9728      8.5846
   3948.0000     97.7291      0.7245      0.7115      2.4784     31.5386    105.3063    234.8935      8.5624
   3948.5000     88.1176      1.2187      1.2736      2.5406     30.7922    105.4868    236.4087      8.5846
