~Version Information
 VERS.           2.0     :   CWLS log ASCII Standard -VERSION 2.0
 WRAP.           NO      :   One line per depth step
~Well Information
#MNEM.UNIT      VALUE/NAME              DESCRIPTION
#--------     --------------            ---------------------
 STRT.M           508.0000              :START DEPTH
 STOP.M          5279.5000              :STOP DEPTH
 STEP.M             0.5000              :STEP
 NULL.             -999.25              :NULL VALUE
 COMP.    ConocoPhillips                :COMPANY
 WELL.    Poseidon North 1              :WELL
 FLD .    Exploration                   :FIELD
 LOC .                                  :LOCATION
 PROV.                                  :PROVINCE
 SRVC.    Schlumberger                  :SERVICE COMPANY
 CTRY.                                  :COUNTRY
 DATE.    05/20/2014                    :LOG DATE
 UWI .                                  :UNIQUE WELL ID
 LATI.DEG -13/34/24.825                  : Latitude
 LONG.DEG 122/20/24.556                 : Longitude
 GDAT.                                  : Geodetic Datum
~PARAMETER INFORMATION
~CURVE INFORMATION
#MNEM    .UNIT     API CODE             Curve Description
 DEPT    .M                             :   Along hole depth
 GRD     .gAPI                          :   Gamma Ray
 RS      .ohm.m                         :   (RM)    (ARC[1])                (6in)                   Phase Shift Resistivity 22 inch Spacing at 2 MHz, Environmentally Corrected.
 RD      .ohm.m                         :   (RM)    (ARC[1])                (6in)                   Phase Shift Resistivity 34 inch Spacing at 2 MHz, Environmentally Corrected.
 RHOB    .g/cm3                         :   (RM)    (ADN[1])                (6in)                   Bulk Density
 TNPH    .pu                            :   (RM)    (ADN[1])                (6in)                   Thermal Neutron Porosity (Ratio Method) in Selected Lithology
 DTCO    .us/ft                         :   Delta-T Compressional
 DTSM    .us/ft                         :   Delta-T Shear
 HDAR    .in                            :   Hole Diameter from Area
#
# Curve              Start        Stop     Minimum     Maximum
# ------------------------------------------------------------
#
# GRD             508.0000   5279.5000      3.5346    204.6889
# RS              568.5000   5279.5000      0.1925    487.9586
# RD              568.5000   5279.5000      0.1945    316.2479
# RHOB           3782.0000   4931.5000      1.9495      3.5107
# TNPH           3780.5000   4931.5000      6.2988     68.6649
# DTCO           3677.0000   5250.0000     48.6167    124.5370
# DTSM           3804.5000   5250.0000     85.6802    273.5039
# HDAR           3808.0000   5273.5000      8.3409     17.3339
# ******************************
# #
# DEVIATION SURVEY:	(Schlumberger)		Definitive Survey
#	Depth	Dev (deg)	Azimuth (deg)	Depth	Dev (deg)	Azimuth (deg)
#	508.3m	0.00	0.00	535.0m	0.51	175.26
#	567.0m	0.46	159.23	632.3m	0.50	124.18
#	690.2m	0.36	105.64	718.4m	0.30	104.70
#	747.0m	0.22	100.37	833.2m	0.12	92.39
#	862.3m	0.14	89.88	948.6m	0.09	77.24
#	1034.5m	0.21	61.94	1120.7m	0.43	72.74
#	1178.5m	0.55	94.45	1234.9m	0.84	96.85
#	1264.2m	1.11	104.58	1293.6m	1.37	101.48
#	1322.8m	1.51	87.02	1353.0m	1.76	69.73
#	1412.0m	1.26	53.07	1440.7m	1.13	48.89
#	1469.3m	0.97	55.84	1497.6m	1.03	53.67
#	1526.2m	0.92	59.74	1554.4m	0.82	58.53
#	1583.8m	0.75	60.20	1641.9m	0.66	59.63
#	1670.7m	0.75	60.62	1698.0m	0.69	57.52
#	1725.9m	0.67	57.15	1754.8m	0.32	52.85
#	1783.6m	0.81	146.83	1812.6m	1.47	161.88
#	1841.3m	1.64	163.20	1870.0m	1.76	163.52
#	1899.8m	1.79	177.44	1927.8m	1.29	184.32
#	1957.9m	1.72	185.24	1986.4m	1.87	187.31
#	2016.7m	1.89	185.97	2045.2m	1.80	187.62
#	2073.8m	1.81	185.62	2102.3m	1.83	186.20
#	2130.6m	1.79	187.06	2159.6m	1.78	184.95
#	2189.6m	1.85	185.18	2218.1m	1.85	184.70
#	2246.2m	1.81	184.66	2274.6m	1.82	181.40
#	2303.7m	1.76	181.56	2331.2m	1.76	183.12
#	2360.1m	1.77	183.23	2389.2m	1.78	181.43
#	2429.8m	1.81	178.67	2453.0m	1.78	181.70
#	2490.3m	1.75	186.73	2519.1m	1.74	190.18
#	2577.7m	1.34	193.07	2606.3m	1.34	194.30
#	2634.8m	1.43	194.62	2663.0m	1.49	196.08
#	2691.9m	1.52	191.72	2720.5m	1.41	196.99
#	2749.1m	1.30	192.26	2778.8m	1.33	197.61
#	2807.5m	1.18	197.33	2836.7m	1.13	193.60
#	2865.4m	1.01	194.63	2894.6m	1.02	201.33
#	2923.5m	0.87	193.21	2952.2m	0.92	194.81
#	2979.9m	0.79	197.44	3007.9m	0.71	189.93
#	3039.2m	0.62	204.55	3068.6m	0.38	211.96
#	3098.5m	0.64	224.56	3126.6m	0.95	223.07
#	3154.6m	0.84	235.70	3185.2m	0.78	238.33
#	3212.8m	0.76	226.49	3242.0m	0.64	244.70
#	3272.3m	0.59	246.79	3300.2m	0.57	235.82
#	3327.8m	0.59	264.08	3357.0m	0.61	267.57
#	3388.0m	0.41	270.93	3443.1m	0.26	299.95
#	3474.8m	0.43	301.03	3500.7m	0.47	288.64
#	3531.2m	0.29	300.47	3558.2m	0.41	316.53
#	3588.3m	0.55	309.28	3617.9m	0.51	307.43
#	3648.0m	0.46	340.11	3676.0m	0.35	315.45
#	3703.6m	0.43	300.04	3730.9m	0.34	326.82
#	3751.3m	0.17	271.57	3780.6m	0.09	301.36
#	3814.8m	0.29	187.90	3828.0m	0.42	183.54
#	3858.7m	0.35	156.45	3888.1m	0.72	141.78
#	3916.0m	0.93	151.39	3944.8m	1.30	136.05
#	3973.2m	1.99	136.59	4001.6m	2.33	140.24
#	4028.8m	2.82	136.91	4057.0m	3.00	139.76
#	4117.2m	2.72	150.07	4147.1m	2.18	148.78
#	4176.6m	1.90	141.66	4205.2m	1.35	129.99
#	4234.2m	0.98	109.72	4261.7m	0.87	84.30
#	4291.0m	1.20	72.60	4320.5m	0.67	70.91
#	4348.8m	0.56	71.19	4376.7m	0.42	56.80
#	4404.4m	0.30	20.79	4433.2m	0.31	341.16
#	4462.6m	0.26	334.54	4521.8m	0.92	284.18
#	4552.1m	1.66	297.93	4580.0m	1.95	318.44
#	4606.9m	2.21	336.83	4636.2m	2.24	345.69
#	4664.8m	2.50	352.22	4693.7m	2.79	352.27
#	4723.0m	2.96	347.28	4753.0m	3.12	334.48
#	4782.4m	3.27	329.12	4811.3m	3.87	326.41
#	4838.8m	4.07	319.63	4866.5m	4.23	317.95
#	4895.6m	4.63	317.81	4927.1m	4.57	312.59
#	4955.7m	3.99	310.09	4983.3m	3.37	308.64
#	5009.6m	2.66	307.75	5040.2m	2.81	307.39
#	5069.7m	3.03	298.46	5100.5m	3.88	292.76
#	5126.7m	3.99	297.59	5157.5m	4.00	296.72
#	5186.1m	4.23	299.71	5213.0m	3.84	304.22
#	5242.0m	3.97	301.56	5265.7m	4.07	299.21
#	5287.0m	4.07	299.21
#
# VELOCITY SURVEY:	No checkshot survey run
# 
# ************************************************************
#
# #
# LOCN 	LAT:	13o 34' 24.825" S			WELL NAME:	Poseidon North 1	
# 	LONG:	122o 20' 24.556" E
# 	EASTING:	428611.91m E	NORTHING: 	8499338.27m N	ZONE:	51	GDA 94
# SEISMIC SURV:	Poseidon 3D	INLINE:  3600	XLINE: 2250	STATUS:	P & A
# ELEVN SF:	- 486.0m MSL 	DATUM RT:	22.0m	OPERATOR:	ConocoPhillips
# BASIN:		Browse	TOTAL D:	5287m	PARTNERS:	Karoon, PetroChina
# SPUD DATE:	19/03/2014	COMPLN DATE:	18/05/2014	LEASE:	WA-315-P
# TARGET:	Montara & Plover Fms, seismic closure	DRILLER:	Transocean
# DATA SOURCE:	WCR (Basic), logs			RIG:	Legend
# #
# HOLE AND CASING DATA:
# 	Hole 	Hole	Casing	Casing 	Weight	Grade	Joints	Cement	TOC
# 	Size	Depth	Size	Depth	lb/ft
# 	36”	568.3m	30”	568m	456 / 310	X-52	2 / 3	221 sx G at SG 1.5	
# 								1118 sx G at SG 1.9
# 								225 sx G at SG 1.9 	Grouted
# 	17.5”	2459m	13 3/8”	2453m	72	P-110	160	1734 sx G at SG 1.44
# 								486 sx G at SG 1.9
# 	12.25”	3820m	9 5/8”	3814.8m	53.5	P-110	267	469 sx HTB at SG 1.89
# 	8.5”	5287m	
# #
# TEMPERATURES:
# 	Depth Driller	Logger	Temp	Log Type	Time since circ	Circ Time
# 	5287m	5234m	165.6 deg C	QAIT-HNGS	25.9 hrs	2.5 hrs
# 		5060m	165.6 deg C	MDT	55 hrs
# #
# MUD PROPERTIES:
# Depth (L)	Fluid Type	SG	Vis.	pH	Fl cc	Rm	Rmf	Rmc
#  5287m	Novatec SBM	1.57	81	na	3.6	Assumed infinite
# #
#
# ************************************************************
#    This LAS file was created by Occam Technology Pty. Ltd.
# The edit data contained herein are copyright property of
# Occam Technology Pty. Ltd. The data are licensed to the
# purchasing company and subsidiaries worldwide, and are NOT
# for on-copying to third parties.  We place no restriction on
# the distribution of plots generated from the digital data.
#
#    We supply the data on a 'best effort' basis.  We cannot
# control either the original data acquisition or the application
# of the data, and therefore we cannot be held responsible for
# the consequences of any interpretations based on the data.  We
# urge purchasers to apply normal quality control procedures to
# the data before use for any quantitative interpretative
# procedures.
# ************************************************************
~A      DEPT         GRD          RS          RD        RHOB        TNPH        DTCO        DTSM        HDAR
# ...
   4208.0000     67.0607      1.3559      1.3387      2.4311     22.2816     94.6313    159.9542      8.6510
   4208.5000     55.0032      1.4726      1.4550      2.3906     20.2354     94.3332    170.5023      8.6510
   4209.0000     57.6113      1.3722      1.3476      2.4142     21.8141     95.1214    169.8660      8.6510
   4209.5000     68.0366      1.3791      1.3666      2.4679     22.0683     96.2086    167.9080      8.6510
   4210.0000     76.6337      1.2903      1.2770      2.4412     23.1128     95.8073    175.8701      8.6510
   4210.5000     67.2722      1.3966      1.3894      2.4165     22.9435     95.4688    175.1684      8.6510
   4211.0000     61.5817      1.4229      1.4068      2.4293     21.5879     95.4780    174.9413      8.6288
   4211.5000     66.6390      1.3845      1.3749      2.4402     22.2567     95.8457    172.2561      8.6731
   4212.0000     73.6414      1.3228      1.3131      2.4568     22.1526     95.9260    168.5684      8.6288
   4212.5000     68.9093      1.3501      1.3360      2.4432     21.8268     95.3208    162.8265      8.6510
   4213.0000     58.6347      1.4296      1.4176      2.4166     20.9264     93.9236    157.5166      8.6731
   4213.5000     55.9757      1.4792      1.4603      2.3953     21.3379     93.2218    168.1777      8.6731
   4214.0000     57.7035      1.4931      1.4802      2.4445     21.5627     94.1737    170.4563      8.6731
   4214.5000     62.5594      1.3742      1.3592      2.4340     21.7793     95.6402    172.5851      8.6731
   4215.0000     59.4191      1.3793      1.3654      2.4132     21.5676     95.8925    173.2385      8.6731
   4215.5000     62.4603      1.3794      1.3658      2.4254     21.8964     96.8470    171.7677      8.6731
   4216.0000     72.4974      1.3390      1.3248      2.4274     22.5443     96.7716    165.6759      8.6731
   4216.5000     72.0387      1.3001      1.2955      2.4299     22.8612     95.5687    162.3939      8.6731
   4217.0000     60.0003      1.4137      1.3582      2.4114     22.7384     93.2291    157.2549      8.6953
   4217.5000     49.5752      2.3287      2.2241      2.3933     21.5261     92.8880    168.5981      8.6288
   4218.0000     55.7159      1.4363      1.3920      2.3982     21.7682     93.8590    170.6411      8.6288
   4218.5000     61.7313      1.3224      1.3061      2.4291     23.0091     93.7695    171.6065      8.6288
   4219.0000     67.2012      1.4170      1.3956      2.4084     22.5994     95.2101    177.0561      8.6288
   4219.5000     69.3442      1.3467      1.3243      2.4393     23.1061     96.9364    182.9958      8.6288
   4220.0000     87.4647      1.2190      1.2136      2.4615     23.7075     96.3586    179.7942      8.6510
   4220.5000     78.2023      1.2280      1.2165      2.4499     22.6824     95.4140    177.1481      8.6288
   4221.0000     69.8058      1.4684      1.4563      2.4566     21.8276     95.2849    177.0904      8.6288
   4221.5000     66.5515      1.4315      1.4146      2.4300     23.0708     95.7506    179.5595      8.6288
   4222.0000     78.2885      1.2943      1.2847      2.4466     22.7870     95.5587    179.3602      8.6067
   4222.5000     68.8764      1.5183      1.5146      2.5021     22.7128     94.6277    176.5170      8.6067
   4223.0000     69.6052      1.4144      1.3927      2.4439     21.7248     95.0893    176.8736      8.6288
   4223.5000     69.0068      1.3700      1.3596      2.4400     22.7325     96.9360    180.9145      8.6067
   4224.0000     81.7001      1.2208      1.2114      2.4821     23.1794     97.5778    176.7827      8.6288
   4224.5000     78.5705      1.2297      1.2190      2.4784     23.5198     97.0092    171.4447      8.6288
   4225.0000     73.4294      1.2944      1.2807      2.4437     23.1247     96.1310    167.2354      8.6288
   4225.5000     66.0225      1.3974      1.3820      2.4292     21.9252     95.6610    175.3937      8.6288
   4226.0000     65.8026      1.4048      1.3915      2.4296     21.8821     95.3690    175.9109      8.6288
   4226.5000     66.6198      1.4086      1.3970      2.4502     22.2889     94.9141    175.6807      8.6288
   4227.0000     65.0409      1.4225      1.4078      2.4404     20.1506     94.9062    174.9925      8.6288
   4227.5000     64.7961      1.3989      1.3828      2.4786     20.0243     95.6140    177.5407      8.6288
   4228.0000     69.4468      1.3269      1.3156      2.4509     20.6164     96.5120    181.2662      8.6288
   4228.5000     72.2804      1.2782      1.2653      2.4732     21.8276     97.0183    177.7057      8.6288
   4229.0000     76.5135      1.2681      1.2595      2.4699     23.0783     97.0041    181.1070      8.6288
   4229.5000     78.2159      1.2728      1.2635      2.4622     21.7316     96.3695    172.6934      8.6288
   4230.0000     69.4627      1.4001      1.3849      2.4534     21.8013     95.8199    177.1089      8.6288
   4230.5000     59.8271      1.4184      1.4029      2.4450     21.5743     95.8807    178.9800      8.6288
   4231.0000     68.1279      1.3317      1.3173      2.4676     21.2707     95.3725    179.8608      8.6288
   4231.5000     71.5015      1.3233      1.3070      2.4639     21.4899     94.1195    177.2450      8.6288
   4232.0000     73.6754      1.4254      1.4092      2.5063     21.9660     94.0428    178.0696      8.6288
   4232.5000     72.1101      1.3736      1.3503      2.4556     23.2796     96.8187    184.7948      8.6288
   4233.0000     84.5133      1.1592      1.1524      2.4705     23.5984     98.0562    189.3034      8.6288
   4233.5000     84.8760      1.1265      1.1195      2.4788     24.0745     97.9327    186.7902      8.6288
   4234.0000     92.0103      1.1665      1.1589      2.4776     23.5350     96.2425    180.2222      8.6288
   4234.5000     79.9614      1.3354      1.3201      2.4734     22.7379     95.8343    179.5734      8.6067
   4235.0000     65.1633      1.4277      1.4108      2.4622     22.0923     98.2119    181.7072      8.6067
   4235.5000     71.4267      1.2953      1.2951      2.4808     22.3141     96.5853    183.4108      8.6067
   4236.0000     79.2354      1.1837      1.1715      2.5843     24.4834     94.6426    183.8100      8.6288
   4236.5000     79.5235      1.2338      1.2072      2.5656     23.9605     95.3675    185.0141      8.6067
   4237.0000     71.6465      1.2584      1.2457      2.4778     22.4986     98.4703    191.3366      8.6067
   4237.5000     80.0475      1.1468      1.1342      2.4636     23.3283     99.6489    195.8961      8.6288
   4238.0000     88.1913      1.0435      1.0333      2.4815     25.6880     99.9080    198.2149      8.6067
   4238.5000     88.6140      1.0051      0.9973      2.4804     26.3040     99.7210    195.5136      8.6067
   4239.0000     87.7662      1.0674      1.0584      2.4770     24.2714     99.0277    191.8321      8.6067
   4239.5000     87.1440      1.1307      1.1230      2.4673     24.0174     98.0805    185.6629      8.6288
   4240.0000     75.3846      1.2572      1.2490      2.5180     22.9134     97.5550    184.4484      8.6067
   4240.5000     69.2482      1.2441      1.2305      2.4690     22.9545     97.4747    182.8408      8.6067
   4241.0000     68.5092      1.2273      1.2177      2.4624     23.4815     97.9093    183.1547      8.6288
   4241.5000     70.6591      1.2731      1.2589      2.4643     22.5735     98.1519    184.9697      8.6067
   4242.0000     80.5748      1.1671      1.1558      2.4576     22.6322     99.4974    193.3573      8.6288
   4242.5000     80.0453      1.0906      1.0813      2.4719     23.2899     99.6822    195.3053      8.6067
   4243.0000     86.0094      1.0612      1.0513      2.4964     24.4370     99.6052    196.0985      8.6288
   4243.5000     81.0747      1.0997      1.0854      2.4850     25.2783     99.6919    195.1899      8.6288
   4244.0000     80.1309      1.0973      1.0858      2.4760     24.5455     99.9441    194.6318      8.6288
   4244.5000     79.9614      1.1165      1.1093      2.4694     25.3524    100.1085    194.9230      8.6510
