~Version Information
 VERS.           2.0     :   CWLS log ASCII Standard -VERSION 2.0
 WRAP.           NO      :   One line per depth step
~Well Information
#MNEM.UNIT      VALUE/NAME              DESCRIPTION
#--------     --------------            ---------------------
 STRT.M           579.5000              :START DEPTH
 STOP.M          5115.5000              :STOP DEPTH
 STEP.M             0.5000              :STEP
 NULL.             -999.25              :NULL VALUE
 COMP.    ConocoPhillips                :COMPANY
 WELL.    Poseidon 1                    :WELL
 FLD .    Exploration                   :FIELD
 LOC .                                  :LOCATION
 PROV.                                  :PROVINCE
 SRVC.    Schlumberger D&M              :SERVICE COMPANY
 CTRY.                                  :COUNTRY
 DATE.    28-Apr-09                     :LOG DATE
 UWI .                                  :UNIQUE WELL ID
 LATI.DEG -13/37/16.79                   : Latitude
 LONG.DEG 122/18/23.99                  : Longitude
 GDAT.                                  : Geodetic Datum
~PARAMETER INFORMATION
~CURVE INFORMATION
#MNEM    .UNIT     API CODE             Curve Description
 DEPT    .M                             :   Along hole depth
 ECGR    .gAPI                          :   EDTC Corrected Gamma-Ray
 ATRX    .ohm.m                         :   Array Induction Two Foot Rxo
 ATRT    .ohm.m                         :   Array Induction Two Foot Rt
 NPHI    .pu                            :   Thermal Neutron Porosity (Ratio Method)
 CAL1    .in                            :   Caliper 1
 HDAR    .in                            :   Hole Diameter from Area
 HROM    .g/cm3                         :   LDS High Resolution Corrected Bulk Density
 DTSM    .us/ft                         :   Delta-T Shear
 DTCO    .us/ft                         :   Delta-T Compressional
#
# Curve              Start        Stop     Minimum     Maximum
# ------------------------------------------------------------
#
# ECGR            904.0000   5108.0000      5.0321    198.6361
# ATRX            579.5000   5114.0000      0.1100   1950.0000
# ATRT            579.5000   5114.0000      0.1803   1950.0000
# NPHI           3858.0000   5104.5000      1.0400     50.1900
# CAL1           3845.0000   5003.0000      4.5412     12.7663
# HDAR           3884.0000   5110.0000      5.8056     12.6868
# HROM           3887.0000   5115.0000      1.4423      3.0358
# DTSM           4395.0000   4974.0000     83.2234    221.9217
# DTCO           4395.0000   4974.0000     51.4416    111.5382
# ******************************
# 
# ************************************************************
#
# #
# LOCN 	LAT:	13o 37' 16.79" S			WELL NAME:	Poseidon 1
# 	LONG:	122o 18' 23.99" E
# 	EASTING:	425055.467m E	NORTHING: 	8493875.264m N	ZONE:	51	GDA 94
# SHOT POINT:		SEISMIC LINE:		STATUS:	P & A
# SEISMIC SURVEY:		INLINE:	XLINE:
# ELEVN SF:	494.0m	DATUM KB:	26.4m	OPERATOR:	ConocoPhillips
# BASIN :		Browse	TOTAL D:	5112.1m	PARTNERS:	Karoon
# SPUD DATE:	26/01/2009	COMPLN DATE:	29/05/2009	LEASE:	WA-315-P
# TARGET:	Plover SS			DRILLER:	Transocean
# DATA SOURCE:	WCR, logs			RIG:	Sedco 703
# #
# HOLE AND CASING DATA:
# 	Hole 	Hole	Casing	Casing 	Weight	Grade	Joints	Cement	TOC
# 	Size	Depth	Size	Depth	lb/ft
# 	36”	581.8m	30”	578m	310	X-52	5	1105 sx G at SG 1.9	Seafloor
# 								185 sx G at SG 1.9 – top up
# 	17.5”	2296m	13 3/8”	2287.5m	72	P-110	143	688 sx G at SG 1.5
# 								500 sx G at SG 1.9
# 	12.25”	3898m	9 5/8”	3890.8m	53.5	P-110	274	202 sx G at SG 1.62	
# 								133 sx G at SG 1.98
# 	9.5”	3965m	7 5/8”	3957m	30.5	EX-80	14	
# 	8.5”	4588m	7”	4587.5m	32 / 29	P110/L80	47/20	213 sx G at SG 1.9
# 	6”	5112.1m	5”	5088.4m	18	P-110	72	116 sx G at SG 1.9
# #
# TEMPERATURES:
# 	Depth Driller	Logger	Temp	Log Type	Time since circ	Circ Time
# 	3965m	3960m	104 deg C	FMI	22.78 hrs	2.5 hrs
# 	5112.1m	5118m	160 deg C	CMR	22.83 hrs
# 			162 deg C	HNGS	36.17 hrs
# 		4990m	165 deg c	Sonic Scanner	47.47 hrs
# #
# MUD PROPERTIES:
# Depth (L)	Fluid Type	SG	Vis.	pH	Fl cc	Rm	Rmf	Rmc
# 3965m	KCl-Polymer	1.29				0.167 at 18.6 deg C	0.244 at 17.8 deg C	0.261 at 18 deg C
# 		KCl	6%	Barite 	7.5%
# 5112.1m	Novatec SBM	1.20			3.6	
# 				Barite	10.3%
# #
#
# DEVIATION SURVEY:		(Schlumberger)
#	Depth	Dev (deg)	Azimuth (deg)	Depth	Dev (deg)	Azimuth (deg)
#	0.0m	0.00	0.00	520.5m	0.00	0.00
#	527.6m	0.39	259.27	552.8m	1.09	19.41
#	607.9m	0.33	161.06	636.3m	0.28	157.46
#	666.2m	0.42	156.27	723.3m	0.49	158.80
#	752.4m	0.76	145.50	811.0m	0.69	144.79
#	868.3m	0.66	149.14	897.2m	0.66	152.38
#	926.2m	0.53	150.70	1013.9m	0.64	144.22
#	1100.8m	0.45	222.81	1130.8m	0.53	244.07
#	1187.1m	0.69	231.27	1215.1m	0.65	232.48
#	1243.9m	0.64	288.99	1272.6m	0.63	304.63
#	1300.8m	0.62	311.48	1329.9m	0.16	285.18
#	1359.0m	0.11	292.17	1386.3m	0.31	331.80
#	1416.5m	0.53	355.63	1447.1m	0.61	2.60
#	1474.7m	0.94	7.68	1505.2m	1.01	358.08
#	1534.9m	0.92	345.86	1563.8m	0.61	5.17
#	1592.2m	0.76	17.60	1622.0m	0.60	20.84
#	1650.2m	0.65	36.42	1763.9m	0.60	51.71
#	1821.4m	0.46	44.49	1850.5m	0.79	49.16
#	1908.9m	0.96	36.49	1939.6m	0.58	13.70
#	1959.8m	0.13	322.88	2044.1m	0.34	243.01
#	2073.4m	0.44	233.00	2101.7m	0.51	240.40
#	2131.7m	0.50	252.10	2189.0m	0.49	257.69
#	2246.1m	0.42	251.29	2269.4m	0.43	247.24
#	2313.9m	0.33	207.85	2341.6m	0.20	199.21
#	2369.9m	0.15	229.33	2398.5m	0.14	219.45
#	2427.2m	0.22	182.60	2456.2m	0.23	217.52
#	2486.6m	0.30	200.91	2516.1m	0.34	250.17
#	2599.5m	0.23	257.73	2656.6m	0.37	259.03
#	2685.9m	0.36	244.41	2714.4m	0.33	247.01
#	2743.5m	0.44	264.65	2772.9m	0.36	248.49
#	2802.7m	0.49	249.47	2829.7m	0.46	254.82
#	2887.1m	0.37	245.00	2916.6m	0.30	229.13
#	2946.6m	0.14	227.49	3004.8m	0.20	234.38
#	3062.1m	0.52	223.74	3090.7m	0.51	219.43
#	3120.9m	0.47	216.60	3150.2m	0.49	219.95
#	3178.9m	0.44	222.75	3206.5m	0.40	211.30
#	3235.7m	0.35	217.26	3265.7m	0.49	214.66
#	3322.4m	0.35	211.44	3350.4m	0.36	212.61
#	3379.8m	0.35	230.18	3409.2m	0.34	230.92
#	3494.2m	0.34	231.38	3557.7m	0.29	277.76
#	3668.7m	0.32	324.77	3698.3m	0.43	340.30
#	3729.8m	0.45	340.13	3756.5m	0.39	332.45
#	3815.7m	0.44	309.71	3873.0m	0.59	285.30
#	4047.5m	4.76	321.71	4065.7m	5.39	333.06
#	4082.1m	6.39	336.20	4098.9m	7.73	337.83
#	4115.7m	9.43	344.07	4147.0m	12.37	344.49
#	4160.9m	13.41	345.79	4170.7m	13.89	349.54
#	4182.8m	14.27	348.89	4198.0m	15.83	349.61
#	4230.3m	13.55	353.68	4255.8m	12.41	353.57
#	4287.3m	11.70	355.88	4312.9m	11.40	355.42
#	4344.1m	10.54	354.84	4370.2m	10.32	356.38
#	4403.0m	10.25	3.71	4428.6m	10.50	359.63
#	4443.5m	9.94	359.87	4458.4m	10.08	1.47
#	4486.5m	9.71	359.12	4514.6m	9.26	359.81
#	4545.3m	9.64	0.67	4572.5m	9.26	356.64
#	4602.8m	8.97	350.43	4631.2m	8.70	344.94
#	4660.8m	8.34	342.12	4688.5m	8.14	338.90
#	4718.7m	8.30	333.76	4776.7m	8.03	335.31
#	4804.1m	7.88	336.68	4832.6m	7.95	337.54
#	4862.8m	7.84	339.39	4891.2m	7.71	338.67
#	4920.0m	8.19	338.17	4948.2m	8.48	335.94
#	4980.2m	8.19	335.87	5009.6m	7.89	329.96
#	5036.0m	7.84	329.96	5066.0m	7.78	329.28
#	5093.9m	7.52	327.67	5112.0m	7.52	327.67
#
# VELOCITY SURVEY:	(Schlumberger)		OWT, vertically corrected, relative to SRD (MSL)
#	Depth	TVD SS	OWT(sec)	Depth	TVD SS	OWT(sec)
#	29.3m	2.9m	0.0316	44.4m	18.0m	0.1682
#	59.5m	33.1m	0.3158	784.1m	757.7m	0.6576
#	799.2m	772.8m	0.6603	814.3m	787.9m	0.6620
#	829.5m	803.0m	0.6645	1744.4m	1717.9m	0.8235
#	1759.5m	1733.0m	0.8269	1774.6m	1748.2m	0.8303
#	1789.7m	1763.3m	0.8333	1804.9m	1778.5m	0.8364
#	1820.0m	1793.6m	0.8400	1835.2m	1808.7m	0.8433
#	1850.3m	1823.8m	0.8473	1865.4m	1838.9m	0.8510
#	1880.5m	1854.0m	0.8546	1895.6m	1869.1m	0.8584
#	1910.7m	1884.2m	0.8627	1925.8m	1899.3m	0.8666
#	1940.9m	1914.5m	0.8705	1956.1m	1929.6m	0.8744
#	1971.2m	1944.7m	0.8782	1986.4m	1959.9m	0.8816
#	2001.5m	1975.0m	0.8850	2016.7m	1990.2m	0.8885
#	2031.8m	2005.3m	0.8918	2046.8m	2020.3m	0.8953
#	2062.0m	2035.5m	0.8987	2077.1m	2050.6m	0.9018
#	2092.2m	2065.7m	0.9050	2107.3m	2080.8m	0.9080
#	2122.4m	2095.9m	0.9111	2137.6m	2111.1m	0.9138
#	2152.7m	2126.2m	0.9168	2167.8m	2141.3m	0.9196
#	2182.9m	2156.4m	0.9224	2198.1m	2171.6m	0.9253
#	2213.2m	2186.7m	0.9283	2228.3m	2201.8m	0.9313
#	2243.4m	2216.9m	0.9342	2258.6m	2232.1m	0.9371
#	2273.7m	2247.2m	0.9400	2288.8m	2262.4m	0.9430
#	2304.0m	2277.5m	0.9460	2319.1m	2292.6m	0.9488
#	2334.2m	2307.7m	0.9517	2349.2m	2322.7m	0.9545
#	2364.4m	2337.9m	0.9576	2379.5m	2353.0m	0.9605
#	2394.6m	2368.1m	0.9632	2409.6m	2383.1m	0.9661
#	2424.8m	2398.3m	0.9692	2439.9m	2413.4m	0.9724
#	2455.0m	2428.5m	0.9757	2470.2m	2443.7m	0.9795
#	2485.3m	2458.8m	0.9830	2500.4m	2473.9m	0.9865
#	2515.6m	2489.1m	0.9900	2530.7m	2504.2m	0.9937
#	2545.9m	2519.4m	0.9973	2561.0m	2534.5m	1.0010
#	2576.1m	2549.6m	1.0046	2591.2m	2564.7m	1.0080
#	2606.3m	2579.8m	1.0113	2621.5m	2595.0m	1.0147
#	2636.6m	2610.1m	1.0183	2651.6m	2625.1m	1.0215
#	2666.8m	2640.3m	1.0249	2681.9m	2655.4m	1.0285
#	2697.0m	2670.5m	1.0325	2712.1m	2685.6m	1.0361
#	2727.3m	2700.8m	1.0399	2742.4m	2715.9m	1.0434
#	2757.5m	2731.0m	1.0472	2772.6m	2746.1m	1.0510
#	2787.7m	2761.2m	1.0547	2802.8m	2776.3m	1.0582
#	2817.9m	2791.4m	1.0617	2833.0m	2806.5m	1.0651
#	2848.2m	2821.7m	1.0685	2863.3m	2836.8m	1.0718
#	2878.4m	2851.9m	1.0750	2893.6m	2867.1m	1.0781
#	2908.8m	2882.3m	1.0814	2914.1m	2887.6m	1.0824
#	2923.9m	2897.4m	1.0844	2929.2m	2902.7m	1.0855
#	2939.0m	2912.5m	1.0875	2944.4m	2917.8m	1.0887
#	2954.0m	2927.5m	1.0907	2959.5m	2933.0m	1.0921
#	2969.1m	2942.6m	1.0941	2984.3m	2957.8m	1.0975
#	2999.4m	2972.9m	1.1008	3014.5m	2988.0m	1.1040
#	3029.6m	3003.1m	1.1072	3044.8m	3018.3m	1.1103
#	3059.9m	3033.4m	1.1134	3075.1m	3048.5m	1.1165
#	3090.2m	3063.7m	1.1194	3105.3m	3078.8m	1.1224
#	3120.4m	3093.9m	1.1253	3135.6m	3109.0m	1.1284
#	3150.7m	3124.2m	1.1318	3165.8m	3139.3m	1.1352
#	3180.9m	3154.4m	1.1385	3196.0m	3169.5m	1.1420
#	3211.2m	3184.6m	1.1452	3226.3m	3199.8m	1.1486
#	3241.4m	3214.9m	1.1518	3256.4m	3229.9m	1.1550
#	3271.6m	3245.0m	1.1583	3286.7m	3260.2m	1.1618
#	3301.8m	3275.3m	1.1653	3316.9m	3290.4m	1.1690
#	3332.1m	3305.6m	1.1726	3347.2m	3320.7m	1.1767
#	3362.3m	3335.8m	1.1808	3377.4m	3350.9m	1.1849
#	3392.6m	3366.0m	1.1889	3407.7m	3381.2m	1.1926
#	3831.1m	3804.5m	1.2951	3846.2m	3819.6m	1.2989
#	3861.2m	3834.7m	1.3025	3876.3m	3849.8m	1.3067
#	3891.5m	3864.9m	1.3108	3906.6m	3880.0m	1.3154
#	3921.7m	3895.1m	1.3196	3936.8m	3910.2m	1.3245
#	3952.0m	3925.3m	1.3297	3967.1m	3940.4m	1.3350
#	3982.3m	3955.6m	1.3402	3997.4m	3970.7m	1.3452
#	4012.5m	3985.8m	1.3502	4027.6m	4000.9m	1.3552
#	4042.6m	4015.9m	1.3603	4057.8m	4031.0m	1.3653
#	4072.9m	4046.0m	1.3703	4088.0m	4061.0m	1.3752
#	4103.2m	4076.1m	1.3799	4118.3m	4091.0m	1.3848
#	4133.4m	4105.8m	1.3895	4148.5m	4120.7m	1.3944
#	4163.7m	4135.4m	1.3993	4178.8m	4150.1m	1.4041
#	4193.9m	4164.7m	1.4089	4209.0m	4179.3m	1.4135
#	4224.1m	4193.9m	1.4181	4239.2m	4208.6m	1.4227
#	4254.3m	4223.3m	1.4271	4269.4m	4238.1m	1.4316
#	4284.7m	4253.0m	1.4359	4284.7m	4253.0m	1.4358
#	4299.8m	4267.8m	1.4402	4299.8m	4267.8m	1.4402
#	4314.9m	4282.6m	1.4448	4314.9m	4282.6m	1.4447
#	4330.0m	4297.5m	1.4493	4330.0m	4297.5m	1.4493	
#
# ************************************************************
#    This LAS file was created by Occam Technology Pty. Ltd.
# The edit data contained herein are copyright property of
# Occam Technology Pty. Ltd. The data are licensed to the
# purchasing company and subsidiaries worldwide, and are NOT
# for on-copying to third parties.  We place no restriction on
# the distribution of plots generated from the digital data.
#
#    We supply the data on a 'best effort' basis.  We cannot
# control either the original data acquisition or the application
# of the data, and therefore we cannot be held responsible for
# the consequences of any interpretations based on the data.  We
# urge purchasers to apply normal quality control procedures to
# the data before use for any quantitative interpretative
# procedures.
# ************************************************************
~A      DEPT        ECGR        ATRX        ATRT        NPHI        CAL1        HDAR        HROM        DTSM        DTCO
# ...
   4633.0000    131.1273      1.3917      1.3515     27.5900      6.0741      6.2823      2.5850    168.7891     89.4824
   4633.5000    140.4084      1.3581      1.3195     27.5100      6.0514      6.2447      2.5269    171.4992     90.5820
   4634.0000    130.1458      1.2982      1.2595     28.4700      6.0724      6.2464      2.5941    176.0260     91.2000
   4634.5000    132.7090      1.2392      1.2078     25.2500      6.0672      6.2500      2.5991    179.2398     93.3905
   4635.0000    141.0495      1.3363      1.3165     25.4900      6.0635      6.2464      2.5794    184.9245     96.3736
   4635.5000    131.7234      1.6014      1.5817     22.9500      6.0551      6.2482      2.6885    165.5034     88.3354
   4636.0000    129.0321      1.7469      1.7295     23.7700      6.0704      6.2456      2.5858    161.0420     86.9176
   4636.5000    129.1671      1.8185      1.7752     26.6300      6.0627      6.2464      2.5807    158.7335     87.0522
   4637.0000    119.4621      1.6001      1.5621     25.9800      6.0761      6.2518      2.5864    155.8778     83.2753
   4637.5000    136.4917      1.4701      1.4351     27.8800      6.0505      6.2464      2.5903    174.1640     92.4075
   4638.0000    145.4321      1.5089      1.4502     19.9100      6.0727      6.2447      2.9267    175.9856     94.5444
   4638.5000    134.9773      1.5428      1.4610     23.8800      6.0826      6.2482      2.5760    169.4438     93.5015
   4639.0000    125.4502      1.5138      1.4449     25.8900      6.1043      6.2429      2.5912    164.4486     80.5385
   4639.5000    133.7669      1.4588      1.4227     26.0100      6.1041      6.2447      2.6125    169.1792     89.1765
   4640.0000    145.5893      1.5299      1.4981     25.0900      6.1102      6.2841      2.5799    170.1524     90.7481
   4640.5000    134.7887      1.5261      1.4904     26.6600      6.1017      6.2877      2.5891    164.2338     86.9686
   4641.0000    135.3884      1.4613      1.4255     26.4800      6.1125      6.2877      2.5763    169.4640     89.4535
   4641.5000    137.2579      1.5015      1.4548     25.8100      6.1158      6.2823      2.6219    173.8924     90.5372
   4642.0000    140.8581      1.6208      1.5640     24.6300      6.1079      6.2949      2.6099    168.9322     90.4452
   4642.5000    128.3867      1.6089      1.5559     25.2800      6.1424      6.3226      2.5849    162.7113     86.5359
   4643.0000    157.6652      1.6830      1.6117     26.0500      6.1432      6.3271      2.6136    168.0963     89.3836
   4643.5000    156.2796      1.8761      1.8133     24.8700      6.1393      6.3648      2.5633    164.6107     90.6210
   4644.0000    155.6262      1.8793      1.8668     25.7300      6.1477      6.3666      2.5560    157.0163     83.0541
   4644.5000    187.1373      1.9323      1.9557     27.4600      6.1446      6.3648      2.5833    167.2650     88.7548
   4645.0000    166.1570      1.9145      1.9320     28.5000      6.1960      6.3684      2.5654    167.3119     88.4988
   4645.5000    167.1343      1.8894      1.9040     28.8000      6.1791      6.3666      2.5972    168.6134     88.3892
   4646.0000    160.4820      1.9127      1.9293     26.7600      6.1820      6.3648      2.6057    170.0162     89.6229
   4646.5000    154.0808      1.9416      1.9563     26.7500      6.1830      6.3627      2.6021    167.0525     88.5180
   4647.0000    153.7486      1.9386      1.9535     26.5900      6.1784      6.3630      2.6070    166.7033     88.7836
   4647.5000    154.9545      1.8852      1.9000     26.2700      6.1776      6.3702      2.5865    166.1971     88.4142
   4648.0000    169.5181      1.8847      1.8933     25.8400      6.1886      6.3988      2.5758    167.5248     88.9466
   4648.5000    182.1143      1.9615      1.9592     27.2200      6.2156      6.4060      2.5408    166.0693     88.9631
   4649.0000    173.7133      2.0079      2.0163     25.6200      6.2212      6.4078      2.5816    162.4065     86.5435
   4649.5000    174.9768      2.0952      2.1325     26.1000      6.2174      6.4062      2.5780    162.1162     86.4107
   4650.0000    162.7868      2.2585      2.3145     26.3400      6.1799      6.4436      2.5547    158.1112     84.9342
   4650.5000    155.4817      2.3165      2.3754     25.7500      6.2221      6.4454      2.5910    158.0483     86.3818
   4651.0000    155.5784      2.3011      2.3546     27.1300      6.2373      6.4397      2.6042    155.7516     83.3140
   4651.5000    150.8758      2.3272      2.3650     26.9000      6.2628      6.3644      2.5801    156.7559     84.6371
   4652.0000    144.9301      2.3988      2.4214     26.8800      6.2260      6.3627      2.5948    159.1144     84.8230
   4652.5000    141.7679      2.5010      2.4702     25.4000      6.2174      6.3644      2.5966    161.4734     85.7458
   4653.0000    144.0768      2.4913      2.4024     25.9100      6.2588      6.3666      2.5868    160.7190     84.7229
   4653.5000    146.1312      2.4369      2.3149     26.0200      6.2419      6.3611      2.5840    161.0258     84.6654
   4654.0000    153.0480      2.3366      2.2355     25.2200      6.2182      6.3666      2.5808    165.4970     87.0335
   4654.5000    153.5414      2.1967      2.1477     25.0800      6.2144      6.3666      2.5925    165.2197     87.0894
   4655.0000    151.5600      2.1300      2.1161     26.1700      6.2023      6.3648      2.5473    161.6548     86.4595
   4655.5000    151.7019      2.1349      2.1277     25.4000      6.1776      6.3666      2.6789    162.0419     86.0240
   4656.0000    161.2702      2.0554      2.0384     26.7700      6.1990      6.3627      2.5750    163.5144     86.5700
   4656.5000    152.5637      2.0861      2.0690     26.5000      6.1784      6.3694      2.5846    164.8035     86.9138
   4657.0000    158.2740      2.2627      2.2656     26.5300      6.1791      6.3684      2.5821    163.1668     87.2553
   4657.5000    149.4007      2.3833      2.3921     26.4200      6.1830      6.3952      2.5594    161.1975     86.9668
   4658.0000    153.6905      2.3800      2.4171     26.5600      6.1830      6.4078      2.5314    156.4639     85.4576
   4658.5000    156.0750      2.1986      2.2888     28.4500      6.1788      6.4060      2.5430    158.4985     84.9896
   4659.0000    161.3840      2.0557      2.1377     29.8600      6.2059      6.3612      2.5737    175.8012     90.3411
   4659.5000    158.8960      2.0753      2.1203     30.5900      6.1378      6.3612      2.5878    172.9808     88.8965
   4660.0000    167.7982      2.1331      2.1577     29.1100      6.1447      6.3702      2.5601    171.2523     90.4217
   4660.5000    179.7924      2.1899      2.2041     27.6300      6.1401      6.3684      2.5820    169.8309     89.4032
   4661.0000    172.2466      2.2027      2.2114     28.2500      6.1401      6.3711      2.5723    165.7156     88.4262
   4661.5000    168.7034      2.2253      2.2330     27.8600      6.1117      6.3666      2.5178    166.9767     88.5009
   4662.0000    173.3895      2.2263      2.2290     27.8400      6.1025      6.3612      2.5656    165.1769     88.4504
   4662.5000    169.8301      2.1668      2.1614     27.2400      6.1477      6.3611      2.5944    166.6522     88.6927
   4663.0000    176.7842      2.1141      2.1075     28.9800      6.1050      6.3666      2.5990    167.9445     89.0661
   4663.5000    181.5420      2.0909      2.0808     28.7800      6.1041      6.3702      2.5505    170.2732     90.3703
   4664.0000    171.6343      2.0812      2.0719     28.9300      6.1007      6.3684      2.5747    174.5637     91.5824
   4664.5000    176.7388      2.0772      2.0725     29.9700      6.1087      6.3612      2.5670    173.6191     91.0420
   4665.0000    170.8447      2.0874      2.0790     28.6400      6.1026      6.3666      2.5772    174.3101     91.1534
   4665.5000    168.3810      2.0690      2.0521     29.0400      6.1087      6.3684      2.5664    171.2955     90.5284
   4666.0000    166.3209      2.0105      1.9880     29.1500      6.1033      6.3666      2.6393    170.2574     90.3580
