~Version Information
 VERS.           2.0     :   CWLS log ASCII Standard -VERSION 2.0
 WRAP.           NO      :   One line per depth step
~Well Information
#MNEM.UNIT      VALUE/NAME              DESCRIPTION
#--------     --------------            ---------------------
 STRT.M           508.0000              :START DEPTH
 STOP.M          5279.5000              :STOP DEPTH
 STEP.M             0.5000              :STEP
 NULL.             -999.25              :NULL VALUE
 COMP.    ConocoPhillips                :COMPANY
 WELL.    Poseidon North 1              :WELL
 FLD .    Exploration                   :FIELD
 LOC .                                  :LOCATION
 PROV.                                  :PROVINCE
 SRVC.    Schlumberger                  :SERVICE COMPANY
 CTRY.                                  :COUNTRY
 DATE.    05/20/2014                    :LOG DATE
 UWI .                                  :UNIQUE WELL ID
 LATI.DEG -13/34/24.825                  : Latitude
 LONG.DEG 122/20/24.556                 : Longitude
 GDAT.                                  : Geodetic Datum
~PARAMETER INFORMATION
~CURVE INFORMATION
#MNEM    .UNIT     API CODE             Curve Description
 DEPT    .M                             :   Along hole depth
 GRD     .gAPI                          :   Gamma Ray
 RS      .ohm.m                         :   (RM)    (ARC[1])                (6in)                   Phase Shift Resistivity 22 inch Spacing at 2 MHz, Environmentally Corrected.
 RD      .ohm.m                         :   (RM)    (ARC[1])                (6in)                   Phase Shift Resistivity 34 inch Spacing at 2 MHz, Environmentally Corrected.
 RHOB    .g/cm3                         :   (RM)    (ADN[1])                (6in)                   Bulk Density
 TNPH    .pu                            :   (RM)    (ADN[1])                (6in)                   Thermal Neutron Porosity (Ratio Method) in Selected Lithology
 DTCO    .us/ft                         :   Delta-T Compressional
 DTSM    .us/ft                         :   Delta-T Shear
 HDAR    .in                            :   Hole Diameter from Area
#
# Curve              Start        Stop     Minimum     Maximum
# ------------------------------------------------------------
#
# GRD             508.0000   5279.5000      3.5346    204.6889
# RS              568.5000   5279.5000      0.1925    487.9586
# RD              568.5000   5279.5000      0.1945    316.2479
# RHOB           3782.0000   4931.5000      1.9495      3.5107
# TNPH           3780.5000   4931.5000      6.2988     68.6649
# DTCO           3677.0000   5250.0000     48.6167    124.5370
# DTSM           3804.5000   5250.0000     85.6802    273.5039
# HDAR           3808.0000   5273.5000      8.3409     17.3339
# ******************************
# #
# DEVIATION SURVEY:	(Schlumberger)		Definitive Survey
#	Depth	Dev (deg)	Azimuth (deg)	Depth	Dev (deg)	Azimuth (deg)
#	508.3m	0.00	0.00	535.0m	0.51	175.26
#	567.0m	0.46	159.23	632.3m	0.50	124.18
#	690.2m	0.36	105.64	718.4m	0.30	104.70
#	747.0m	0.22	100.37	833.2m	0.12	92.39
#	862.3m	0.14	89.88	948.6m	0.09	77.24
#	1034.5m	0.21	61.94	1120.7m	0.43	72.74
#	1178.5m	0.55	94.45	1234.9m	0.84	96.85
#	1264.2m	1.11	104.58	1293.6m	1.37	101.48
#	1322.8m	1.51	87.02	1353.0m	1.76	69.73
#	1412.0m	1.26	53.07	1440.7m	1.13	48.89
#	1469.3m	0.97	55.84	1497.6m	1.03	53.67
#	1526.2m	0.92	59.74	1554.4m	0.82	58.53
#	1583.8m	0.75	60.20	1641.9m	0.66	59.63
#	1670.7m	0.75	60.62	1698.0m	0.69	57.52
#	1725.9m	0.67	57.15	1754.8m	0.32	52.85
#	1783.6m	0.81	146.83	1812.6m	1.47	161.88
#	1841.3m	1.64	163.20	1870.0m	1.76	163.52
#	1899.8m	1.79	177.44	1927.8m	1.29	184.32
#	1957.9m	1.72	185.24	1986.4m	1.87	187.31
#	2016.7m	1.89	185.97	2045.2m	1.80	187.62
#	2073.8m	1.81	185.62	2102.3m	1.83	186.20
#	2130.6m	1.79	187.06	2159.6m	1.78	184.95
#	2189.6m	1.85	185.18	2218.1m	1.85	184.70
#	2246.2m	1.81	184.66	2274.6m	1.82	181.40
#	2303.7m	1.76	181.56	2331.2m	1.76	183.12
#	2360.1m	1.77	183.23	2389.2m	1.78	181.43
#	2429.8m	1.81	178.67	2453.0m	1.78	181.70
#	2490.3m	1.75	186.73	2519.1m	1.74	190.18
#	2577.7m	1.34	193.07	2606.3m	1.34	194.30
#	2634.8m	1.43	194.62	2663.0m	1.49	196.08
#	2691.9m	1.52	191.72	2720.5m	1.41	196.99
#	2749.1m	1.30	192.26	2778.8m	1.33	197.61
#	2807.5m	1.18	197.33	2836.7m	1.13	193.60
#	2865.4m	1.01	194.63	2894.6m	1.02	201.33
#	2923.5m	0.87	193.21	2952.2m	0.92	194.81
#	2979.9m	0.79	197.44	3007.9m	0.71	189.93
#	3039.2m	0.62	204.55	3068.6m	0.38	211.96
#	3098.5m	0.64	224.56	3126.6m	0.95	223.07
#	3154.6m	0.84	235.70	3185.2m	0.78	238.33
#	3212.8m	0.76	226.49	3242.0m	0.64	244.70
#	3272.3m	0.59	246.79	3300.2m	0.57	235.82
#	3327.8m	0.59	264.08	3357.0m	0.61	267.57
#	3388.0m	0.41	270.93	3443.1m	0.26	299.95
#	3474.8m	0.43	301.03	3500.7m	0.47	288.64
#	3531.2m	0.29	300.47	3558.2m	0.41	316.53
#	3588.3m	0.55	309.28	3617.9m	0.51	307.43
#	3648.0m	0.46	340.11	3676.0m	0.35	315.45
#	3703.6m	0.43	300.04	3730.9m	0.34	326.82
#	3751.3m	0.17	271.57	3780.6m	0.09	301.36
#	3814.8m	0.29	187.90	3828.0m	0.42	183.54
#	3858.7m	0.35	156.45	3888.1m	0.72	141.78
#	3916.0m	0.93	151.39	3944.8m	1.30	136.05
#	3973.2m	1.99	136.59	4001.6m	2.33	140.24
#	4028.8m	2.82	136.91	4057.0m	3.00	139.76
#	4117.2m	2.72	150.07	4147.1m	2.18	148.78
#	4176.6m	1.90	141.66	4205.2m	1.35	129.99
#	4234.2m	0.98	109.72	4261.7m	0.87	84.30
#	4291.0m	1.20	72.60	4320.5m	0.67	70.91
#	4348.8m	0.56	71.19	4376.7m	0.42	56.80
#	4404.4m	0.30	20.79	4433.2m	0.31	341.16
#	4462.6m	0.26	334.54	4521.8m	0.92	284.18
#	4552.1m	1.66	297.93	4580.0m	1.95	318.44
#	4606.9m	2.21	336.83	4636.2m	2.24	345.69
#	4664.8m	2.50	352.22	4693.7m	2.79	352.27
#	4723.0m	2.96	347.28	4753.0m	3.12	334.48
#	4782.4m	3.27	329.12	4811.3m	3.87	326.41
#	4838.8m	4.07	319.63	4866.5m	4.23	317.95
#	4895.6m	4.63	317.81	4927.1m	4.57	312.59
#	4955.7m	3.99	310.09	4983.3m	3.37	308.64
#	5009.6m	2.66	307.75	5040.2m	2.81	307.39
#	5069.7m	3.03	298.46	5100.5m	3.88	292.76
#	5126.7m	3.99	297.59	5157.5m	4.00	296.72
#	5186.1m	4.23	299.71	5213.0m	3.84	304.22
#	5242.0m	3.97	301.56	5265.7m	4.07	299.21
#	5287.0m	4.07	299.21
#
# VELOCITY SURVEY:	No checkshot survey run
# 
# ************************************************************
#
# #
# LOCN 	LAT:	13o 34' 24.825" S			WELL NAME:	Poseidon North 1	
# 	LONG:	122o 20' 24.556" E
# 	EASTING:	428611.91m E	NORTHING: 	8499338.27m N	ZONE:	51	GDA 94
# SEISMIC SURV:	Poseidon 3D	INLINE:  3600	XLINE: 2250	STATUS:	P & A
# ELEVN SF:	- 486.0m MSL 	DATUM RT:	22.0m	OPERATOR:	ConocoPhillips
# BASIN:		Browse	TOTAL D:	5287m	PARTNERS:	Karoon, PetroChina
# SPUD DATE:	19/03/2014	COMPLN DATE:	18/05/2014	LEASE:	WA-315-P
# TARGET:	Montara & Plover Fms, seismic closure	DRILLER:	Transocean
# DATA SOURCE:	WCR (Basic), logs			RIG:	Legend
# #
# HOLE AND CASING DATA:
# 	Hole 	Hole	Casing	Casing 	Weight	Grade	Joints	Cement	TOC
# 	Size	Depth	Size	Depth	lb/ft
# 	36”	568.3m	30”	568m	456 / 310	X-52	2 / 3	221 sx G at SG 1.5	
# 								1118 sx G at SG 1.9
# 								225 sx G at SG 1.9 	Grouted
# 	17.5”	2459m	13 3/8”	2453m	72	P-110	160	1734 sx G at SG 1.44
# 								486 sx G at SG 1.9
# 	12.25”	3820m	9 5/8”	3814.8m	53.5	P-110	267	469 sx HTB at SG 1.89
# 	8.5”	5287m	
# #
# TEMPERATURES:
# 	Depth Driller	Logger	Temp	Log Type	Time since circ	Circ Time
# 	5287m	5234m	165.6 deg C	QAIT-HNGS	25.9 hrs	2.5 hrs
# 		5060m	165.6 deg C	MDT	55 hrs
# #
# MUD PROPERTIES:
# Depth (L)	Fluid Type	SG	Vis.	pH	Fl cc	Rm	Rmf	Rmc
#  5287m	Novatec SBM	1.57	81	na	3.6	Assumed infinite
# #
#
# ************************************************************
#    This LAS file was created by Occam Technology Pty. Ltd.
# The edit data contained herein are copyright property of
# Occam Technology Pty. Ltd. The data are licensed to the
# purchasing company and subsidiaries worldwide, and are NOT
# for on-copying to third parties.  We place no restriction on
# the distribution of plots generated from the digital data.
#
#    We supply the data on a 'best effort' basis.  We cannot
# control either the original data acquisition or the application
# of the data, and therefore we cannot be held responsible for
# the consequences of any interpretations based on the data.  We
# urge purchasers to apply normal quality control procedures to
# the data before use for any quantitative interpretative
# procedures.
# ************************************************************
~A      DEPT         GRD          RS          RD        RHOB        TNPH        DTCO        DTSM        HDAR
# ...
   5133.0000     88.4425     10.2629      9.8302   -999.2500   -999.2500     63.6698    115.6186      8.5846
   5133.5000     91.5942     10.4879     10.2518   -999.2500   -999.2500     62.7382    114.7936      8.5846
   5134.0000     89.6029     11.1882     10.9244   -999.2500   -999.2500     60.6180    111.2037      8.5624
   5134.5000     76.2912     14.7180     14.5754   -999.2500   -999.2500     59.9296    108.4677      8.5846
   5135.0000     73.3661     18.0076     17.3573   -999.2500   -999.2500     54.9153    103.1049      8.5846
   5135.5000     42.3210     31.9030     28.2368   -999.2500   -999.2500     55.2467    104.5993      8.5846
   5136.0000     47.6686     21.6910     21.8520   -999.2500   -999.2500     55.3419    106.5411      8.5846
   5136.5000     68.1041     16.8281     16.9895   -999.2500   -999.2500     55.5911    107.8489      8.5846
   5137.0000     30.1922     25.5498     23.4967   -999.2500   -999.2500     56.5316    110.2653      8.6067
   5137.5000     74.6838     11.1737     11.6703   -999.2500   -999.2500     58.7775    109.6538      8.5624
   5138.0000     74.0055     15.7209     16.2589   -999.2500   -999.2500     56.8917    107.7702      8.5846
   5138.5000     71.8933     20.1336     19.7044   -999.2500   -999.2500     52.0791    103.6119      8.6067
   5139.0000     30.1961     57.2453     39.4292   -999.2500   -999.2500     53.9520    110.6680      8.5624
   5139.5000     24.7128     39.0194     31.2565   -999.2500   -999.2500     60.4808    133.4484      8.5846
   5140.0000     55.6516     18.5992     17.4057   -999.2500   -999.2500     61.4372    123.3628      8.5846
   5140.5000     79.6750      9.0114      9.0029   -999.2500   -999.2500     63.3044    117.8824      8.5846
   5141.0000     77.2005      8.9030      8.5771   -999.2500   -999.2500     63.2268    117.7998      8.5846
   5141.5000     98.3220      8.1329      8.0071   -999.2500   -999.2500     63.2384    117.6254      8.6067
   5142.0000     87.0539      8.9859      8.8949   -999.2500   -999.2500     61.5242    116.4928      8.6288
   5142.5000     75.7527     10.9568     11.3607   -999.2500   -999.2500     57.1709    111.6973      8.5846
   5143.0000     83.4264     13.4668     14.0214   -999.2500   -999.2500     54.0329    103.2745      8.5846
   5143.5000     39.0469     33.1224     30.5851   -999.2500   -999.2500     59.8723    105.0483      8.5846
   5144.0000     40.0219     40.2157     36.5718   -999.2500   -999.2500     59.8723    135.5087      8.5846
   5144.5000     50.0474     32.1491     32.1242   -999.2500   -999.2500     65.2757    135.5087      8.6288
   5145.0000     34.6896     46.9285     40.3393   -999.2500   -999.2500     65.2757    122.8747      8.5846
   5145.5000     37.0824     31.0902     27.4636   -999.2500   -999.2500     65.3396    122.5577      8.5846
   5146.0000     71.5570     15.0959     14.8643   -999.2500   -999.2500     65.3431    122.8213      8.6067
   5146.5000     88.5669      8.9820      9.0525   -999.2500   -999.2500     65.3537    122.7946      8.5846
   5147.0000     87.5619      7.5177      7.2989   -999.2500   -999.2500     65.3732    122.7532      8.5846
   5147.5000     86.4308      7.2478      7.1056   -999.2500   -999.2500     65.9719    124.6292      8.5846
   5148.0000     93.6110      6.4100      6.3931   -999.2500   -999.2500     66.3663    122.7576      8.6067
   5148.5000     94.9037      6.9176      6.9311   -999.2500   -999.2500     61.2659    116.4820      8.5846
   5149.0000     85.2293      9.9294      9.9993   -999.2500   -999.2500     61.1466    113.3225      8.6067
   5149.5000     48.4426     25.1749     23.0347   -999.2500   -999.2500     56.4118    107.1876      8.5846
   5150.0000     37.6978     47.5180     38.7708   -999.2500   -999.2500     52.4530     97.5167      8.6288
   5150.5000     34.2635     62.8194     48.6083   -999.2500   -999.2500     52.4925     97.6376      8.5846
   5151.0000     42.5788     45.7981     38.1909   -999.2500   -999.2500     53.6989     99.6331      8.5846
   5151.5000     41.9322     30.9026     28.5037   -999.2500   -999.2500     57.5238    104.0567      8.5846
   5152.0000     81.4305     14.2548     14.5403   -999.2500   -999.2500     60.1516    109.1219      8.5846
   5152.5000     78.4656     13.8889     13.8606   -999.2500   -999.2500     60.2405    109.0855      8.5846
   5153.0000     61.5126     18.5065     17.3134   -999.2500   -999.2500     58.5036    107.5018      8.6067
   5153.5000     66.0526     19.0882     18.1515   -999.2500   -999.2500     58.1101    106.3896      8.5846
   5154.0000     64.0288     20.6515     19.7823   -999.2500   -999.2500     57.7195    104.8107      8.5846
   5154.5000     59.3862     22.5774     21.1028   -999.2500   -999.2500     59.0265    107.0340      8.6067
   5155.0000     69.0581     17.0176     16.3872   -999.2500   -999.2500     59.0265    109.0376      8.5846
   5155.5000     86.5693     11.3973     11.1263   -999.2500   -999.2500     60.0187    108.6166      8.6067
   5156.0000     87.3910     10.6849     10.5195   -999.2500   -999.2500     61.1846    110.2692      8.6067
   5156.5000     78.6157     11.2111     11.0935   -999.2500   -999.2500     62.1848    112.1195      8.6067
   5157.0000     89.4992     10.2669     10.0536   -999.2500   -999.2500     61.3458    111.3816      8.6067
   5157.5000     70.6338     13.9729     13.8509   -999.2500   -999.2500     59.1649    109.5007      8.5846
   5158.0000     77.4503     17.1448     16.8284   -999.2500   -999.2500     56.8549    104.7549      8.5846
   5158.5000     40.9467     34.8701     30.8420   -999.2500   -999.2500     55.2620    101.5601      8.6067
   5159.0000     38.5398     41.6215     35.7818   -999.2500   -999.2500     53.9617    100.4425      8.5846
   5159.5000     51.5310     32.2046     29.7757   -999.2500   -999.2500     54.0320    100.5382      8.6067
   5160.0000     63.0417     21.7945     22.5945   -999.2500   -999.2500     54.9353    102.7780      8.5846
   5160.5000     67.5042     19.5542     20.9495   -999.2500   -999.2500     54.5134    101.3802      8.6067
   5161.0000     34.1257     50.8736     47.3316   -999.2500   -999.2500     50.9268     98.6203      8.6067
   5161.5000     31.5901    188.5666    121.4281   -999.2500   -999.2500     50.1127     95.9414      8.6067
   5162.0000     33.4261    339.0137    198.5702   -999.2500   -999.2500     49.9814     95.6507      8.6067
   5162.5000     32.6218    305.0974    204.1154   -999.2500   -999.2500     50.4256     95.6013      8.6067
   5163.0000     35.8672    154.5437    132.1439   -999.2500   -999.2500     50.6714     96.4348      8.6067
   5163.5000     33.3182     97.9477    101.0358   -999.2500   -999.2500     51.2625     99.1332      8.6288
   5164.0000     48.9269     68.5233     71.0687   -999.2500   -999.2500     51.4963     98.7569      8.6067
   5164.5000     30.8197    142.0516    100.8543   -999.2500   -999.2500     49.6437     95.5600      8.5846
   5165.0000     31.8831     81.4658     49.9910   -999.2500   -999.2500     50.8777    102.3888      8.5846
   5165.5000     29.3258     26.5514     23.9407   -999.2500   -999.2500     52.8459    107.8711      8.6067
   5166.0000    125.9951      6.3890      6.9073   -999.2500   -999.2500     58.0243    114.8721      8.5846
   5166.5000     67.4629     17.7961     17.0367   -999.2500   -999.2500     66.0861    126.9590      8.5846
   5167.0000     40.2904     24.4310     22.1267   -999.2500   -999.2500     65.3036    124.9269      8.5846
   5167.5000     30.4995     68.6142     46.4865   -999.2500   -999.2500     59.8595    116.0200      8.5846
   5168.0000     30.3688    118.6344     73.2964   -999.2500   -999.2500     50.3797     98.7949      8.6067
   5168.5000     33.5411     79.9975     71.4628   -999.2500   -999.2500     51.9905     98.2967      8.6067
   5169.0000     39.6279     56.8407     55.4474   -999.2500   -999.2500     52.9066    100.4415      8.5846
   5169.5000     36.2808     55.0247     52.0032   -999.2500   -999.2500     53.1140    100.8358      8.6067
