~Version Information
 VERS.           2.0     :   CWLS log ASCII Standard -VERSION 2.0
 WRAP.           NO      :   One line per depth step
~Well Information
#MNEM.UNIT      VALUE/NAME              DESCRIPTION
#--------     --------------            ---------------------
 STRT.M           508.0000              :START DEPTH
 STOP.M          5279.5000              :STOP DEPTH
 STEP.M             0.5000              :STEP
 NULL.             -999.25              :NULL VALUE
 COMP.    ConocoPhillips                :COMPANY
 WELL.    Poseidon North 1              :WELL
 FLD .    Exploration                   :FIELD
 LOC .                                  :LOCATION
 PROV.                                  :PROVINCE
 SRVC.    Schlumberger                  :SERVICE COMPANY
 CTRY.                                  :COUNTRY
 DATE.    05/20/2014                    :LOG DATE
 UWI .                                  :UNIQUE WELL ID
 LATI.DEG -13/34/24.825                  : Latitude
 LONG.DEG 122/20/24.556                 : Longitude
 GDAT.                                  : Geodetic Datum
~PARAMETER INFORMATION
~CURVE INFORMATION
#MNEM    .UNIT     API CODE             Curve Description
 DEPT    .M                             :   Along hole depth
 GRD     .gAPI                          :   Gamma Ray
 RS      .ohm.m                         :   (RM)    (ARC[1])                (6in)                   Phase Shift Resistivity 22 inch Spacing at 2 MHz, Environmentally Corrected.
 RD      .ohm.m                         :   (RM)    (ARC[1])                (6in)                   Phase Shift Resistivity 34 inch Spacing at 2 MHz, Environmentally Corrected.
 RHOB    .g/cm3                         :   (RM)    (ADN[1])                (6in)                   Bulk Density
 TNPH    .pu                            :   (RM)    (ADN[1])                (6in)                   Thermal Neutron Porosity (Ratio Method) in Selected Lithology
 DTCO    .us/ft                         :   Delta-T Compressional
 DTSM    .us/ft                         :   Delta-T Shear
 HDAR    .in                            :   Hole Diameter from Area
#
# Curve              Start        Stop     Minimum     Maximum
# ------------------------------------------------------------
#
# GRD             508.0000   5279.5000      3.5346    204.6889
# RS              568.5000   5279.5000      0.1925    487.9586
# RD              568.5000   5279.5000      0.1945    316.2479
# RHOB           3782.0000   4931.5000      1.9495      3.5107
# TNPH           3780.5000   4931.5000      6.2988     68.6649
# DTCO           3677.0000   5250.0000     48.6167    124.5370
# DTSM           3804.5000   5250.0000     85.6802    273.5039
# HDAR           3808.0000   5273.5000      8.3409     17.3339
# ******************************
# #
# DEVIATION SURVEY:	(Schlumberger)		Definitive Survey
#	Depth	Dev (deg)	Azimuth (deg)	Depth	Dev (deg)	Azimuth (deg)
#	508.3m	0.00	0.00	535.0m	0.51	175.26
#	567.0m	0.46	159.23	632.3m	0.50	124.18
#	690.2m	0.36	105.64	718.4m	0.30	104.70
#	747.0m	0.22	100.37	833.2m	0.12	92.39
#	862.3m	0.14	89.88	948.6m	0.09	77.24
#	1034.5m	0.21	61.94	1120.7m	0.43	72.74
#	1178.5m	0.55	94.45	1234.9m	0.84	96.85
#	1264.2m	1.11	104.58	1293.6m	1.37	101.48
#	1322.8m	1.51	87.02	1353.0m	1.76	69.73
#	1412.0m	1.26	53.07	1440.7m	1.13	48.89
#	1469.3m	0.97	55.84	1497.6m	1.03	53.67
#	1526.2m	0.92	59.74	1554.4m	0.82	58.53
#	1583.8m	0.75	60.20	1641.9m	0.66	59.63
#	1670.7m	0.75	60.62	1698.0m	0.69	57.52
#	1725.9m	0.67	57.15	1754.8m	0.32	52.85
#	1783.6m	0.81	146.83	1812.6m	1.47	161.88
#	1841.3m	1.64	163.20	1870.0m	1.76	163.52
#	1899.8m	1.79	177.44	1927.8m	1.29	184.32
#	1957.9m	1.72	185.24	1986.4m	1.87	187.31
#	2016.7m	1.89	185.97	2045.2m	1.80	187.62
#	2073.8m	1.81	185.62	2102.3m	1.83	186.20
#	2130.6m	1.79	187.06	2159.6m	1.78	184.95
#	2189.6m	1.85	185.18	2218.1m	1.85	184.70
#	2246.2m	1.81	184.66	2274.6m	1.82	181.40
#	2303.7m	1.76	181.56	2331.2m	1.76	183.12
#	2360.1m	1.77	183.23	2389.2m	1.78	181.43
#	2429.8m	1.81	178.67	2453.0m	1.78	181.70
#	2490.3m	1.75	186.73	2519.1m	1.74	190.18
#	2577.7m	1.34	193.07	2606.3m	1.34	194.30
#	2634.8m	1.43	194.62	2663.0m	1.49	196.08
#	2691.9m	1.52	191.72	2720.5m	1.41	196.99
#	2749.1m	1.30	192.26	2778.8m	1.33	197.61
#	2807.5m	1.18	197.33	2836.7m	1.13	193.60
#	2865.4m	1.01	194.63	2894.6m	1.02	201.33
#	2923.5m	0.87	193.21	2952.2m	0.92	194.81
#	2979.9m	0.79	197.44	3007.9m	0.71	189.93
#	3039.2m	0.62	204.55	3068.6m	0.38	211.96
#	3098.5m	0.64	224.56	3126.6m	0.95	223.07
#	3154.6m	0.84	235.70	3185.2m	0.78	238.33
#	3212.8m	0.76	226.49	3242.0m	0.64	244.70
#	3272.3m	0.59	246.79	3300.2m	0.57	235.82
#	3327.8m	0.59	264.08	3357.0m	0.61	267.57
#	3388.0m	0.41	270.93	3443.1m	0.26	299.95
#	3474.8m	0.43	301.03	3500.7m	0.47	288.64
#	3531.2m	0.29	300.47	3558.2m	0.41	316.53
#	3588.3m	0.55	309.28	3617.9m	0.51	307.43
#	3648.0m	0.46	340.11	3676.0m	0.35	315.45
#	3703.6m	0.43	300.04	3730.9m	0.34	326.82
#	3751.3m	0.17	271.57	3780.6m	0.09	301.36
#	3814.8m	0.29	187.90	3828.0m	0.42	183.54
#	3858.7m	0.35	156.45	3888.1m	0.72	141.78
#	3916.0m	0.93	151.39	3944.8m	1.30	136.05
#	3973.2m	1.99	136.59	4001.6m	2.33	140.24
#	4028.8m	2.82	136.91	4057.0m	3.00	139.76
#	4117.2m	2.72	150.07	4147.1m	2.18	148.78
#	4176.6m	1.90	141.66	4205.2m	1.35	129.99
#	4234.2m	0.98	109.72	4261.7m	0.87	84.30
#	4291.0m	1.20	72.60	4320.5m	0.67	70.91
#	4348.8m	0.56	71.19	4376.7m	0.42	56.80
#	4404.4m	0.30	20.79	4433.2m	0.31	341.16
#	4462.6m	0.26	334.54	4521.8m	0.92	284.18
#	4552.1m	1.66	297.93	4580.0m	1.95	318.44
#	4606.9m	2.21	336.83	4636.2m	2.24	345.69
#	4664.8m	2.50	352.22	4693.7m	2.79	352.27
#	4723.0m	2.96	347.28	4753.0m	3.12	334.48
#	4782.4m	3.27	329.12	4811.3m	3.87	326.41
#	4838.8m	4.07	319.63	4866.5m	4.23	317.95
#	4895.6m	4.63	317.81	4927.1m	4.57	312.59
#	4955.7m	3.99	310.09	4983.3m	3.37	308.64
#	5009.6m	2.66	307.75	5040.2m	2.81	307.39
#	5069.7m	3.03	298.46	5100.5m	3.88	292.76
#	5126.7m	3.99	297.59	5157.5m	4.00	296.72
#	5186.1m	4.23	299.71	5213.0m	3.84	304.22
#	5242.0m	3.97	301.56	5265.7m	4.07	299.21
#	5287.0m	4.07	299.21
#
# VELOCITY SURVEY:	No checkshot survey run
# 
# ************************************************************
#
# #
# LOCN 	LAT:	13o 34' 24.825" S			WELL NAME:	Poseidon North 1	
# 	LONG:	122o 20' 24.556" E
# 	EASTING:	428611.91m E	NORTHING: 	8499338.27m N	ZONE:	51	GDA 94
# SEISMIC SURV:	Poseidon 3D	INLINE:  3600	XLINE: 2250	STATUS:	P & A
# ELEVN SF:	- 486.0m MSL 	DATUM RT:	22.0m	OPERATOR:	ConocoPhillips
# BASIN:		Browse	TOTAL D:	5287m	PARTNERS:	Karoon, PetroChina
# SPUD DATE:	19/03/2014	COMPLN DATE:	18/05/2014	LEASE:	WA-315-P
# TARGET:	Montara & Plover Fms, seismic closure	DRILLER:	Transocean
# DATA SOURCE:	WCR (Basic), logs			RIG:	Legend
# #
# HOLE AND CASING DATA:
# 	Hole 	Hole	Casing	Casing 	Weight	Grade	Joints	Cement	TOC
# 	Size	Depth	Size	Depth	lb/ft
# 	36”	568.3m	30”	568m	456 / 310	X-52	2 / 3	221 sx G at SG 1.5	
# 								1118 sx G at SG 1.9
# 								225 sx G at SG 1.9 	Grouted
# 	17.5”	2459m	13 3/8”	2453m	72	P-110	160	1734 sx G at SG 1.44
# 								486 sx G at SG 1.9
# 	12.25”	3820m	9 5/8”	3814.8m	53.5	P-110	267	469 sx HTB at SG 1.89
# 	8.5”	5287m	
# #
# TEMPERATURES:
# 	Depth Driller	Logger	Temp	Log Type	Time since circ	Circ Time
# 	5287m	5234m	165.6 deg C	QAIT-HNGS	25.9 hrs	2.5 hrs
# 		5060m	165.6 deg C	MDT	55 hrs
# #
# MUD PROPERTIES:
# Depth (L)	Fluid Type	SG	Vis.	pH	Fl cc	Rm	Rmf	Rmc
#  5287m	Novatec SBM	1.57	81	na	3.6	Assumed infinite
# #
#
# ************************************************************
#    This LAS file was created by Occam Technology Pty. Ltd.
# The edit data contained herein are copyright property of
# Occam Technology Pty. Ltd. The data are licensed to the
# purchasing company and subsidiaries worldwide, and are NOT
# for on-copying to third parties.  We place no restriction on
# the distribution of plots generated from the digital data.
#
#    We supply the data on a 'best effort' basis.  We cannot
# control either the original data acquisition or the application
# of the data, and therefore we cannot be held responsible for
# the consequences of any interpretations based on the data.  We
# urge purchasers to apply normal quality control procedures to
# the data before use for any quantitative interpretative
# procedures.
# ************************************************************
~A      DEPT         GRD          RS          RD        RHOB        TNPH        DTCO        DTSM        HDAR
# ...
   4948.0000    139.1319      5.0731      5.0017   -999.2500   -999.2500     71.4012    130.9596      8.4960
   4948.5000    136.4546      5.1160      5.0395   -999.2500   -999.2500     69.3644    125.3058      8.4960
   4949.0000    132.6684      5.0087      4.9643   -999.2500   -999.2500     69.1129    128.3474      8.4960
   4949.5000    136.7023      5.1625      5.0859   -999.2500   -999.2500     67.6308    131.9034      8.4960
   4950.0000    133.6403      6.3248      6.1290   -999.2500   -999.2500     60.9968    137.2374      8.4960
   4950.5000    129.6306      6.7601      6.4629   -999.2500   -999.2500     69.2490    139.0154      8.4960
   4951.0000    123.2580      6.7692      6.6743   -999.2500   -999.2500     69.8919    144.2612      8.4960
   4951.5000    134.2383      5.2778      5.3916   -999.2500   -999.2500     69.8950    144.2814      8.4960
   4952.0000     96.2876      7.8957      7.7072   -999.2500   -999.2500     69.8966    144.2827      8.4960
   4952.5000     71.3145     14.6861     13.2508   -999.2500   -999.2500     77.4350    148.1786      8.5403
   4953.0000     97.7561     10.2188      9.6842   -999.2500   -999.2500     76.5969    147.4885      8.4960
   4953.5000    118.9372      7.0303      7.0402   -999.2500   -999.2500     76.5969    147.4885      8.4960
   4954.0000    126.4647      4.3851      4.3127   -999.2500   -999.2500     76.3512    143.5159      8.4960
   4954.5000    139.1812      3.5902      3.5529   -999.2500   -999.2500     77.8199    157.4343      8.4960
   4955.0000    135.5213      3.1131      3.0743   -999.2500   -999.2500     77.8199    157.4343      8.4960
   4955.5000    144.6429      2.7787      2.7550   -999.2500   -999.2500     78.0513    162.7226      8.5403
   4956.0000    141.8969      3.2006      3.1392   -999.2500   -999.2500     78.0533    162.7524      8.5181
   4956.5000    136.3171      3.6565      3.5837   -999.2500   -999.2500     78.0537    162.8229      8.4960
   4957.0000    127.4933      3.3417      3.3098   -999.2500   -999.2500     67.9358    148.2918      8.5181
   4957.5000    146.0573      2.8766      2.8520   -999.2500   -999.2500     67.9358    148.2918      8.5181
   4958.0000    138.1946      2.9931      2.9512   -999.2500   -999.2500     67.3355    127.5753      8.5181
   4958.5000    154.3165      2.7023      2.6493   -999.2500   -999.2500     67.3253    127.5799      8.5403
   4959.0000    156.2379      2.3419      2.3199   -999.2500   -999.2500     67.3197    127.5060      8.5403
   4959.5000    157.9290      2.1865      2.1417   -999.2500   -999.2500     67.3261    127.4776      8.5181
   4960.0000    148.9483      2.1687      2.1395   -999.2500   -999.2500     67.3114    127.5313      8.5403
   4960.5000    152.2211      2.1964      2.1883   -999.2500   -999.2500     67.2815    127.4592      8.5181
   4961.0000    129.2963      2.7081      2.6980   -999.2500   -999.2500     67.1074    124.8438      8.5181
   4961.5000     97.4664      5.4549      5.2491   -999.2500   -999.2500     65.8370    124.5527      8.5403
   4962.0000     80.3959      7.2836      6.9670   -999.2500   -999.2500     65.7037    132.7549      8.5403
   4962.5000    108.1398      5.3220      5.4889   -999.2500   -999.2500     64.2310    131.3987      8.5403
   4963.0000     93.2511      6.2557      6.1944   -999.2500   -999.2500     67.2070    137.3902      8.5624
   4963.5000     81.0567      8.1931      7.7466   -999.2500   -999.2500     76.2000    154.5203      8.5403
   4964.0000     84.9351      6.0707      5.6664   -999.2500   -999.2500     78.9867    150.8855      8.5403
   4964.5000     99.9279      3.3364      3.3572   -999.2500   -999.2500     72.3782    141.2596      8.5403
   4965.0000    133.5805      2.2143      2.2264   -999.2500   -999.2500     70.3010    135.4706      8.5181
   4965.5000    100.2008      4.2747      4.1692   -999.2500   -999.2500     71.5495    151.1638      8.5403
   4966.0000    111.0767      4.1807      4.0106   -999.2500   -999.2500     72.5730    147.8545      8.5403
   4966.5000    109.0650      4.1627      4.0741   -999.2500   -999.2500     73.9245    144.8195      8.5403
   4967.0000    123.3049      3.3271      3.2712   -999.2500   -999.2500     75.4081    148.6666      8.5403
   4967.5000    124.7173      3.1636      3.1159   -999.2500   -999.2500     75.7284    155.9014      8.5403
   4968.0000    124.8430      2.9472      2.9996   -999.2500   -999.2500     73.1062    148.0819      8.5403
   4968.5000    136.8062      2.9700      2.8973   -999.2500   -999.2500     68.9867    135.8151      8.5403
   4969.0000    108.4440      5.2845      5.2992   -999.2500   -999.2500     68.9867    135.8151      8.5403
   4969.5000    138.6357      3.6885      3.6012   -999.2500   -999.2500     68.9867    135.8151      8.5403
   4970.0000    146.1310      3.3288      3.3568   -999.2500   -999.2500     68.9867    126.1072      8.5403
   4970.5000    136.9946      3.3236      3.2802   -999.2500   -999.2500     68.5504    126.2622      8.5624
   4971.0000    103.1099      5.5937      5.4166   -999.2500   -999.2500     68.5496    126.7145      8.5403
   4971.5000    119.9953      5.0514      4.8760   -999.2500   -999.2500     68.5497    126.9284      8.6067
   4972.0000    124.5163      4.0018      3.9420   -999.2500   -999.2500     68.5340    126.1414      8.5624
   4972.5000    139.5647      3.3049      3.2800   -999.2500   -999.2500     68.5277    126.0851      8.5624
   4973.0000    130.2888      3.7113      3.6507   -999.2500   -999.2500     68.5344    126.8217      8.5624
   4973.5000    100.2956      5.6758      5.4773   -999.2500   -999.2500     68.5299    126.7552      8.5624
   4974.0000    113.2631      4.7501      4.6842   -999.2500   -999.2500     68.0422    126.2815      8.5403
   4974.5000    121.5089      4.7846      4.7631   -999.2500   -999.2500     67.6279    125.1261      8.5403
   4975.0000    103.3733      6.1647      5.9582   -999.2500   -999.2500     67.2743    127.2210      8.5624
   4975.5000    111.0955      5.2078      5.0979   -999.2500   -999.2500     68.1131    137.2329      8.5624
   4976.0000    118.9426      4.1321      4.0700   -999.2500   -999.2500     73.3930    147.0384      8.5403
   4976.5000    134.2349      3.5802      3.5648   -999.2500   -999.2500     71.9422    144.6911      8.5403
   4977.0000    128.5585      3.5535      3.4314   -999.2500   -999.2500     71.9210    153.5116      8.5403
   4977.5000    118.7860      3.9650      3.7995   -999.2500   -999.2500     78.2506    161.0009      8.5403
   4978.0000    132.1317      3.1082      2.9989   -999.2500   -999.2500     82.3283    173.3615      8.5403
   4978.5000    162.8452      1.8938      1.8798   -999.2500   -999.2500     84.7841    177.3000      8.5403
   4979.0000    161.8686      1.8965      1.8648   -999.2500   -999.2500     84.7770    175.8121      8.5403
   4979.5000    158.6252      1.8084      1.7701   -999.2500   -999.2500     84.9117    170.5337      8.5181
   4980.0000    146.3477      1.8418      1.7922   -999.2500   -999.2500     84.4241    166.2584      8.5181
   4980.5000    155.0165      1.8892      1.8747   -999.2500   -999.2500     81.2965    155.4085      8.5181
   4981.0000    154.6031      2.0301      2.0470   -999.2500   -999.2500     70.6294    133.4803      8.5403
   4981.5000     69.5372     10.1760      9.5806   -999.2500   -999.2500     65.8717    116.8961      8.5181
   4982.0000     73.8639     14.1190     12.6154   -999.2500   -999.2500     61.2156    111.1068      8.5181
   4982.5000     82.3792     11.1716     10.9088   -999.2500   -999.2500     63.7622    113.9593      8.5181
   4983.0000     94.4500      7.7761      7.8590   -999.2500   -999.2500     64.9013    119.0486      8.5181
   4983.5000     98.3079      6.9142      6.8036   -999.2500   -999.2500     65.5865    121.0849      8.5181
   4984.0000     94.0258      6.7917      6.5577   -999.2500   -999.2500     66.5059    118.8295      8.5181
   4984.5000    130.1295      4.0198      3.9789   -999.2500   -999.2500     80.0174    153.1524      8.5181
