~Version Information
 VERS.           2.0     :   CWLS log ASCII Standard -VERSION 2.0
 WRAP.           NO      :   One line per depth step
~Well Information
#MNEM.UNIT      VALUE/NAME              DESCRIPTION
#--------     --------------            ---------------------
 STRT.M           579.5000              :START DEPTH
 STOP.M          5115.5000              :STOP DEPTH
 STEP.M             0.5000              :STEP
 NULL.             -999.25              :NULL VALUE
 COMP.    ConocoPhillips                :COMPANY
 WELL.    Poseidon 1                    :WELL
 FLD .    Exploration                   :FIELD
 LOC .                                  :LOCATION
 PROV.                                  :PROVINCE
 SRVC.    Schlumberger D&M              :SERVICE COMPANY
 CTRY.                                  :COUNTRY
 DATE.    28-Apr-09                     :LOG DATE
 UWI .                                  :UNIQUE WELL ID
 LATI.DEG -13/37/16.79                   : Latitude
 LONG.DEG 122/18/23.99                  : Longitude
 GDAT.                                  : Geodetic Datum
~PARAMETER INFORMATION
~CURVE INFORMATION
#MNEM    .UNIT     API CODE             Curve Description
 DEPT    .M                             :   Along hole depth
 ECGR    .gAPI                          :   EDTC Corrected Gamma-Ray
 ATRX    .ohm.m                         :   Array Induction Two Foot Rxo
 ATRT    .ohm.m                         :   Array Induction Two Foot Rt
 NPHI    .pu                            :   Thermal Neutron Porosity (Ratio Method)
 CAL1    .in                            :   Caliper 1
 HDAR    .in                            :   Hole Diameter from Area
 HROM    .g/cm3                         :   LDS High Resolution Corrected Bulk Density
 DTSM    .us/ft                         :   Delta-T Shear
 DTCO    .us/ft                         :   Delta-T Compressional
#
# Curve              Start        Stop     Minimum     Maximum
# ------------------------------------------------------------
#
# ECGR            904.0000   5108.0000      5.0321    198.6361
# ATRX            579.5000   5114.0000      0.1100   1950.0000
# ATRT            579.5000   5114.0000      0.1803   1950.0000
# NPHI           3858.0000   5104.5000      1.0400     50.1900
# CAL1           3845.0000   5003.0000      4.5412     12.7663
# HDAR           3884.0000   5110.0000      5.8056     12.6868
# HROM           3887.0000   5115.0000      1.4423      3.0358
# DTSM           4395.0000   4974.0000     83.2234    221.9217
# DTCO           4395.0000   4974.0000     51.4416    111.5382
# ******************************
# 
# ************************************************************
#
# #
# LOCN 	LAT:	13o 37' 16.79" S			WELL NAME:	Poseidon 1
# 	LONG:	122o 18' 23.99" E
# 	EASTING:	425055.467m E	NORTHING: 	8493875.264m N	ZONE:	51	GDA 94
# SHOT POINT:		SEISMIC LINE:		STATUS:	P & A
# SEISMIC SURVEY:		INLINE:	XLINE:
# ELEVN SF:	494.0m	DATUM KB:	26.4m	OPERATOR:	ConocoPhillips
# BASIN :		Browse	TOTAL D:	5112.1m	PARTNERS:	Karoon
# SPUD DATE:	26/01/2009	COMPLN DATE:	29/05/2009	LEASE:	WA-315-P
# TARGET:	Plover SS			DRILLER:	Transocean
# DATA SOURCE:	WCR, logs			RIG:	Sedco 703
# #
# HOLE AND CASING DATA:
# 	Hole 	Hole	Casing	Casing 	Weight	Grade	Joints	Cement	TOC
# 	Size	Depth	Size	Depth	lb/ft
# 	36”	581.8m	30”	578m	310	X-52	5	1105 sx G at SG 1.9	Seafloor
# 								185 sx G at SG 1.9 – top up
# 	17.5”	2296m	13 3/8”	2287.5m	72	P-110	143	688 sx G at SG 1.5
# 								500 sx G at SG 1.9
# 	12.25”	3898m	9 5/8”	3890.8m	53.5	P-110	274	202 sx G at SG 1.62	
# 								133 sx G at SG 1.98
# 	9.5”	3965m	7 5/8”	3957m	30.5	EX-80	14	
# 	8.5”	4588m	7”	4587.5m	32 / 29	P110/L80	47/20	213 sx G at SG 1.9
# 	6”	5112.1m	5”	5088.4m	18	P-110	72	116 sx G at SG 1.9
# #
# TEMPERATURES:
# 	Depth Driller	Logger	Temp	Log Type	Time since circ	Circ Time
# 	3965m	3960m	104 deg C	FMI	22.78 hrs	2.5 hrs
# 	5112.1m	5118m	160 deg C	CMR	22.83 hrs
# 			162 deg C	HNGS	36.17 hrs
# 		4990m	165 deg c	Sonic Scanner	47.47 hrs
# #
# MUD PROPERTIES:
# Depth (L)	Fluid Type	SG	Vis.	pH	Fl cc	Rm	Rmf	Rmc
# 3965m	KCl-Polymer	1.29				0.167 at 18.6 deg C	0.244 at 17.8 deg C	0.261 at 18 deg C
# 		KCl	6%	Barite 	7.5%
# 5112.1m	Novatec SBM	1.20			3.6	
# 				Barite	10.3%
# #
#
# DEVIATION SURVEY:		(Schlumberger)
#	Depth	Dev (deg)	Azimuth (deg)	Depth	Dev (deg)	Azimuth (deg)
#	0.0m	0.00	0.00	520.5m	0.00	0.00
#	527.6m	0.39	259.27	552.8m	1.09	19.41
#	607.9m	0.33	161.06	636.3m	0.28	157.46
#	666.2m	0.42	156.27	723.3m	0.49	158.80
#	752.4m	0.76	145.50	811.0m	0.69	144.79
#	868.3m	0.66	149.14	897.2m	0.66	152.38
#	926.2m	0.53	150.70	1013.9m	0.64	144.22
#	1100.8m	0.45	222.81	1130.8m	0.53	244.07
#	1187.1m	0.69	231.27	1215.1m	0.65	232.48
#	1243.9m	0.64	288.99	1272.6m	0.63	304.63
#	1300.8m	0.62	311.48	1329.9m	0.16	285.18
#	1359.0m	0.11	292.17	1386.3m	0.31	331.80
#	1416.5m	0.53	355.63	1447.1m	0.61	2.60
#	1474.7m	0.94	7.68	1505.2m	1.01	358.08
#	1534.9m	0.92	345.86	1563.8m	0.61	5.17
#	1592.2m	0.76	17.60	1622.0m	0.60	20.84
#	1650.2m	0.65	36.42	1763.9m	0.60	51.71
#	1821.4m	0.46	44.49	1850.5m	0.79	49.16
#	1908.9m	0.96	36.49	1939.6m	0.58	13.70
#	1959.8m	0.13	322.88	2044.1m	0.34	243.01
#	2073.4m	0.44	233.00	2101.7m	0.51	240.40
#	2131.7m	0.50	252.10	2189.0m	0.49	257.69
#	2246.1m	0.42	251.29	2269.4m	0.43	247.24
#	2313.9m	0.33	207.85	2341.6m	0.20	199.21
#	2369.9m	0.15	229.33	2398.5m	0.14	219.45
#	2427.2m	0.22	182.60	2456.2m	0.23	217.52
#	2486.6m	0.30	200.91	2516.1m	0.34	250.17
#	2599.5m	0.23	257.73	2656.6m	0.37	259.03
#	2685.9m	0.36	244.41	2714.4m	0.33	247.01
#	2743.5m	0.44	264.65	2772.9m	0.36	248.49
#	2802.7m	0.49	249.47	2829.7m	0.46	254.82
#	2887.1m	0.37	245.00	2916.6m	0.30	229.13
#	2946.6m	0.14	227.49	3004.8m	0.20	234.38
#	3062.1m	0.52	223.74	3090.7m	0.51	219.43
#	3120.9m	0.47	216.60	3150.2m	0.49	219.95
#	3178.9m	0.44	222.75	3206.5m	0.40	211.30
#	3235.7m	0.35	217.26	3265.7m	0.49	214.66
#	3322.4m	0.35	211.44	3350.4m	0.36	212.61
#	3379.8m	0.35	230.18	3409.2m	0.34	230.92
#	3494.2m	0.34	231.38	3557.7m	0.29	277.76
#	3668.7m	0.32	324.77	3698.3m	0.43	340.30
#	3729.8m	0.45	340.13	3756.5m	0.39	332.45
#	3815.7m	0.44	309.71	3873.0m	0.59	285.30
#	4047.5m	4.76	321.71	4065.7m	5.39	333.06
#	4082.1m	6.39	336.20	4098.9m	7.73	337.83
#	4115.7m	9.43	344.07	4147.0m	12.37	344.49
#	4160.9m	13.41	345.79	4170.7m	13.89	349.54
#	4182.8m	14.27	348.89	4198.0m	15.83	349.61
#	4230.3m	13.55	353.68	4255.8m	12.41	353.57
#	4287.3m	11.70	355.88	4312.9m	11.40	355.42
#	4344.1m	10.54	354.84	4370.2m	10.32	356.38
#	4403.0m	10.25	3.71	4428.6m	10.50	359.63
#	4443.5m	9.94	359.87	4458.4m	10.08	1.47
#	4486.5m	9.71	359.12	4514.6m	9.26	359.81
#	4545.3m	9.64	0.67	4572.5m	9.26	356.64
#	4602.8m	8.97	350.43	4631.2m	8.70	344.94
#	4660.8m	8.34	342.12	4688.5m	8.14	338.90
#	4718.7m	8.30	333.76	4776.7m	8.03	335.31
#	4804.1m	7.88	336.68	4832.6m	7.95	337.54
#	4862.8m	7.84	339.39	4891.2m	7.71	338.67
#	4920.0m	8.19	338.17	4948.2m	8.48	335.94
#	4980.2m	8.19	335.87	5009.6m	7.89	329.96
#	5036.0m	7.84	329.96	5066.0m	7.78	329.28
#	5093.9m	7.52	327.67	5112.0m	7.52	327.67
#
# VELOCITY SURVEY:	(Schlumberger)		OWT, vertically corrected, relative to SRD (MSL)
#	Depth	TVD SS	OWT(sec)	Depth	TVD SS	OWT(sec)
#	29.3m	2.9m	0.0316	44.4m	18.0m	0.1682
#	59.5m	33.1m	0.3158	784.1m	757.7m	0.6576
#	799.2m	772.8m	0.6603	814.3m	787.9m	0.6620
#	829.5m	803.0m	0.6645	1744.4m	1717.9m	0.8235
#	1759.5m	1733.0m	0.8269	1774.6m	1748.2m	0.8303
#	1789.7m	1763.3m	0.8333	1804.9m	1778.5m	0.8364
#	1820.0m	1793.6m	0.8400	1835.2m	1808.7m	0.8433
#	1850.3m	1823.8m	0.8473	1865.4m	1838.9m	0.8510
#	1880.5m	1854.0m	0.8546	1895.6m	1869.1m	0.8584
#	1910.7m	1884.2m	0.8627	1925.8m	1899.3m	0.8666
#	1940.9m	1914.5m	0.8705	1956.1m	1929.6m	0.8744
#	1971.2m	1944.7m	0.8782	1986.4m	1959.9m	0.8816
#	2001.5m	1975.0m	0.8850	2016.7m	1990.2m	0.8885
#	2031.8m	2005.3m	0.8918	2046.8m	2020.3m	0.8953
#	2062.0m	2035.5m	0.8987	2077.1m	2050.6m	0.9018
#	2092.2m	2065.7m	0.9050	2107.3m	2080.8m	0.9080
#	2122.4m	2095.9m	0.9111	2137.6m	2111.1m	0.9138
#	2152.7m	2126.2m	0.9168	2167.8m	2141.3m	0.9196
#	2182.9m	2156.4m	0.9224	2198.1m	2171.6m	0.9253
#	2213.2m	2186.7m	0.9283	2228.3m	2201.8m	0.9313
#	2243.4m	2216.9m	0.9342	2258.6m	2232.1m	0.9371
#	2273.7m	2247.2m	0.9400	2288.8m	2262.4m	0.9430
#	2304.0m	2277.5m	0.9460	2319.1m	2292.6m	0.9488
#	2334.2m	2307.7m	0.9517	2349.2m	2322.7m	0.9545
#	2364.4m	2337.9m	0.9576	2379.5m	2353.0m	0.9605
#	2394.6m	2368.1m	0.9632	2409.6m	2383.1m	0.9661
#	2424.8m	2398.3m	0.9692	2439.9m	2413.4m	0.9724
#	2455.0m	2428.5m	0.9757	2470.2m	2443.7m	0.9795
#	2485.3m	2458.8m	0.9830	2500.4m	2473.9m	0.9865
#	2515.6m	2489.1m	0.9900	2530.7m	2504.2m	0.9937
#	2545.9m	2519.4m	0.9973	2561.0m	2534.5m	1.0010
#	2576.1m	2549.6m	1.0046	2591.2m	2564.7m	1.0080
#	2606.3m	2579.8m	1.0113	2621.5m	2595.0m	1.0147
#	2636.6m	2610.1m	1.0183	2651.6m	2625.1m	1.0215
#	2666.8m	2640.3m	1.0249	2681.9m	2655.4m	1.0285
#	2697.0m	2670.5m	1.0325	2712.1m	2685.6m	1.0361
#	2727.3m	2700.8m	1.0399	2742.4m	2715.9m	1.0434
#	2757.5m	2731.0m	1.0472	2772.6m	2746.1m	1.0510
#	2787.7m	2761.2m	1.0547	2802.8m	2776.3m	1.0582
#	2817.9m	2791.4m	1.0617	2833.0m	2806.5m	1.0651
#	2848.2m	2821.7m	1.0685	2863.3m	2836.8m	1.0718
#	2878.4m	2851.9m	1.0750	2893.6m	2867.1m	1.0781
#	2908.8m	2882.3m	1.0814	2914.1m	2887.6m	1.0824
#	2923.9m	2897.4m	1.0844	2929.2m	2902.7m	1.0855
#	2939.0m	2912.5m	1.0875	2944.4m	2917.8m	1.0887
#	2954.0m	2927.5m	1.0907	2959.5m	2933.0m	1.0921
#	2969.1m	2942.6m	1.0941	2984.3m	2957.8m	1.0975
#	2999.4m	2972.9m	1.1008	3014.5m	2988.0m	1.1040
#	3029.6m	3003.1m	1.1072	3044.8m	3018.3m	1.1103
#	3059.9m	3033.4m	1.1134	3075.1m	3048.5m	1.1165
#	3090.2m	3063.7m	1.1194	3105.3m	3078.8m	1.1224
#	3120.4m	3093.9m	1.1253	3135.6m	3109.0m	1.1284
#	3150.7m	3124.2m	1.1318	3165.8m	3139.3m	1.1352
#	3180.9m	3154.4m	1.1385	3196.0m	3169.5m	1.1420
#	3211.2m	3184.6m	1.1452	3226.3m	3199.8m	1.1486
#	3241.4m	3214.9m	1.1518	3256.4m	3229.9m	1.1550
#	3271.6m	3245.0m	1.1583	3286.7m	3260.2m	1.1618
#	3301.8m	3275.3m	1.1653	3316.9m	3290.4m	1.1690
#	3332.1m	3305.6m	1.1726	3347.2m	3320.7m	1.1767
#	3362.3m	3335.8m	1.1808	3377.4m	3350.9m	1.1849
#	3392.6m	3366.0m	1.1889	3407.7m	3381.2m	1.1926
#	3831.1m	3804.5m	1.2951	3846.2m	3819.6m	1.2989
#	3861.2m	3834.7m	1.3025	3876.3m	3849.8m	1.3067
#	3891.5m	3864.9m	1.3108	3906.6m	3880.0m	1.3154
#	3921.7m	3895.1m	1.3196	3936.8m	3910.2m	1.3245
#	3952.0m	3925.3m	1.3297	3967.1m	3940.4m	1.3350
#	3982.3m	3955.6m	1.3402	3997.4m	3970.7m	1.3452
#	4012.5m	3985.8m	1.3502	4027.6m	4000.9m	1.3552
#	4042.6m	4015.9m	1.3603	4057.8m	4031.0m	1.3653
#	4072.9m	4046.0m	1.3703	4088.0m	4061.0m	1.3752
#	4103.2m	4076.1m	1.3799	4118.3m	4091.0m	1.3848
#	4133.4m	4105.8m	1.3895	4148.5m	4120.7m	1.3944
#	4163.7m	4135.4m	1.3993	4178.8m	4150.1m	1.4041
#	4193.9m	4164.7m	1.4089	4209.0m	4179.3m	1.4135
#	4224.1m	4193.9m	1.4181	4239.2m	4208.6m	1.4227
#	4254.3m	4223.3m	1.4271	4269.4m	4238.1m	1.4316
#	4284.7m	4253.0m	1.4359	4284.7m	4253.0m	1.4358
#	4299.8m	4267.8m	1.4402	4299.8m	4267.8m	1.4402
#	4314.9m	4282.6m	1.4448	4314.9m	4282.6m	1.4447
#	4330.0m	4297.5m	1.4493	4330.0m	4297.5m	1.4493	
#
# ************************************************************
#    This LAS file was created by Occam Technology Pty. Ltd.
# The edit data contained herein are copyright property of
# Occam Technology Pty. Ltd. The data are licensed to the
# purchasing company and subsidiaries worldwide, and are NOT
# for on-copying to third parties.  We place no restriction on
# the distribution of plots generated from the digital data.
#
#    We supply the data on a 'best effort' basis.  We cannot
# control either the original data acquisition or the application
# of the data, and therefore we cannot be held responsible for
# the consequences of any interpretations based on the data.  We
# urge purchasers to apply normal quality control procedures to
# the data before use for any quantitative interpretative
# procedures.
# ************************************************************
~A      DEPT        ECGR        ATRX        ATRT        NPHI        CAL1        HDAR        HROM        DTSM        DTCO
# ...
   4867.5000    103.8954     12.8249     12.5708     10.2500      6.0978      6.2456      2.6768    111.2520     64.9338
   4868.0000     56.5420     23.3782     20.3334      1.8600      6.1016      6.2572      2.7200     97.9934     58.4229
   4868.5000     68.0910     64.1026     39.6205      1.8900      6.0271      6.2823      2.6462     89.9457     53.5741
   4869.0000     71.9624     89.0728     66.1231      3.8100      5.9876      6.3182      2.5656     96.0522     59.1545
   4869.5000     98.7525     39.2211     36.9679      9.3600      5.9872      6.3253      2.5350    101.1605     62.7559
   4870.0000     98.8228     32.9874     32.5990      4.8100      6.0584      6.3253      2.6025    102.1360     65.3104
   4870.5000     63.1162     53.3292     37.5002      6.6600      5.9819      6.2607      2.5522    103.4405     64.3250
   4871.0000     45.9361     99.8547     78.4715      4.5800      5.9857      6.2105      2.5379    100.8043     63.3396
   4871.5000     61.0451    163.9426     75.4133      7.0600      6.0616      6.2071      2.5338     98.9647     63.3272
   4872.0000     47.1653    195.2112     79.2331      8.7300      6.1236      6.1720      2.5032    104.2198     66.2616
   4872.5000     53.2882    217.7918     96.6551      7.2500      6.1398      6.2052      2.5864    105.6909     66.7223
   4873.0000     53.2257    266.5845     98.5200      4.0600      6.0262      6.2070      2.6032     99.4668     61.5472
   4873.5000     57.7717    653.0619    258.7505      4.5800      6.0633      6.2070      2.5853     97.1288     60.8228
   4874.0000     37.2858   1294.6158    371.9982      5.2200      6.1275      6.1676      2.6236     97.8274     58.6398
   4874.5000     40.9328   1745.7831    335.3685      9.0000      6.1386      6.1263      2.4579    104.1056     66.2537
   4875.0000     40.9734   1200.0619    265.6631      5.2900      5.9891      6.1228      2.3877    106.6615     68.4395
   4875.5000     61.6814    494.6570    180.4752      6.9500      5.9650      6.1268      2.5802    103.4297     62.8218
   4876.0000     49.9094    233.4998    111.1065      7.1600      6.0639      6.1302      2.5277    106.3761     68.4958
   4876.5000     47.6685    295.7714    107.8632      1.7500      6.0248      6.1251      2.6237     95.7064     56.7722
   4877.0000     44.5052    295.7699    179.9609      3.8800      6.0248      6.1263      2.5813     92.7380     58.5006
   4877.5000     42.1310    206.7354    171.5057      8.4100      6.0547      6.1299      2.4822    103.7491     66.1155
   4878.0000     65.0530    151.2943     73.9427      6.8300      5.9839      6.1703      2.4509    104.3432     68.3322
   4878.5000     55.9452    169.3036     58.7237      7.8800      6.0248      6.1622      2.5284    104.5750     69.3606
   4879.0000     53.8034    130.1757     64.4080      6.6800      5.9497      6.1909      2.4802    104.7396     67.0091
   4879.5000     88.8625     60.8186     49.5082      6.5700      6.0654      6.2439      2.6133    102.0671     64.4290
   4880.0000     63.1205     36.1724     33.3822      7.9600      6.0378      6.2439      2.5617    104.1985     66.5331
   4880.5000     66.1771     43.3508     38.0841      8.0000      6.0639      6.2447      2.5118    105.5708     67.5673
   4881.0000     60.7410     52.0641     42.8345      8.3600      6.0657      6.2841      2.5243    104.2347     67.3913
   4881.5000     98.4163     53.8040     44.2749      7.3400      6.0639      6.2841      2.5319    104.1183     66.7155
   4882.0000     61.0540     60.3478     55.1004      8.0100      6.1006      6.2895      2.6459     98.3968     64.3192
   4882.5000     46.3662     33.8226     31.3113      7.4200      6.0631      6.4832      2.6114    106.0197     67.0953
   4883.0000     50.9419    103.3104    101.6729      6.6400      6.1403      6.1658      2.4278    103.4094     64.7357
   4883.5000     70.2337    151.5118     85.8537      8.3100      5.9865      6.2106      2.5804    105.1978     66.7448
   4884.0000     58.8462    105.4300     60.0054      3.3000      6.0676      6.2052      2.4881    105.6968     68.5054
   4884.5000     45.9043     93.9684     64.4053      1.6300      6.0696      6.2016      2.7024     96.9480     56.5347
   4885.0000     42.1101    167.7705    137.6228      1.3000      5.9911      6.2160      2.6755     88.9521     54.3948
   4885.5000     90.2691    267.4110    192.8806      5.9200      6.0014      6.1640      2.5514     95.6901     61.4894
   4886.0000     72.1918     97.3456     63.8818      8.3400      6.0374      6.1712      2.5105    104.1895     68.8401
   4886.5000     66.5533    134.9731     74.1037      9.3200      6.0026      6.2070      2.4710    105.2425     68.5252
   4887.0000     77.5017    137.2480     71.8680      7.3700      5.9480      6.2411      2.4750    104.1536     67.2817
   4887.5000     80.5866    107.9682     67.5965      8.7400      5.9485      6.3218      2.5357    103.8614     66.4534
   4888.0000     77.0423     86.6187     62.7008      7.2500      6.0639      6.3666      2.5627    104.0596     67.0428
   4888.5000     77.3044     68.9338     60.8498      6.8600      6.0616      6.7961      2.5778    103.2942     64.9569
   4889.0000     75.7073     58.2095     57.4354      7.3700      6.0712      6.5906      2.5338     99.3379     64.3684
   4889.5000     52.5169     63.4950     63.1156      6.3900      6.0348      6.5184      2.5505     99.2452     64.6250
   4890.0000     87.2589     69.2959     60.3838      7.8400      6.0896      6.4113      2.6290    104.0827     67.0032
   4890.5000     64.1795     53.7710     45.4692      8.2400      6.0654      6.3307      2.5382    103.3588     67.4526
   4891.0000     67.4023     70.3890     67.1790      7.1400      6.0746      6.3778      2.5183    105.6175     68.9473
   4891.5000     85.1317     54.4006     55.0965      7.3400      6.0945      6.3970      2.7475    104.0765     66.7654
   4892.0000     72.6651     45.8029     42.9395      6.3200      6.0942      6.3164      2.5973    104.4680     66.4107
   4892.5000     99.6418     40.5694     37.6342      6.1000      6.1198      6.3845      2.5792    102.3957     64.4480
   4893.0000     59.7261     45.3136     44.0054      2.2400      6.1906      6.3627      2.6342     95.8488     60.5047
   4893.5000     66.5916     57.0390     74.7852      4.2600      6.1427      6.3684      2.7500    101.2720     63.2892
   4894.0000     99.1818     29.3941     27.5347      7.8700      6.0970      6.5817      2.6485     96.0396     65.0434
   4894.5000     64.5242     39.6307     37.5389      5.9800      6.1696      6.6790      2.5632     95.0161     65.3648
   4895.0000     74.4636     41.6506     39.9463      5.9200      6.1390      6.7233      2.6033    104.1537     66.8654
   4895.5000     69.3975     35.9997     44.3374      5.8000      6.1782      6.7932      2.6372    114.7239     68.7865
   4896.0000     84.8379     35.7798     39.7289      6.5800      6.1762      6.3146      2.6176     98.4851     64.8968
   4896.5000     93.2369     24.8450     31.0609      7.1800      6.0233      6.3929      2.8348    104.1105     62.4197
   4897.0000     92.9092     22.8281     44.9615      5.6100      6.0239      6.4464      2.7536    105.1234     61.0972
   4897.5000     94.6648     36.2245     38.6640      5.9800      6.1722      6.2841      2.6473    102.0086     63.4546
   4898.0000     87.5143     39.0041     34.1863      6.4500      6.0991      6.3325      2.5878     94.7165     62.5235
   4898.5000     79.8334     39.9234     45.2052      6.4900      6.1128      6.3325      2.6166     95.5002     60.7624
   4899.0000     79.7506     43.2609     59.3328      5.6100      6.0647      6.4365      2.6432    103.8581     64.5829
   4899.5000     68.6299     55.7344     58.2395      4.7100      6.0646      7.0805      2.5538     96.6565     59.2151
   4900.0000     54.9616     75.2860     58.3536      5.4700      6.0321      6.3560      2.6603    101.6092     65.3509
   4900.5000     43.3854     43.2559     42.1042      5.7800      6.0630      6.3666      2.6270    103.4575     65.0203
