~Version Information
 VERS.           2.0     :   CWLS log ASCII Standard -VERSION 2.0
 WRAP.           NO      :   One line per depth step
~Well Information
#MNEM.UNIT      VALUE/NAME              DESCRIPTION
#--------     --------------            ---------------------
 STRT.M           508.0000              :START DEPTH
 STOP.M          5279.5000              :STOP DEPTH
 STEP.M             0.5000              :STEP
 NULL.             -999.25              :NULL VALUE
 COMP.    ConocoPhillips                :COMPANY
 WELL.    Poseidon North 1              :WELL
 FLD .    Exploration                   :FIELD
 LOC .                                  :LOCATION
 PROV.                                  :PROVINCE
 SRVC.    Schlumberger                  :SERVICE COMPANY
 CTRY.                                  :COUNTRY
 DATE.    05/20/2014                    :LOG DATE
 UWI .                                  :UNIQUE WELL ID
 LATI.DEG -13/34/24.825                  : Latitude
 LONG.DEG 122/20/24.556                 : Longitude
 GDAT.                                  : Geodetic Datum
~PARAMETER INFORMATION
~CURVE INFORMATION
#MNEM    .UNIT     API CODE             Curve Description
 DEPT    .M                             :   Along hole depth
 GRD     .gAPI                          :   Gamma Ray
 RS      .ohm.m                         :   (RM)    (ARC[1])                (6in)                   Phase Shift Resistivity 22 inch Spacing at 2 MHz, Environmentally Corrected.
 RD      .ohm.m                         :   (RM)    (ARC[1])                (6in)                   Phase Shift Resistivity 34 inch Spacing at 2 MHz, Environmentally Corrected.
 RHOB    .g/cm3                         :   (RM)    (ADN[1])                (6in)                   Bulk Density
 TNPH    .pu                            :   (RM)    (ADN[1])                (6in)                   Thermal Neutron Porosity (Ratio Method) in Selected Lithology
 DTCO    .us/ft                         :   Delta-T Compressional
 DTSM    .us/ft                         :   Delta-T Shear
 HDAR    .in                            :   Hole Diameter from Area
#
# Curve              Start        Stop     Minimum     Maximum
# ------------------------------------------------------------
#
# GRD             508.0000   5279.5000      3.5346    204.6889
# RS              568.5000   5279.5000      0.1925    487.9586
# RD              568.5000   5279.5000      0.1945    316.2479
# RHOB           3782.0000   4931.5000      1.9495      3.5107
# TNPH           3780.5000   4931.5000      6.2988     68.6649
# DTCO           3677.0000   5250.0000     48.6167    124.5370
# DTSM           3804.5000   5250.0000     85.6802    273.5039
# HDAR           3808.0000   5273.5000      8.3409     17.3339
# ******************************
# #
# DEVIATION SURVEY:	(Schlumberger)		Definitive Survey
#	Depth	Dev (deg)	Azimuth (deg)	Depth	Dev (deg)	Azimuth (deg)
#	508.3m	0.00	0.00	535.0m	0.51	175.26
#	567.0m	0.46	159.23	632.3m	0.50	124.18
#	690.2m	0.36	105.64	718.4m	0.30	104.70
#	747.0m	0.22	100.37	833.2m	0.12	92.39
#	862.3m	0.14	89.88	948.6m	0.09	77.24
#	1034.5m	0.21	61.94	1120.7m	0.43	72.74
#	1178.5m	0.55	94.45	1234.9m	0.84	96.85
#	1264.2m	1.11	104.58	1293.6m	1.37	101.48
#	1322.8m	1.51	87.02	1353.0m	1.76	69.73
#	1412.0m	1.26	53.07	1440.7m	1.13	48.89
#	1469.3m	0.97	55.84	1497.6m	1.03	53.67
#	1526.2m	0.92	59.74	1554.4m	0.82	58.53
#	1583.8m	0.75	60.20	1641.9m	0.66	59.63
#	1670.7m	0.75	60.62	1698.0m	0.69	57.52
#	1725.9m	0.67	57.15	1754.8m	0.32	52.85
#	1783.6m	0.81	146.83	1812.6m	1.47	161.88
#	1841.3m	1.64	163.20	1870.0m	1.76	163.52
#	1899.8m	1.79	177.44	1927.8m	1.29	184.32
#	1957.9m	1.72	185.24	1986.4m	1.87	187.31
#	2016.7m	1.89	185.97	2045.2m	1.80	187.62
#	2073.8m	1.81	185.62	2102.3m	1.83	186.20
#	2130.6m	1.79	187.06	2159.6m	1.78	184.95
#	2189.6m	1.85	185.18	2218.1m	1.85	184.70
#	2246.2m	1.81	184.66	2274.6m	1.82	181.40
#	2303.7m	1.76	181.56	2331.2m	1.76	183.12
#	2360.1m	1.77	183.23	2389.2m	1.78	181.43
#	2429.8m	1.81	178.67	2453.0m	1.78	181.70
#	2490.3m	1.75	186.73	2519.1m	1.74	190.18
#	2577.7m	1.34	193.07	2606.3m	1.34	194.30
#	2634.8m	1.43	194.62	2663.0m	1.49	196.08
#	2691.9m	1.52	191.72	2720.5m	1.41	196.99
#	2749.1m	1.30	192.26	2778.8m	1.33	197.61
#	2807.5m	1.18	197.33	2836.7m	1.13	193.60
#	2865.4m	1.01	194.63	2894.6m	1.02	201.33
#	2923.5m	0.87	193.21	2952.2m	0.92	194.81
#	2979.9m	0.79	197.44	3007.9m	0.71	189.93
#	3039.2m	0.62	204.55	3068.6m	0.38	211.96
#	3098.5m	0.64	224.56	3126.6m	0.95	223.07
#	3154.6m	0.84	235.70	3185.2m	0.78	238.33
#	3212.8m	0.76	226.49	3242.0m	0.64	244.70
#	3272.3m	0.59	246.79	3300.2m	0.57	235.82
#	3327.8m	0.59	264.08	3357.0m	0.61	267.57
#	3388.0m	0.41	270.93	3443.1m	0.26	299.95
#	3474.8m	0.43	301.03	3500.7m	0.47	288.64
#	3531.2m	0.29	300.47	3558.2m	0.41	316.53
#	3588.3m	0.55	309.28	3617.9m	0.51	307.43
#	3648.0m	0.46	340.11	3676.0m	0.35	315.45
#	3703.6m	0.43	300.04	3730.9m	0.34	326.82
#	3751.3m	0.17	271.57	3780.6m	0.09	301.36
#	3814.8m	0.29	187.90	3828.0m	0.42	183.54
#	3858.7m	0.35	156.45	3888.1m	0.72	141.78
#	3916.0m	0.93	151.39	3944.8m	1.30	136.05
#	3973.2m	1.99	136.59	4001.6m	2.33	140.24
#	4028.8m	2.82	136.91	4057.0m	3.00	139.76
#	4117.2m	2.72	150.07	4147.1m	2.18	148.78
#	4176.6m	1.90	141.66	4205.2m	1.35	129.99
#	4234.2m	0.98	109.72	4261.7m	0.87	84.30
#	4291.0m	1.20	72.60	4320.5m	0.67	70.91
#	4348.8m	0.56	71.19	4376.7m	0.42	56.80
#	4404.4m	0.30	20.79	4433.2m	0.31	341.16
#	4462.6m	0.26	334.54	4521.8m	0.92	284.18
#	4552.1m	1.66	297.93	4580.0m	1.95	318.44
#	4606.9m	2.21	336.83	4636.2m	2.24	345.69
#	4664.8m	2.50	352.22	4693.7m	2.79	352.27
#	4723.0m	2.96	347.28	4753.0m	3.12	334.48
#	4782.4m	3.27	329.12	4811.3m	3.87	326.41
#	4838.8m	4.07	319.63	4866.5m	4.23	317.95
#	4895.6m	4.63	317.81	4927.1m	4.57	312.59
#	4955.7m	3.99	310.09	4983.3m	3.37	308.64
#	5009.6m	2.66	307.75	5040.2m	2.81	307.39
#	5069.7m	3.03	298.46	5100.5m	3.88	292.76
#	5126.7m	3.99	297.59	5157.5m	4.00	296.72
#	5186.1m	4.23	299.71	5213.0m	3.84	304.22
#	5242.0m	3.97	301.56	5265.7m	4.07	299.21
#	5287.0m	4.07	299.21
#
# VELOCITY SURVEY:	No checkshot survey run
# 
# ************************************************************
#
# #
# LOCN 	LAT:	13o 34' 24.825" S			WELL NAME:	Poseidon North 1	
# 	LONG:	122o 20' 24.556" E
# 	EASTING:	428611.91m E	NORTHING: 	8499338.27m N	ZONE:	51	GDA 94
# SEISMIC SURV:	Poseidon 3D	INLINE:  3600	XLINE: 2250	STATUS:	P & A
# ELEVN SF:	- 486.0m MSL 	DATUM RT:	22.0m	OPERATOR:	ConocoPhillips
# BASIN:		Browse	TOTAL D:	5287m	PARTNERS:	Karoon, PetroChina
# SPUD DATE:	19/03/2014	COMPLN DATE:	18/05/2014	LEASE:	WA-315-P
# TARGET:	Montara & Plover Fms, seismic closure	DRILLER:	Transocean
# DATA SOURCE:	WCR (Basic), logs			RIG:	Legend
# #
# HOLE AND CASING DATA:
# 	Hole 	Hole	Casing	Casing 	Weight	Grade	Joints	Cement	TOC
# 	Size	Depth	Size	Depth	lb/ft
# 	36”	568.3m	30”	568m	456 / 310	X-52	2 / 3	221 sx G at SG 1.5	
# 								1118 sx G at SG 1.9
# 								225 sx G at SG 1.9 	Grouted
# 	17.5”	2459m	13 3/8”	2453m	72	P-110	160	1734 sx G at SG 1.44
# 								486 sx G at SG 1.9
# 	12.25”	3820m	9 5/8”	3814.8m	53.5	P-110	267	469 sx HTB at SG 1.89
# 	8.5”	5287m	
# #
# TEMPERATURES:
# 	Depth Driller	Logger	Temp	Log Type	Time since circ	Circ Time
# 	5287m	5234m	165.6 deg C	QAIT-HNGS	25.9 hrs	2.5 hrs
# 		5060m	165.6 deg C	MDT	55 hrs
# #
# MUD PROPERTIES:
# Depth (L)	Fluid Type	SG	Vis.	pH	Fl cc	Rm	Rmf	Rmc
#  5287m	Novatec SBM	1.57	81	na	3.6	Assumed infinite
# #
#
# ************************************************************
#    This LAS file was created by Occam Technology Pty. Ltd.
# The edit data contained herein are copyright property of
# Occam Technology Pty. Ltd. The data are licensed to the
# purchasing company and subsidiaries worldwide, and are NOT
# for on-copying to third parties.  We place no restriction on
# the distribution of plots generated from the digital data.
#
#    We supply the data on a 'best effort' basis.  We cannot
# control either the original data acquisition or the application
# of the data, and therefore we cannot be held responsible for
# the consequences of any interpretations based on the data.  We
# urge purchasers to apply normal quality control procedures to
# the data before use for any quantitative interpretative
# procedures.
# ************************************************************
~A      DEPT         GRD          RS          RD        RHOB        TNPH        DTCO        DTSM        HDAR
# ...
   4726.0000    161.3770      1.4032      1.3706      2.5025     32.9691     95.4919    186.0602      8.4960
   4726.5000    156.8889      1.4170      1.3557      2.5394     29.8849     95.5049    186.0365      8.4960
   4727.0000    160.5560      1.3818      1.3180      2.5209     31.1372     95.4951    186.0626      8.4960
   4727.5000    167.2494      1.5585      1.5058      2.4954     29.8448     95.5051    186.0352      8.5403
   4728.0000    173.1447      1.7439      1.6943      2.5082     31.7309     95.5002    186.0214      8.4960
   4728.5000    168.6212      1.7294      1.6712      2.5210     31.5170     95.5036    186.0376      8.4960
   4729.0000    160.0149      1.5981      1.5389      2.5347     31.7859     95.4984    186.0133      8.4960
   4729.5000    147.1117      1.3091      1.2373      2.5513     30.5142     95.5034    185.9918      8.4960
   4730.0000    153.4154      1.4527      1.3815      2.5400     29.9386     95.5102    185.9881      8.4960
   4730.5000    149.6322      1.4497      1.3723      2.5308     30.8093     95.5085    185.9716      8.4960
   4731.0000    154.7447      1.5069      1.4457      2.5326     29.6501     95.6859    186.8988      8.5181
   4731.5000    158.3611      1.4400      1.4034      2.5232     30.0586     95.3553    187.1109      8.4960
   4732.0000    166.9496      1.4890      1.4500      2.5139     29.1528     89.9014    180.1260      8.4960
   4732.5000    151.3877      1.5533      1.5062      2.5213     29.9951     89.9014    180.1260      8.5181
   4733.0000    149.8000      1.5477      1.5027      2.5626     28.2413     89.9014    180.3300      8.4960
   4733.5000    144.9526      1.5387      1.5106      2.5291     26.8885     90.2649    180.3300      8.4960
   4734.0000    141.3000      1.5132      1.4972      2.5462     27.6960     90.2619    180.6619      8.4960
   4734.5000    146.5747      1.5391      1.5213      2.5368     27.1234     90.2348    180.6704      8.4960
   4735.0000    135.6790      1.6624      1.6417      2.5591     24.8137     90.2316    180.6625      8.4960
   4735.5000    131.4105      1.7944      1.7677      2.5653     23.5271     90.2279    180.6510      8.4960
   4736.0000    139.1970      1.6324      1.6152      2.5764     25.7734     90.2434    180.6650      8.4960
   4736.5000    139.1764      1.6155      1.5926      2.5679     26.2568     90.2271    180.6638      8.4960
   4737.0000    144.9215      1.6110      1.5913      2.5581     26.5441     92.0028    183.2031      8.4960
   4737.5000    156.4756      1.5297      1.5265      2.5503     27.7494     93.0206    184.7526      8.4960
   4738.0000    160.2820      1.6016      1.6687      2.5686     28.3130     93.2223    185.3551      8.4960
   4738.5000    146.6089      1.7717      1.9798      2.5536     27.6797     93.1148    185.3962      8.4960
   4739.0000    144.6251      1.7010      1.9587      2.5477     28.3544     88.2942    179.2581      8.4960
   4739.5000    148.7554      1.6395      1.9040      2.5662     27.1238     93.3258    179.2581      8.5403
   4740.0000    134.9829      1.7484      1.9457      2.5670     25.6611     93.3258    179.2581      8.4960
   4740.5000    129.0038      1.8352      1.9993      2.5659     24.3289     93.3258    185.2278      8.4960
   4741.0000    141.7773      1.8214      1.9100      2.5506     25.9793     92.6710    185.2278      8.5181
   4741.5000    132.2664      1.7527      1.7967      2.3722     24.7091     92.6710    185.2278      8.5181
   4742.0000    135.7956      1.8301      1.8470      2.5517     25.9232     92.6654    183.9021      8.4960
   4742.5000    148.0909      1.6747      1.6453      2.5485     26.9050     92.6688    183.8438      8.4960
   4743.0000    155.2471      1.5447      1.4742      2.5498     28.2379     92.6627    183.8003      8.5181
   4743.5000    150.5981      1.5108      1.4237      2.5356     28.3429     89.7441    181.4180      8.5181
   4744.0000    156.0006      1.5275      1.4729      2.5368     27.6598     91.3004    179.3958      8.5624
   4744.5000    157.1474      1.5724      1.5502      2.5335     28.7752     88.8148    181.3829      8.5181
   4745.0000    147.7844      1.6390      1.6676      2.5321     25.7598     88.8148    181.3829      8.5403
   4745.5000    149.9564      1.8116      1.8526      2.5500     26.3068     88.8148    181.3829      8.5181
   4746.0000    142.7089      1.9575      1.9557      2.5484     27.2746     88.7108    174.4817      8.5403
   4746.5000    148.9771      1.7911      1.7483      2.5540     28.1787     88.7108    174.4963      8.5624
   4747.0000    148.2542      1.7094      1.6706      2.5268     27.5575     88.7253    174.4184      8.5403
   4747.5000    142.9553      1.5932      1.5242      2.5353     27.0826     88.7261    174.5003      8.5403
   4748.0000    135.1713      1.4002      1.3808      2.5764     27.1788     88.7388    174.5283      8.5181
   4748.5000    142.5764      1.2654      1.2528      2.5929     26.3978     88.5420    177.4486      8.5181
   4749.0000    134.3251      1.3172      1.3113      2.6444     24.4879     88.5556    174.4470      8.5403
   4749.5000    135.2288      1.3783      1.3579      2.5879     26.0372     88.5394    177.5085      8.5181
   4750.0000    142.0352      1.4145      1.4026      2.6053     25.8458     87.8232    172.1021      8.5403
   4750.5000    132.7742      1.5113      1.4989      2.6066     24.2341     87.0673    169.5253      8.5181
   4751.0000    128.7837      1.4619      1.4428      2.5928     23.8009     86.2880    170.6800      8.5403
   4751.5000    130.7027      1.6438      1.6320      2.6329     21.7675     84.1618    168.5282      8.5403
   4752.0000    118.2124      1.8473      1.8132      2.6194     20.1203     84.1618    168.6713      8.5181
   4752.5000    117.5045      1.7528      1.7378      2.6007     20.4005     84.3112    168.6713      8.5181
   4753.0000    122.7678      1.6190      1.6046      2.5989     24.2589     84.3112    168.6713      8.5181
   4753.5000    127.1182      1.6018      1.5946      2.6329     23.1702     84.3242    171.5704      8.5624
   4754.0000    118.1985      1.6107      1.5938      2.6197     22.1311     84.3144    167.9190      8.5181
   4754.5000    116.0454      1.7520      1.7186      2.6205     21.8838     84.3097    167.9032      8.5403
   4755.0000    121.3110      1.8582      1.8532      2.6207     21.3490     84.3384    167.7377      8.5624
   4755.5000    126.6741      1.6644      1.6444      2.6285     21.8402     84.6690    161.1175      8.5181
   4756.0000    119.8074      1.8079      1.7936      2.6228     22.6784     84.5013    160.0974      8.5181
   4756.5000    122.2796      1.7243      1.7141      2.6048     22.2845     83.0571    157.2118      8.5403
   4757.0000    126.4192      1.7050      1.6781      2.6040     20.3783     82.0812    164.1840      8.5403
   4757.5000    113.5577      2.0853      2.0840      2.6239     20.1152     82.0279    163.8630      8.5181
   4758.0000    115.0533      1.9339      1.9110      2.6176     19.9615     86.0616    169.0392      8.5403
   4758.5000    117.7749      2.0054      1.9826      2.6377     21.7453     87.2072    170.7576      8.5181
   4759.0000    117.9681      2.0697      2.0477      2.6309     21.5742     87.4689    172.3598      8.5181
   4759.5000    131.3910      1.8108      1.7781      2.6255     23.6621     87.4689    172.3598      8.5403
   4760.0000    133.5729      1.7821      1.7742      2.6174     23.5049     87.4805    172.5036      8.5403
   4760.5000    131.2735      1.6943      1.6743      2.6078     23.4819     87.4784    172.4640      8.5181
   4761.0000    131.5165      1.8179      1.8054      2.6174     24.1139     87.4888    172.5348      8.5403
   4761.5000    129.1271      1.7249      1.6932      2.6093     24.2603     87.4913    172.4932      8.5181
   4762.0000    135.6801      1.7174      1.7100      2.6156     23.9930     87.5551    172.6767      8.5403
   4762.5000    143.4944      1.6394      1.6256      2.6100     24.3848     87.5155    172.5743      8.5181
