~Version Information
 VERS.           2.0     :   CWLS log ASCII Standard -VERSION 2.0
 WRAP.           NO      :   One line per depth step
~Well Information
#MNEM.UNIT      VALUE/NAME              DESCRIPTION
#--------     --------------            ---------------------
 STRT.M           579.5000              :START DEPTH
 STOP.M          5115.5000              :STOP DEPTH
 STEP.M             0.5000              :STEP
 NULL.             -999.25              :NULL VALUE
 COMP.    ConocoPhillips                :COMPANY
 WELL.    Poseidon 1                    :WELL
 FLD .    Exploration                   :FIELD
 LOC .                                  :LOCATION
 PROV.                                  :PROVINCE
 SRVC.    Schlumberger D&M              :SERVICE COMPANY
 CTRY.                                  :COUNTRY
 DATE.    28-Apr-09                     :LOG DATE
 UWI .                                  :UNIQUE WELL ID
 LATI.DEG -13/37/16.79                   : Latitude
 LONG.DEG 122/18/23.99                  : Longitude
 GDAT.                                  : Geodetic Datum
~PARAMETER INFORMATION
~CURVE INFORMATION
#MNEM    .UNIT     API CODE             Curve Description
 DEPT    .M                             :   Along hole depth
 ECGR    .gAPI                          :   EDTC Corrected Gamma-Ray
 ATRX    .ohm.m                         :   Array Induction Two Foot Rxo
 ATRT    .ohm.m                         :   Array Induction Two Foot Rt
 NPHI    .pu                            :   Thermal Neutron Porosity (Ratio Method)
 CAL1    .in                            :   Caliper 1
 HDAR    .in                            :   Hole Diameter from Area
 HROM    .g/cm3                         :   LDS High Resolution Corrected Bulk Density
 DTSM    .us/ft                         :   Delta-T Shear
 DTCO    .us/ft                         :   Delta-T Compressional
#
# Curve              Start        Stop     Minimum     Maximum
# ------------------------------------------------------------
#
# ECGR            904.0000   5108.0000      5.0321    198.6361
# ATRX            579.5000   5114.0000      0.1100   1950.0000
# ATRT            579.5000   5114.0000      0.1803   1950.0000
# NPHI           3858.0000   5104.5000      1.0400     50.1900
# CAL1           3845.0000   5003.0000      4.5412     12.7663
# HDAR           3884.0000   5110.0000      5.8056     12.6868
# HROM           3887.0000   5115.0000      1.4423      3.0358
# DTSM           4395.0000   4974.0000     83.2234    221.9217
# DTCO           4395.0000   4974.0000     51.4416    111.5382
# ******************************
# 
# ************************************************************
#
# #
# LOCN 	LAT:	13o 37' 16.79" S			WELL NAME:	Poseidon 1
# 	LONG:	122o 18' 23.99" E
# 	EASTING:	425055.467m E	NORTHING: 	8493875.264m N	ZONE:	51	GDA 94
# SHOT POINT:		SEISMIC LINE:		STATUS:	P & A
# SEISMIC SURVEY:		INLINE:	XLINE:
# ELEVN SF:	494.0m	DATUM KB:	26.4m	OPERATOR:	ConocoPhillips
# BASIN :		Browse	TOTAL D:	5112.1m	PARTNERS:	Karoon
# SPUD DATE:	26/01/2009	COMPLN DATE:	29/05/2009	LEASE:	WA-315-P
# TARGET:	Plover SS			DRILLER:	Transocean
# DATA SOURCE:	WCR, logs			RIG:	Sedco 703
# #
# HOLE AND CASING DATA:
# 	Hole 	Hole	Casing	Casing 	Weight	Grade	Joints	Cement	TOC
# 	Size	Depth	Size	Depth	lb/ft
# 	36”	581.8m	30”	578m	310	X-52	5	1105 sx G at SG 1.9	Seafloor
# 								185 sx G at SG 1.9 – top up
# 	17.5”	2296m	13 3/8”	2287.5m	72	P-110	143	688 sx G at SG 1.5
# 								500 sx G at SG 1.9
# 	12.25”	3898m	9 5/8”	3890.8m	53.5	P-110	274	202 sx G at SG 1.62	
# 								133 sx G at SG 1.98
# 	9.5”	3965m	7 5/8”	3957m	30.5	EX-80	14	
# 	8.5”	4588m	7”	4587.5m	32 / 29	P110/L80	47/20	213 sx G at SG 1.9
# 	6”	5112.1m	5”	5088.4m	18	P-110	72	116 sx G at SG 1.9
# #
# TEMPERATURES:
# 	Depth Driller	Logger	Temp	Log Type	Time since circ	Circ Time
# 	3965m	3960m	104 deg C	FMI	22.78 hrs	2.5 hrs
# 	5112.1m	5118m	160 deg C	CMR	22.83 hrs
# 			162 deg C	HNGS	36.17 hrs
# 		4990m	165 deg c	Sonic Scanner	47.47 hrs
# #
# MUD PROPERTIES:
# Depth (L)	Fluid Type	SG	Vis.	pH	Fl cc	Rm	Rmf	Rmc
# 3965m	KCl-Polymer	1.29				0.167 at 18.6 deg C	0.244 at 17.8 deg C	0.261 at 18 deg C
# 		KCl	6%	Barite 	7.5%
# 5112.1m	Novatec SBM	1.20			3.6	
# 				Barite	10.3%
# #
#
# DEVIATION SURVEY:		(Schlumberger)
#	Depth	Dev (deg)	Azimuth (deg)	Depth	Dev (deg)	Azimuth (deg)
#	0.0m	0.00	0.00	520.5m	0.00	0.00
#	527.6m	0.39	259.27	552.8m	1.09	19.41
#	607.9m	0.33	161.06	636.3m	0.28	157.46
#	666.2m	0.42	156.27	723.3m	0.49	158.80
#	752.4m	0.76	145.50	811.0m	0.69	144.79
#	868.3m	0.66	149.14	897.2m	0.66	152.38
#	926.2m	0.53	150.70	1013.9m	0.64	144.22
#	1100.8m	0.45	222.81	1130.8m	0.53	244.07
#	1187.1m	0.69	231.27	1215.1m	0.65	232.48
#	1243.9m	0.64	288.99	1272.6m	0.63	304.63
#	1300.8m	0.62	311.48	1329.9m	0.16	285.18
#	1359.0m	0.11	292.17	1386.3m	0.31	331.80
#	1416.5m	0.53	355.63	1447.1m	0.61	2.60
#	1474.7m	0.94	7.68	1505.2m	1.01	358.08
#	1534.9m	0.92	345.86	1563.8m	0.61	5.17
#	1592.2m	0.76	17.60	1622.0m	0.60	20.84
#	1650.2m	0.65	36.42	1763.9m	0.60	51.71
#	1821.4m	0.46	44.49	1850.5m	0.79	49.16
#	1908.9m	0.96	36.49	1939.6m	0.58	13.70
#	1959.8m	0.13	322.88	2044.1m	0.34	243.01
#	2073.4m	0.44	233.00	2101.7m	0.51	240.40
#	2131.7m	0.50	252.10	2189.0m	0.49	257.69
#	2246.1m	0.42	251.29	2269.4m	0.43	247.24
#	2313.9m	0.33	207.85	2341.6m	0.20	199.21
#	2369.9m	0.15	229.33	2398.5m	0.14	219.45
#	2427.2m	0.22	182.60	2456.2m	0.23	217.52
#	2486.6m	0.30	200.91	2516.1m	0.34	250.17
#	2599.5m	0.23	257.73	2656.6m	0.37	259.03
#	2685.9m	0.36	244.41	2714.4m	0.33	247.01
#	2743.5m	0.44	264.65	2772.9m	0.36	248.49
#	2802.7m	0.49	249.47	2829.7m	0.46	254.82
#	2887.1m	0.37	245.00	2916.6m	0.30	229.13
#	2946.6m	0.14	227.49	3004.8m	0.20	234.38
#	3062.1m	0.52	223.74	3090.7m	0.51	219.43
#	3120.9m	0.47	216.60	3150.2m	0.49	219.95
#	3178.9m	0.44	222.75	3206.5m	0.40	211.30
#	3235.7m	0.35	217.26	3265.7m	0.49	214.66
#	3322.4m	0.35	211.44	3350.4m	0.36	212.61
#	3379.8m	0.35	230.18	3409.2m	0.34	230.92
#	3494.2m	0.34	231.38	3557.7m	0.29	277.76
#	3668.7m	0.32	324.77	3698.3m	0.43	340.30
#	3729.8m	0.45	340.13	3756.5m	0.39	332.45
#	3815.7m	0.44	309.71	3873.0m	0.59	285.30
#	4047.5m	4.76	321.71	4065.7m	5.39	333.06
#	4082.1m	6.39	336.20	4098.9m	7.73	337.83
#	4115.7m	9.43	344.07	4147.0m	12.37	344.49
#	4160.9m	13.41	345.79	4170.7m	13.89	349.54
#	4182.8m	14.27	348.89	4198.0m	15.83	349.61
#	4230.3m	13.55	353.68	4255.8m	12.41	353.57
#	4287.3m	11.70	355.88	4312.9m	11.40	355.42
#	4344.1m	10.54	354.84	4370.2m	10.32	356.38
#	4403.0m	10.25	3.71	4428.6m	10.50	359.63
#	4443.5m	9.94	359.87	4458.4m	10.08	1.47
#	4486.5m	9.71	359.12	4514.6m	9.26	359.81
#	4545.3m	9.64	0.67	4572.5m	9.26	356.64
#	4602.8m	8.97	350.43	4631.2m	8.70	344.94
#	4660.8m	8.34	342.12	4688.5m	8.14	338.90
#	4718.7m	8.30	333.76	4776.7m	8.03	335.31
#	4804.1m	7.88	336.68	4832.6m	7.95	337.54
#	4862.8m	7.84	339.39	4891.2m	7.71	338.67
#	4920.0m	8.19	338.17	4948.2m	8.48	335.94
#	4980.2m	8.19	335.87	5009.6m	7.89	329.96
#	5036.0m	7.84	329.96	5066.0m	7.78	329.28
#	5093.9m	7.52	327.67	5112.0m	7.52	327.67
#
# VELOCITY SURVEY:	(Schlumberger)		OWT, vertically corrected, relative to SRD (MSL)
#	Depth	TVD SS	OWT(sec)	Depth	TVD SS	OWT(sec)
#	29.3m	2.9m	0.0316	44.4m	18.0m	0.1682
#	59.5m	33.1m	0.3158	784.1m	757.7m	0.6576
#	799.2m	772.8m	0.6603	814.3m	787.9m	0.6620
#	829.5m	803.0m	0.6645	1744.4m	1717.9m	0.8235
#	1759.5m	1733.0m	0.8269	1774.6m	1748.2m	0.8303
#	1789.7m	1763.3m	0.8333	1804.9m	1778.5m	0.8364
#	1820.0m	1793.6m	0.8400	1835.2m	1808.7m	0.8433
#	1850.3m	1823.8m	0.8473	1865.4m	1838.9m	0.8510
#	1880.5m	1854.0m	0.8546	1895.6m	1869.1m	0.8584
#	1910.7m	1884.2m	0.8627	1925.8m	1899.3m	0.8666
#	1940.9m	1914.5m	0.8705	1956.1m	1929.6m	0.8744
#	1971.2m	1944.7m	0.8782	1986.4m	1959.9m	0.8816
#	2001.5m	1975.0m	0.8850	2016.7m	1990.2m	0.8885
#	2031.8m	2005.3m	0.8918	2046.8m	2020.3m	0.8953
#	2062.0m	2035.5m	0.8987	2077.1m	2050.6m	0.9018
#	2092.2m	2065.7m	0.9050	2107.3m	2080.8m	0.9080
#	2122.4m	2095.9m	0.9111	2137.6m	2111.1m	0.9138
#	2152.7m	2126.2m	0.9168	2167.8m	2141.3m	0.9196
#	2182.9m	2156.4m	0.9224	2198.1m	2171.6m	0.9253
#	2213.2m	2186.7m	0.9283	2228.3m	2201.8m	0.9313
#	2243.4m	2216.9m	0.9342	2258.6m	2232.1m	0.9371
#	2273.7m	2247.2m	0.9400	2288.8m	2262.4m	0.9430
#	2304.0m	2277.5m	0.9460	2319.1m	2292.6m	0.9488
#	2334.2m	2307.7m	0.9517	2349.2m	2322.7m	0.9545
#	2364.4m	2337.9m	0.9576	2379.5m	2353.0m	0.9605
#	2394.6m	2368.1m	0.9632	2409.6m	2383.1m	0.9661
#	2424.8m	2398.3m	0.9692	2439.9m	2413.4m	0.9724
#	2455.0m	2428.5m	0.9757	2470.2m	2443.7m	0.9795
#	2485.3m	2458.8m	0.9830	2500.4m	2473.9m	0.9865
#	2515.6m	2489.1m	0.9900	2530.7m	2504.2m	0.9937
#	2545.9m	2519.4m	0.9973	2561.0m	2534.5m	1.0010
#	2576.1m	2549.6m	1.0046	2591.2m	2564.7m	1.0080
#	2606.3m	2579.8m	1.0113	2621.5m	2595.0m	1.0147
#	2636.6m	2610.1m	1.0183	2651.6m	2625.1m	1.0215
#	2666.8m	2640.3m	1.0249	2681.9m	2655.4m	1.0285
#	2697.0m	2670.5m	1.0325	2712.1m	2685.6m	1.0361
#	2727.3m	2700.8m	1.0399	2742.4m	2715.9m	1.0434
#	2757.5m	2731.0m	1.0472	2772.6m	2746.1m	1.0510
#	2787.7m	2761.2m	1.0547	2802.8m	2776.3m	1.0582
#	2817.9m	2791.4m	1.0617	2833.0m	2806.5m	1.0651
#	2848.2m	2821.7m	1.0685	2863.3m	2836.8m	1.0718
#	2878.4m	2851.9m	1.0750	2893.6m	2867.1m	1.0781
#	2908.8m	2882.3m	1.0814	2914.1m	2887.6m	1.0824
#	2923.9m	2897.4m	1.0844	2929.2m	2902.7m	1.0855
#	2939.0m	2912.5m	1.0875	2944.4m	2917.8m	1.0887
#	2954.0m	2927.5m	1.0907	2959.5m	2933.0m	1.0921
#	2969.1m	2942.6m	1.0941	2984.3m	2957.8m	1.0975
#	2999.4m	2972.9m	1.1008	3014.5m	2988.0m	1.1040
#	3029.6m	3003.1m	1.1072	3044.8m	3018.3m	1.1103
#	3059.9m	3033.4m	1.1134	3075.1m	3048.5m	1.1165
#	3090.2m	3063.7m	1.1194	3105.3m	3078.8m	1.1224
#	3120.4m	3093.9m	1.1253	3135.6m	3109.0m	1.1284
#	3150.7m	3124.2m	1.1318	3165.8m	3139.3m	1.1352
#	3180.9m	3154.4m	1.1385	3196.0m	3169.5m	1.1420
#	3211.2m	3184.6m	1.1452	3226.3m	3199.8m	1.1486
#	3241.4m	3214.9m	1.1518	3256.4m	3229.9m	1.1550
#	3271.6m	3245.0m	1.1583	3286.7m	3260.2m	1.1618
#	3301.8m	3275.3m	1.1653	3316.9m	3290.4m	1.1690
#	3332.1m	3305.6m	1.1726	3347.2m	3320.7m	1.1767
#	3362.3m	3335.8m	1.1808	3377.4m	3350.9m	1.1849
#	3392.6m	3366.0m	1.1889	3407.7m	3381.2m	1.1926
#	3831.1m	3804.5m	1.2951	3846.2m	3819.6m	1.2989
#	3861.2m	3834.7m	1.3025	3876.3m	3849.8m	1.3067
#	3891.5m	3864.9m	1.3108	3906.6m	3880.0m	1.3154
#	3921.7m	3895.1m	1.3196	3936.8m	3910.2m	1.3245
#	3952.0m	3925.3m	1.3297	3967.1m	3940.4m	1.3350
#	3982.3m	3955.6m	1.3402	3997.4m	3970.7m	1.3452
#	4012.5m	3985.8m	1.3502	4027.6m	4000.9m	1.3552
#	4042.6m	4015.9m	1.3603	4057.8m	4031.0m	1.3653
#	4072.9m	4046.0m	1.3703	4088.0m	4061.0m	1.3752
#	4103.2m	4076.1m	1.3799	4118.3m	4091.0m	1.3848
#	4133.4m	4105.8m	1.3895	4148.5m	4120.7m	1.3944
#	4163.7m	4135.4m	1.3993	4178.8m	4150.1m	1.4041
#	4193.9m	4164.7m	1.4089	4209.0m	4179.3m	1.4135
#	4224.1m	4193.9m	1.4181	4239.2m	4208.6m	1.4227
#	4254.3m	4223.3m	1.4271	4269.4m	4238.1m	1.4316
#	4284.7m	4253.0m	1.4359	4284.7m	4253.0m	1.4358
#	4299.8m	4267.8m	1.4402	4299.8m	4267.8m	1.4402
#	4314.9m	4282.6m	1.4448	4314.9m	4282.6m	1.4447
#	4330.0m	4297.5m	1.4493	4330.0m	4297.5m	1.4493	
#
# ************************************************************
#    This LAS file was created by Occam Technology Pty. Ltd.
# The edit data contained herein are copyright property of
# Occam Technology Pty. Ltd. The data are licensed to the
# purchasing company and subsidiaries worldwide, and are NOT
# for on-copying to third parties.  We place no restriction on
# the distribution of plots generated from the digital data.
#
#    We supply the data on a 'best effort' basis.  We cannot
# control either the original data acquisition or the application
# of the data, and therefore we cannot be held responsible for
# the consequences of any interpretations based on the data.  We
# urge purchasers to apply normal quality control procedures to
# the data before use for any quantitative interpretative
# procedures.
# ************************************************************
~A      DEPT        ECGR        ATRX        ATRT        NPHI        CAL1        HDAR        HROM        DTSM        DTCO
# ...
   4666.5000    166.0528      1.8998      1.8802     30.2200      6.1071      6.3648      2.5755    175.0096     90.5026
   4667.0000    172.9018      1.7682      1.7545     30.1800      6.1079      6.3719      2.6075    171.2493     90.1926
   4667.5000    187.6392      1.8558      1.8464     32.5400      6.0769      6.3611      2.6328    176.5613     90.8982
   4668.0000    170.1730      2.0171      1.9911     29.5300      6.0359      6.3666      2.5847    174.2653     90.5108
   4668.5000    178.1532      2.0405      1.9730     30.1000      6.0306      6.3648      2.5552    170.6947     89.5709
   4669.0000    173.8616      2.0085      1.9232     29.6100      6.0328      6.3644      2.5707    171.2240     90.4806
   4669.5000    176.9488      1.9753      1.8918     29.9800      6.0260      6.3630      2.6006    170.7655     90.2761
   4670.0000    179.8611      1.9725      1.9169     29.3900      6.0512      6.3630      2.5624    173.7591     89.7558
   4670.5000    188.4196      1.9791      1.9509     28.9800      6.0673      6.3678      2.5706    176.0068     91.5763
   4671.0000    181.3811      2.0290      2.0050     28.6000      6.0742      6.3694      2.5651    176.3606     92.4489
   4671.5000    172.9017      2.1129      2.0984     28.4800      6.1087      6.3644      2.5626    176.4755     92.4613
   4672.0000    171.7494      2.1252      2.1200     28.3500      6.1094      6.3719      2.5730    176.2585     92.6060
   4672.5000    181.5734      2.0886      2.0835     28.2800      6.0275      6.3630      2.5774    176.4886     92.6493
   4673.0000    172.5690      2.1542      2.1468     28.6300      6.0289      6.3630      2.5694    176.0058     92.5036
   4673.5000    167.0538      2.1924      2.1902     28.2400      6.0646      6.3702      2.5738    175.4225     92.3553
   4674.0000    167.0463      2.0982      2.1021     27.9600      6.0616      6.3666      2.5512    174.3044     91.4916
   4674.5000    172.9459      2.0268      2.0249     29.2700      6.0731      6.3719      2.5640    175.8445     92.4514
   4675.0000    183.7344      2.0444      2.0211     28.8100      6.0666      6.3648      2.5380    177.2556     93.0823
   4675.5000    174.3556      2.1044      2.0712     28.7200      6.0627      6.3648      2.5707    176.2442     92.7580
   4676.0000    175.2254      2.1871      2.1637     30.0300      6.0871      6.3684      2.5620    176.0757     92.5348
   4676.5000    180.2754      2.2226      2.2154     28.4300      6.0715      6.3644      2.5608    175.1113     92.4461
   4677.0000    194.0858      2.2223      2.2206     29.2200      6.1033      6.3711      2.5505    175.6689     92.6350
   4677.5000    189.3542      2.1788      2.1689     30.0200      6.0681      6.3594      2.5650    176.4740     94.2928
   4678.0000    186.8783      2.1613      2.1454     29.4400      6.0719      6.3486      2.5559    176.1235     93.0574
   4678.5000    179.7729      2.2155      2.1818     28.5100      6.0566      6.3343      2.5543    175.6621     92.4003
   4679.0000    177.2937      2.2197      2.1689     29.4300      6.0711      6.3218      2.5544    175.7096     92.5394
   4679.5000    175.4996      2.2175      2.1646     28.6800      6.0558      6.3200      2.5582    175.8018     92.4330
   4680.0000    178.0424      2.2210      2.1705     28.7500      6.0711      6.3289      2.5590    176.2050     93.3266
   4680.5000    181.9885      2.1468      2.1111     29.1100      6.0298      6.3271      2.5691    175.8223     92.5656
   4681.0000    180.4826      2.0934      2.0761     31.5400      6.0546      6.3259      2.5547    176.7349     93.4030
   4681.5000    187.0773      2.1588      2.1388     30.1700      6.0673      6.3293      2.5932    176.3033     92.3863
   4682.0000    177.3377      2.2478      2.2156     29.2300      6.0260      6.3200      2.5604    174.1885     92.2917
   4682.5000    176.5581      2.2410      2.2150     30.2200      6.0344      6.3253      2.5509    174.8806     92.4759
   4683.0000    164.1323      2.1920      2.1730     29.2300      6.0248      6.3276      2.5731    174.6373     91.6089
   4683.5000    175.4174      2.2066      2.1799     28.5000      6.0328      6.3200      2.5701    173.8464     91.2553
   4684.0000    170.2852      2.1718      2.1507     28.6000      6.0314      6.3218      2.5468    175.3894     92.4477
   4684.5000    166.2854      2.1272      2.1163     30.0500      6.0627      6.3289      2.5530    175.9768     92.5639
   4685.0000    171.4610      2.1257      2.1152     29.8000      6.0589      6.3271      2.5822    175.9951     92.6336
   4685.5000    170.9723      2.1804      2.1571     30.0000      6.0719      6.3226      2.5548    170.3938     90.6473
   4686.0000    165.9711      2.2126      2.1906     29.5700      6.0635      6.3276      2.5573    171.4036     91.0586
   4686.5000    167.8394      2.2225      2.2000     29.3400      6.0652      6.3243      2.5515    172.8729     90.6422
   4687.0000    166.4575      2.2577      2.2273     29.0600      6.0705      6.3293      2.6367    171.1917     92.5244
   4687.5000    164.2780      2.2205      2.1936     28.5800      6.1240      6.3271      2.5437    176.3102     93.3562
   4688.0000    162.4184      2.1288      2.1054     28.2800      6.1002      6.3200      2.5777    176.1505     92.7154
   4688.5000    163.8348      2.1081      2.0801     29.3200      6.0727      6.3289      2.5743    175.3812     92.4475
   4689.0000    178.3647      2.1289      2.0945     29.3500      6.1034      6.3276      2.5478    173.4565     91.5445
   4689.5000    184.7282      2.1004      2.0691     28.5000      6.0780      6.2908      2.5623    174.2748     92.9229
   4690.0000    183.8808      2.1461      2.1084     27.3900      6.1091      6.2859      2.5853    173.6164     91.6230
   4690.5000    182.5608      2.2080      2.1683     26.8000      6.0995      6.2895      2.5700    169.6070     90.8142
   4691.0000    168.9003      2.1974      2.1712     27.5500      6.0865      6.2841      2.5624    169.5481     91.0134
   4691.5000    171.7114      2.1552      2.1379     26.8400      6.0758      6.2841      2.5552    170.1867     91.4927
   4692.0000    166.1121      2.1065      2.0877     26.8900      6.0834      6.2874      2.5545    172.8178     91.6499
   4692.5000    155.9900      2.0962      2.0725     26.9700      6.0819      6.2808      2.5741    176.1435     93.5183
   4693.0000    162.7225      2.0967      2.0732     27.4400      6.0684      6.2877      2.5535    175.8045     92.9166
   4693.5000    164.7277      2.0775      2.0492     26.5100      6.0607      6.2908      2.5688    174.9549     92.7964
   4694.0000    167.3492      2.0260      1.9891     27.2800      6.0658      6.2841      2.5758    175.6699     93.2482
   4694.5000    175.3645      1.9589      1.9195     26.0600      6.0704      6.2877      2.5623    173.5462     92.2038
   4695.0000    176.8437      1.9186      1.8937     25.9200      6.0620      6.2874      2.5502    175.2436     92.3909
   4695.5000    186.9267      1.9484      1.9431     25.7500      6.0688      6.2858      2.5616    176.2346     93.0117
   4696.0000    169.3043      2.0606      2.0314     26.5700      6.0711      6.2841      2.5682    175.8129     92.6957
   4696.5000    161.2398      2.0999      2.0650     25.7000      6.0627      6.2841      2.5845    171.1147     90.9384
   4697.0000    156.2993      2.0901      2.0564     25.5500      6.0658      6.2877      2.5509    171.0656     90.7917
   4697.5000    160.2496      2.0717      2.0200     25.1500      6.0704      6.2859      2.5638    175.1741     92.3584
   4698.0000    153.8284      2.0509      1.9432     25.2800      6.0620      6.2490      2.5833    173.3927     90.9517
   4698.5000    151.9691      2.0531      1.8864     26.1500      6.0731      6.2473      2.5765    174.2445     91.1636
   4699.0000    154.0266      2.0668      1.9412     25.6600      6.0606      6.2411      2.5819    173.2955     90.7102
   4699.5000    153.7706      2.0840      2.0220     24.7400      6.0883      6.2429      2.6025    170.5020     90.4101
