~Version Information
 VERS.           2.0     :   CWLS log ASCII Standard -VERSION 2.0
 WRAP.           NO      :   One line per depth step
~Well Information
#MNEM.UNIT      VALUE/NAME              DESCRIPTION
#--------     --------------            ---------------------
 STRT.M           508.0000              :START DEPTH
 STOP.M          5279.5000              :STOP DEPTH
 STEP.M             0.5000              :STEP
 NULL.             -999.25              :NULL VALUE
 COMP.    ConocoPhillips                :COMPANY
 WELL.    Poseidon North 1              :WELL
 FLD .    Exploration                   :FIELD
 LOC .                                  :LOCATION
 PROV.                                  :PROVINCE
 SRVC.    Schlumberger                  :SERVICE COMPANY
 CTRY.                                  :COUNTRY
 DATE.    05/20/2014                    :LOG DATE
 UWI .                                  :UNIQUE WELL ID
 LATI.DEG -13/34/24.825                  : Latitude
 LONG.DEG 122/20/24.556                 : Longitude
 GDAT.                                  : Geodetic Datum
~PARAMETER INFORMATION
~CURVE INFORMATION
#MNEM    .UNIT     API CODE             Curve Description
 DEPT    .M                             :   Along hole depth
 GRD     .gAPI                          :   Gamma Ray
 RS      .ohm.m                         :   (RM)    (ARC[1])                (6in)                   Phase Shift Resistivity 22 inch Spacing at 2 MHz, Environmentally Corrected.
 RD      .ohm.m                         :   (RM)    (ARC[1])                (6in)                   Phase Shift Resistivity 34 inch Spacing at 2 MHz, Environmentally Corrected.
 RHOB    .g/cm3                         :   (RM)    (ADN[1])                (6in)                   Bulk Density
 TNPH    .pu                            :   (RM)    (ADN[1])                (6in)                   Thermal Neutron Porosity (Ratio Method) in Selected Lithology
 DTCO    .us/ft                         :   Delta-T Compressional
 DTSM    .us/ft                         :   Delta-T Shear
 HDAR    .in                            :   Hole Diameter from Area
#
# Curve              Start        Stop     Minimum     Maximum
# ------------------------------------------------------------
#
# GRD             508.0000   5279.5000      3.5346    204.6889
# RS              568.5000   5279.5000      0.1925    487.9586
# RD              568.5000   5279.5000      0.1945    316.2479
# RHOB           3782.0000   4931.5000      1.9495      3.5107
# TNPH           3780.5000   4931.5000      6.2988     68.6649
# DTCO           3677.0000   5250.0000     48.6167    124.5370
# DTSM           3804.5000   5250.0000     85.6802    273.5039
# HDAR           3808.0000   5273.5000      8.3409     17.3339
# ******************************
# #
# DEVIATION SURVEY:	(Schlumberger)		Definitive Survey
#	Depth	Dev (deg)	Azimuth (deg)	Depth	Dev (deg)	Azimuth (deg)
#	508.3m	0.00	0.00	535.0m	0.51	175.26
#	567.0m	0.46	159.23	632.3m	0.50	124.18
#	690.2m	0.36	105.64	718.4m	0.30	104.70
#	747.0m	0.22	100.37	833.2m	0.12	92.39
#	862.3m	0.14	89.88	948.6m	0.09	77.24
#	1034.5m	0.21	61.94	1120.7m	0.43	72.74
#	1178.5m	0.55	94.45	1234.9m	0.84	96.85
#	1264.2m	1.11	104.58	1293.6m	1.37	101.48
#	1322.8m	1.51	87.02	1353.0m	1.76	69.73
#	1412.0m	1.26	53.07	1440.7m	1.13	48.89
#	1469.3m	0.97	55.84	1497.6m	1.03	53.67
#	1526.2m	0.92	59.74	1554.4m	0.82	58.53
#	1583.8m	0.75	60.20	1641.9m	0.66	59.63
#	1670.7m	0.75	60.62	1698.0m	0.69	57.52
#	1725.9m	0.67	57.15	1754.8m	0.32	52.85
#	1783.6m	0.81	146.83	1812.6m	1.47	161.88
#	1841.3m	1.64	163.20	1870.0m	1.76	163.52
#	1899.8m	1.79	177.44	1927.8m	1.29	184.32
#	1957.9m	1.72	185.24	1986.4m	1.87	187.31
#	2016.7m	1.89	185.97	2045.2m	1.80	187.62
#	2073.8m	1.81	185.62	2102.3m	1.83	186.20
#	2130.6m	1.79	187.06	2159.6m	1.78	184.95
#	2189.6m	1.85	185.18	2218.1m	1.85	184.70
#	2246.2m	1.81	184.66	2274.6m	1.82	181.40
#	2303.7m	1.76	181.56	2331.2m	1.76	183.12
#	2360.1m	1.77	183.23	2389.2m	1.78	181.43
#	2429.8m	1.81	178.67	2453.0m	1.78	181.70
#	2490.3m	1.75	186.73	2519.1m	1.74	190.18
#	2577.7m	1.34	193.07	2606.3m	1.34	194.30
#	2634.8m	1.43	194.62	2663.0m	1.49	196.08
#	2691.9m	1.52	191.72	2720.5m	1.41	196.99
#	2749.1m	1.30	192.26	2778.8m	1.33	197.61
#	2807.5m	1.18	197.33	2836.7m	1.13	193.60
#	2865.4m	1.01	194.63	2894.6m	1.02	201.33
#	2923.5m	0.87	193.21	2952.2m	0.92	194.81
#	2979.9m	0.79	197.44	3007.9m	0.71	189.93
#	3039.2m	0.62	204.55	3068.6m	0.38	211.96
#	3098.5m	0.64	224.56	3126.6m	0.95	223.07
#	3154.6m	0.84	235.70	3185.2m	0.78	238.33
#	3212.8m	0.76	226.49	3242.0m	0.64	244.70
#	3272.3m	0.59	246.79	3300.2m	0.57	235.82
#	3327.8m	0.59	264.08	3357.0m	0.61	267.57
#	3388.0m	0.41	270.93	3443.1m	0.26	299.95
#	3474.8m	0.43	301.03	3500.7m	0.47	288.64
#	3531.2m	0.29	300.47	3558.2m	0.41	316.53
#	3588.3m	0.55	309.28	3617.9m	0.51	307.43
#	3648.0m	0.46	340.11	3676.0m	0.35	315.45
#	3703.6m	0.43	300.04	3730.9m	0.34	326.82
#	3751.3m	0.17	271.57	3780.6m	0.09	301.36
#	3814.8m	0.29	187.90	3828.0m	0.42	183.54
#	3858.7m	0.35	156.45	3888.1m	0.72	141.78
#	3916.0m	0.93	151.39	3944.8m	1.30	136.05
#	3973.2m	1.99	136.59	4001.6m	2.33	140.24
#	4028.8m	2.82	136.91	4057.0m	3.00	139.76
#	4117.2m	2.72	150.07	4147.1m	2.18	148.78
#	4176.6m	1.90	141.66	4205.2m	1.35	129.99
#	4234.2m	0.98	109.72	4261.7m	0.87	84.30
#	4291.0m	1.20	72.60	4320.5m	0.67	70.91
#	4348.8m	0.56	71.19	4376.7m	0.42	56.80
#	4404.4m	0.30	20.79	4433.2m	0.31	341.16
#	4462.6m	0.26	334.54	4521.8m	0.92	284.18
#	4552.1m	1.66	297.93	4580.0m	1.95	318.44
#	4606.9m	2.21	336.83	4636.2m	2.24	345.69
#	4664.8m	2.50	352.22	4693.7m	2.79	352.27
#	4723.0m	2.96	347.28	4753.0m	3.12	334.48
#	4782.4m	3.27	329.12	4811.3m	3.87	326.41
#	4838.8m	4.07	319.63	4866.5m	4.23	317.95
#	4895.6m	4.63	317.81	4927.1m	4.57	312.59
#	4955.7m	3.99	310.09	4983.3m	3.37	308.64
#	5009.6m	2.66	307.75	5040.2m	2.81	307.39
#	5069.7m	3.03	298.46	5100.5m	3.88	292.76
#	5126.7m	3.99	297.59	5157.5m	4.00	296.72
#	5186.1m	4.23	299.71	5213.0m	3.84	304.22
#	5242.0m	3.97	301.56	5265.7m	4.07	299.21
#	5287.0m	4.07	299.21
#
# VELOCITY SURVEY:	No checkshot survey run
# 
# ************************************************************
#
# #
# LOCN 	LAT:	13o 34' 24.825" S			WELL NAME:	Poseidon North 1	
# 	LONG:	122o 20' 24.556" E
# 	EASTING:	428611.91m E	NORTHING: 	8499338.27m N	ZONE:	51	GDA 94
# SEISMIC SURV:	Poseidon 3D	INLINE:  3600	XLINE: 2250	STATUS:	P & A
# ELEVN SF:	- 486.0m MSL 	DATUM RT:	22.0m	OPERATOR:	ConocoPhillips
# BASIN:		Browse	TOTAL D:	5287m	PARTNERS:	Karoon, PetroChina
# SPUD DATE:	19/03/2014	COMPLN DATE:	18/05/2014	LEASE:	WA-315-P
# TARGET:	Montara & Plover Fms, seismic closure	DRILLER:	Transocean
# DATA SOURCE:	WCR (Basic), logs			RIG:	Legend
# #
# HOLE AND CASING DATA:
# 	Hole 	Hole	Casing	Casing 	Weight	Grade	Joints	Cement	TOC
# 	Size	Depth	Size	Depth	lb/ft
# 	36”	568.3m	30”	568m	456 / 310	X-52	2 / 3	221 sx G at SG 1.5	
# 								1118 sx G at SG 1.9
# 								225 sx G at SG 1.9 	Grouted
# 	17.5”	2459m	13 3/8”	2453m	72	P-110	160	1734 sx G at SG 1.44
# 								486 sx G at SG 1.9
# 	12.25”	3820m	9 5/8”	3814.8m	53.5	P-110	267	469 sx HTB at SG 1.89
# 	8.5”	5287m	
# #
# TEMPERATURES:
# 	Depth Driller	Logger	Temp	Log Type	Time since circ	Circ Time
# 	5287m	5234m	165.6 deg C	QAIT-HNGS	25.9 hrs	2.5 hrs
# 		5060m	165.6 deg C	MDT	55 hrs
# #
# MUD PROPERTIES:
# Depth (L)	Fluid Type	SG	Vis.	pH	Fl cc	Rm	Rmf	Rmc
#  5287m	Novatec SBM	1.57	81	na	3.6	Assumed infinite
# #
#
# ************************************************************
#    This LAS file was created by Occam Technology Pty. Ltd.
# The edit data contained herein are copyright property of
# Occam Technology Pty. Ltd. The data are licensed to the
# purchasing company and subsidiaries worldwide, and are NOT
# for on-copying to third parties.  We place no restriction on
# the distribution of plots generated from the digital data.
#
#    We supply the data on a 'best effort' basis.  We cannot
# control either the original data acquisition or the application
# of the data, and therefore we cannot be held responsible for
# the consequences of any interpretations based on the data.  We
# urge purchasers to apply normal quality control procedures to
# the data before use for any quantitative interpretative
# procedures.
# ************************************************************
~A      DEPT         GRD          RS          RD        RHOB        TNPH        DTCO        DTSM        HDAR
# ...
   5022.0000     69.9301      7.7611      7.7300   -999.2500   -999.2500     67.2677    139.6978      8.5624
   5022.5000    121.6430      5.0968      5.0677   -999.2500   -999.2500     67.2765    139.7434      8.5624
   5023.0000    134.6306      4.5655      4.3962   -999.2500   -999.2500     67.2851    139.7148      8.6067
   5023.5000     98.0687      4.4163      4.3082   -999.2500   -999.2500     67.2926    139.7367      8.5624
   5024.0000    102.0481      6.0108      5.7991   -999.2500   -999.2500     67.2804    139.7363      8.5624
   5024.5000    144.1659      4.3757      4.3268   -999.2500   -999.2500     67.2860    139.7215      8.5624
   5025.0000    133.8657      3.3107      3.2563   -999.2500   -999.2500     68.1095    130.0386      8.5624
   5025.5000    146.3836      2.6458      2.6175   -999.2500   -999.2500     72.6638    136.6988      8.5624
   5026.0000    151.4233      3.2458      3.2875   -999.2500   -999.2500     76.5332    145.8758      8.5624
   5026.5000     61.1117     13.9103     11.9523   -999.2500   -999.2500     77.2952    131.7789      8.5846
   5027.0000     89.6318      7.5912      7.0974   -999.2500   -999.2500     62.8946    131.7789      8.5624
   5027.5000    152.1357      3.1073      3.1048   -999.2500   -999.2500     68.7169    130.6353      8.5624
   5028.0000    155.8480      2.6672      2.6979   -999.2500   -999.2500     68.7169    130.6353      8.5624
   5028.5000    153.2733      2.3031      2.3031   -999.2500   -999.2500     68.7169    140.0466      8.5624
   5029.0000    142.6949      2.7071      2.6910   -999.2500   -999.2500     74.7535    145.7009      8.5624
   5029.5000    126.2034      5.0072      4.8821   -999.2500   -999.2500     79.2437    153.1751      8.5846
   5030.0000    125.4645      5.2653      5.0827   -999.2500   -999.2500     77.7598    148.5500      8.5624
   5030.5000    122.3248      5.3050      5.2080   -999.2500   -999.2500     74.1616    139.4804      8.5624
   5031.0000    131.4308      4.8004      4.7596   -999.2500   -999.2500     71.5605    129.6674      8.5624
   5031.5000    123.4875      5.6780      5.5258   -999.2500   -999.2500     70.7626    128.6200      8.5624
   5032.0000    117.7662      5.9022      5.6888   -999.2500   -999.2500     70.8729    128.4125      8.5624
   5032.5000    134.8704      4.9741      4.8931   -999.2500   -999.2500     69.5098    127.8896      8.5624
   5033.0000    128.3553      4.8096      4.8757   -999.2500   -999.2500     69.8047    128.5634      8.5624
   5033.5000    128.1795      4.8158      4.5296   -999.2500   -999.2500     70.1333    129.1354      8.5624
   5034.0000    110.4520      4.3471      4.2689   -999.2500   -999.2500     70.6008    141.3234      8.5624
   5034.5000    150.3492      2.3651      2.3304   -999.2500   -999.2500     71.7202    141.4348      8.5846
   5035.0000    151.6407      2.3462      2.3769   -999.2500   -999.2500     71.8962    143.3792      8.5624
   5035.5000    146.6489      2.7717      2.7426   -999.2500   -999.2500     76.7211    156.6224      8.5624
   5036.0000    146.7656      3.1002      3.0107   -999.2500   -999.2500     79.7759    151.8845      8.5624
   5036.5000    145.4756      3.3293      3.2773   -999.2500   -999.2500     77.8063    145.4916      8.5624
   5037.0000    139.3785      3.1535      3.1012   -999.2500   -999.2500     76.5155    143.4407      8.6067
   5037.5000    143.7378      3.2643      3.1972   -999.2500   -999.2500     76.6077    143.6407      8.5846
   5038.0000    144.1687      3.2904      3.2179   -999.2500   -999.2500     76.8092    144.5726      8.5624
   5038.5000    147.4211      2.8674      2.8745   -999.2500   -999.2500     77.6919    149.0970      8.6067
   5039.0000    129.8087      3.5275      3.5081   -999.2500   -999.2500     78.3077    148.5986      8.5624
   5039.5000    116.2487      3.7231      3.6455   -999.2500   -999.2500     74.3288    143.9407      8.5624
   5040.0000    149.1036      2.8111      2.7892   -999.2500   -999.2500     74.2338    152.6813      8.5624
   5040.5000    146.8141      2.8425      2.8146   -999.2500   -999.2500     74.5566    156.0303      8.5846
   5041.0000    143.9510      2.8530      2.7807   -999.2500   -999.2500     76.4387    148.0596      8.5624
   5041.5000    151.8267      2.6303      2.6297   -999.2500   -999.2500     78.9925    153.8716      8.5403
   5042.0000    153.9328      3.0220      2.9318   -999.2500   -999.2500     79.6279    152.1798      8.6067
   5042.5000    101.7661      5.3798      5.2665   -999.2500   -999.2500     78.4414    148.9062      8.5846
   5043.0000    132.8031      3.2901      3.1867   -999.2500   -999.2500     73.6946    140.6592      8.5846
   5043.5000    137.9228      3.1852      3.1815   -999.2500   -999.2500     71.8853    140.9397      8.5846
   5044.0000    143.8798      3.0994      3.0498   -999.2500   -999.2500     74.3190    147.7135      8.5846
   5044.5000    149.0499      2.7200      2.6738   -999.2500   -999.2500     77.1191    157.5023      8.6288
   5045.0000    154.4638      2.4840      2.4439   -999.2500   -999.2500     78.5302    158.6745      8.5846
   5045.5000    145.2917      2.7362      2.6969   -999.2500   -999.2500     79.4886    162.1711      8.5846
   5046.0000    152.1455      2.5998      2.5501   -999.2500   -999.2500     79.6468    159.2822      8.6067
   5046.5000    152.9077      2.5202      2.4718   -999.2500   -999.2500     80.2563    162.1599      8.6067
   5047.0000    157.6735      2.4529      2.4320   -999.2500   -999.2500     80.9407    164.4638      8.5846
   5047.5000    161.6146      2.4298      2.3979   -999.2500   -999.2500     81.6312    156.6429      8.5846
   5048.0000     90.8525      6.2017      6.0997   -999.2500   -999.2500     79.6969    150.3909      8.6067
   5048.5000     80.6267      5.5735      5.5739   -999.2500   -999.2500     73.8434    141.6859      8.5846
   5049.0000    155.4360      3.7911      3.8082   -999.2500   -999.2500     69.3803    130.3818      8.5846
   5049.5000     92.6180      7.8156      7.3575   -999.2500   -999.2500     69.2231    126.7728      8.6067
   5050.0000     78.0505      5.9389      5.6618   -999.2500   -999.2500     66.8362    137.1253      8.5846
   5050.5000    163.3074      2.4076      2.4067   -999.2500   -999.2500     73.8861    154.6975      8.6067
   5051.0000    159.5665      2.2550      2.2388   -999.2500   -999.2500     79.5508    161.1127      8.6067
   5051.5000    156.6060      2.2067      2.1618   -999.2500   -999.2500     82.3861    167.8462      8.5846
   5052.0000    146.9023      2.3719      2.3289   -999.2500   -999.2500     82.4375    162.3446      8.5846
   5052.5000    120.6458      3.3459      3.2605   -999.2500   -999.2500     79.4344    149.9034      8.5846
   5053.0000    140.5144      2.8956      2.7771   -999.2500   -999.2500     75.5481    149.9185      8.6067
   5053.5000    150.9678      2.5950      2.5906   -999.2500   -999.2500     75.1229    153.1999      8.5846
   5054.0000    152.5685      2.4342      2.3753   -999.2500   -999.2500     77.1781    156.9853      8.6067
   5054.5000    154.7395      2.5509      2.5159   -999.2500   -999.2500     79.9064    160.5195      8.5846
   5055.0000    145.5940      2.7411      2.7281   -999.2500   -999.2500     80.2045    156.8777      8.6067
   5055.5000    141.6233      3.8968      3.8471   -999.2500   -999.2500     79.8008    158.6184      8.5846
   5056.0000     81.9362     10.3228     10.0161   -999.2500   -999.2500     77.9854    148.0798      8.6288
   5056.5000     67.8252     16.0445     14.4828   -999.2500   -999.2500     56.5077    126.7288      8.6288
   5057.0000     61.7956     15.7116     14.7123   -999.2500   -999.2500     64.1847    120.6397      8.6067
   5057.5000     58.9464     15.0367     13.1182   -999.2500   -999.2500     58.2103    119.2750      8.6067
   5058.0000     73.3291      8.6491      9.0462   -999.2500   -999.2500     58.2103    119.2750      8.6288
   5058.5000    127.9169      4.4392      4.4904   -999.2500   -999.2500     57.7440    115.8357      8.6067
