~Version Information
 VERS.           2.0     :   CWLS log ASCII Standard -VERSION 2.0
 WRAP.           NO      :   One line per depth step
~Well Information
#MNEM.UNIT      VALUE/NAME              DESCRIPTION
#--------     --------------            ---------------------
 STRT.M           579.5000              :START DEPTH
 STOP.M          5115.5000              :STOP DEPTH
 STEP.M             0.5000              :STEP
 NULL.             -999.25              :NULL VALUE
 COMP.    ConocoPhillips                :COMPANY
 WELL.    Poseidon 1                    :WELL
 FLD .    Exploration                   :FIELD
 LOC .                                  :LOCATION
 PROV.                                  :PROVINCE
 SRVC.    Schlumberger D&M              :SERVICE COMPANY
 CTRY.                                  :COUNTRY
 DATE.    28-Apr-09                     :LOG DATE
 UWI .                                  :UNIQUE WELL ID
 LATI.DEG -13/37/16.79                   : Latitude
 LONG.DEG 122/18/23.99                  : Longitude
 GDAT.                                  : Geodetic Datum
~PARAMETER INFORMATION
~CURVE INFORMATION
#MNEM    .UNIT     API CODE             Curve Description
 DEPT    .M                             :   Along hole depth
 ECGR    .gAPI                          :   EDTC Corrected Gamma-Ray
 ATRX    .ohm.m                         :   Array Induction Two Foot Rxo
 ATRT    .ohm.m                         :   Array Induction Two Foot Rt
 NPHI    .pu                            :   Thermal Neutron Porosity (Ratio Method)
 CAL1    .in                            :   Caliper 1
 HDAR    .in                            :   Hole Diameter from Area
 HROM    .g/cm3                         :   LDS High Resolution Corrected Bulk Density
 DTSM    .us/ft                         :   Delta-T Shear
 DTCO    .us/ft                         :   Delta-T Compressional
#
# Curve              Start        Stop     Minimum     Maximum
# ------------------------------------------------------------
#
# ECGR            904.0000   5108.0000      5.0321    198.6361
# ATRX            579.5000   5114.0000      0.1100   1950.0000
# ATRT            579.5000   5114.0000      0.1803   1950.0000
# NPHI           3858.0000   5104.5000      1.0400     50.1900
# CAL1           3845.0000   5003.0000      4.5412     12.7663
# HDAR           3884.0000   5110.0000      5.8056     12.6868
# HROM           3887.0000   5115.0000      1.4423      3.0358
# DTSM           4395.0000   4974.0000     83.2234    221.9217
# DTCO           4395.0000   4974.0000     51.4416    111.5382
# ******************************
# 
# ************************************************************
#
# #
# LOCN 	LAT:	13o 37' 16.79" S			WELL NAME:	Poseidon 1
# 	LONG:	122o 18' 23.99" E
# 	EASTING:	425055.467m E	NORTHING: 	8493875.264m N	ZONE:	51	GDA 94
# SHOT POINT:		SEISMIC LINE:		STATUS:	P & A
# SEISMIC SURVEY:		INLINE:	XLINE:
# ELEVN SF:	494.0m	DATUM KB:	26.4m	OPERATOR:	ConocoPhillips
# BASIN :		Browse	TOTAL D:	5112.1m	PARTNERS:	Karoon
# SPUD DATE:	26/01/2009	COMPLN DATE:	29/05/2009	LEASE:	WA-315-P
# TARGET:	Plover SS			DRILLER:	Transocean
# DATA SOURCE:	WCR, logs			RIG:	Sedco 703
# #
# HOLE AND CASING DATA:
# 	Hole 	Hole	Casing	Casing 	Weight	Grade	Joints	Cement	TOC
# 	Size	Depth	Size	Depth	lb/ft
# 	36”	581.8m	30”	578m	310	X-52	5	1105 sx G at SG 1.9	Seafloor
# 								185 sx G at SG 1.9 – top up
# 	17.5”	2296m	13 3/8”	2287.5m	72	P-110	143	688 sx G at SG 1.5
# 								500 sx G at SG 1.9
# 	12.25”	3898m	9 5/8”	3890.8m	53.5	P-110	274	202 sx G at SG 1.62	
# 								133 sx G at SG 1.98
# 	9.5”	3965m	7 5/8”	3957m	30.5	EX-80	14	
# 	8.5”	4588m	7”	4587.5m	32 / 29	P110/L80	47/20	213 sx G at SG 1.9
# 	6”	5112.1m	5”	5088.4m	18	P-110	72	116 sx G at SG 1.9
# #
# TEMPERATURES:
# 	Depth Driller	Logger	Temp	Log Type	Time since circ	Circ Time
# 	3965m	3960m	104 deg C	FMI	22.78 hrs	2.5 hrs
# 	5112.1m	5118m	160 deg C	CMR	22.83 hrs
# 			162 deg C	HNGS	36.17 hrs
# 		4990m	165 deg c	Sonic Scanner	47.47 hrs
# #
# MUD PROPERTIES:
# Depth (L)	Fluid Type	SG	Vis.	pH	Fl cc	Rm	Rmf	Rmc
# 3965m	KCl-Polymer	1.29				0.167 at 18.6 deg C	0.244 at 17.8 deg C	0.261 at 18 deg C
# 		KCl	6%	Barite 	7.5%
# 5112.1m	Novatec SBM	1.20			3.6	
# 				Barite	10.3%
# #
#
# DEVIATION SURVEY:		(Schlumberger)
#	Depth	Dev (deg)	Azimuth (deg)	Depth	Dev (deg)	Azimuth (deg)
#	0.0m	0.00	0.00	520.5m	0.00	0.00
#	527.6m	0.39	259.27	552.8m	1.09	19.41
#	607.9m	0.33	161.06	636.3m	0.28	157.46
#	666.2m	0.42	156.27	723.3m	0.49	158.80
#	752.4m	0.76	145.50	811.0m	0.69	144.79
#	868.3m	0.66	149.14	897.2m	0.66	152.38
#	926.2m	0.53	150.70	1013.9m	0.64	144.22
#	1100.8m	0.45	222.81	1130.8m	0.53	244.07
#	1187.1m	0.69	231.27	1215.1m	0.65	232.48
#	1243.9m	0.64	288.99	1272.6m	0.63	304.63
#	1300.8m	0.62	311.48	1329.9m	0.16	285.18
#	1359.0m	0.11	292.17	1386.3m	0.31	331.80
#	1416.5m	0.53	355.63	1447.1m	0.61	2.60
#	1474.7m	0.94	7.68	1505.2m	1.01	358.08
#	1534.9m	0.92	345.86	1563.8m	0.61	5.17
#	1592.2m	0.76	17.60	1622.0m	0.60	20.84
#	1650.2m	0.65	36.42	1763.9m	0.60	51.71
#	1821.4m	0.46	44.49	1850.5m	0.79	49.16
#	1908.9m	0.96	36.49	1939.6m	0.58	13.70
#	1959.8m	0.13	322.88	2044.1m	0.34	243.01
#	2073.4m	0.44	233.00	2101.7m	0.51	240.40
#	2131.7m	0.50	252.10	2189.0m	0.49	257.69
#	2246.1m	0.42	251.29	2269.4m	0.43	247.24
#	2313.9m	0.33	207.85	2341.6m	0.20	199.21
#	2369.9m	0.15	229.33	2398.5m	0.14	219.45
#	2427.2m	0.22	182.60	2456.2m	0.23	217.52
#	2486.6m	0.30	200.91	2516.1m	0.34	250.17
#	2599.5m	0.23	257.73	2656.6m	0.37	259.03
#	2685.9m	0.36	244.41	2714.4m	0.33	247.01
#	2743.5m	0.44	264.65	2772.9m	0.36	248.49
#	2802.7m	0.49	249.47	2829.7m	0.46	254.82
#	2887.1m	0.37	245.00	2916.6m	0.30	229.13
#	2946.6m	0.14	227.49	3004.8m	0.20	234.38
#	3062.1m	0.52	223.74	3090.7m	0.51	219.43
#	3120.9m	0.47	216.60	3150.2m	0.49	219.95
#	3178.9m	0.44	222.75	3206.5m	0.40	211.30
#	3235.7m	0.35	217.26	3265.7m	0.49	214.66
#	3322.4m	0.35	211.44	3350.4m	0.36	212.61
#	3379.8m	0.35	230.18	3409.2m	0.34	230.92
#	3494.2m	0.34	231.38	3557.7m	0.29	277.76
#	3668.7m	0.32	324.77	3698.3m	0.43	340.30
#	3729.8m	0.45	340.13	3756.5m	0.39	332.45
#	3815.7m	0.44	309.71	3873.0m	0.59	285.30
#	4047.5m	4.76	321.71	4065.7m	5.39	333.06
#	4082.1m	6.39	336.20	4098.9m	7.73	337.83
#	4115.7m	9.43	344.07	4147.0m	12.37	344.49
#	4160.9m	13.41	345.79	4170.7m	13.89	349.54
#	4182.8m	14.27	348.89	4198.0m	15.83	349.61
#	4230.3m	13.55	353.68	4255.8m	12.41	353.57
#	4287.3m	11.70	355.88	4312.9m	11.40	355.42
#	4344.1m	10.54	354.84	4370.2m	10.32	356.38
#	4403.0m	10.25	3.71	4428.6m	10.50	359.63
#	4443.5m	9.94	359.87	4458.4m	10.08	1.47
#	4486.5m	9.71	359.12	4514.6m	9.26	359.81
#	4545.3m	9.64	0.67	4572.5m	9.26	356.64
#	4602.8m	8.97	350.43	4631.2m	8.70	344.94
#	4660.8m	8.34	342.12	4688.5m	8.14	338.90
#	4718.7m	8.30	333.76	4776.7m	8.03	335.31
#	4804.1m	7.88	336.68	4832.6m	7.95	337.54
#	4862.8m	7.84	339.39	4891.2m	7.71	338.67
#	4920.0m	8.19	338.17	4948.2m	8.48	335.94
#	4980.2m	8.19	335.87	5009.6m	7.89	329.96
#	5036.0m	7.84	329.96	5066.0m	7.78	329.28
#	5093.9m	7.52	327.67	5112.0m	7.52	327.67
#
# VELOCITY SURVEY:	(Schlumberger)		OWT, vertically corrected, relative to SRD (MSL)
#	Depth	TVD SS	OWT(sec)	Depth	TVD SS	OWT(sec)
#	29.3m	2.9m	0.0316	44.4m	18.0m	0.1682
#	59.5m	33.1m	0.3158	784.1m	757.7m	0.6576
#	799.2m	772.8m	0.6603	814.3m	787.9m	0.6620
#	829.5m	803.0m	0.6645	1744.4m	1717.9m	0.8235
#	1759.5m	1733.0m	0.8269	1774.6m	1748.2m	0.8303
#	1789.7m	1763.3m	0.8333	1804.9m	1778.5m	0.8364
#	1820.0m	1793.6m	0.8400	1835.2m	1808.7m	0.8433
#	1850.3m	1823.8m	0.8473	1865.4m	1838.9m	0.8510
#	1880.5m	1854.0m	0.8546	1895.6m	1869.1m	0.8584
#	1910.7m	1884.2m	0.8627	1925.8m	1899.3m	0.8666
#	1940.9m	1914.5m	0.8705	1956.1m	1929.6m	0.8744
#	1971.2m	1944.7m	0.8782	1986.4m	1959.9m	0.8816
#	2001.5m	1975.0m	0.8850	2016.7m	1990.2m	0.8885
#	2031.8m	2005.3m	0.8918	2046.8m	2020.3m	0.8953
#	2062.0m	2035.5m	0.8987	2077.1m	2050.6m	0.9018
#	2092.2m	2065.7m	0.9050	2107.3m	2080.8m	0.9080
#	2122.4m	2095.9m	0.9111	2137.6m	2111.1m	0.9138
#	2152.7m	2126.2m	0.9168	2167.8m	2141.3m	0.9196
#	2182.9m	2156.4m	0.9224	2198.1m	2171.6m	0.9253
#	2213.2m	2186.7m	0.9283	2228.3m	2201.8m	0.9313
#	2243.4m	2216.9m	0.9342	2258.6m	2232.1m	0.9371
#	2273.7m	2247.2m	0.9400	2288.8m	2262.4m	0.9430
#	2304.0m	2277.5m	0.9460	2319.1m	2292.6m	0.9488
#	2334.2m	2307.7m	0.9517	2349.2m	2322.7m	0.9545
#	2364.4m	2337.9m	0.9576	2379.5m	2353.0m	0.9605
#	2394.6m	2368.1m	0.9632	2409.6m	2383.1m	0.9661
#	2424.8m	2398.3m	0.9692	2439.9m	2413.4m	0.9724
#	2455.0m	2428.5m	0.9757	2470.2m	2443.7m	0.9795
#	2485.3m	2458.8m	0.9830	2500.4m	2473.9m	0.9865
#	2515.6m	2489.1m	0.9900	2530.7m	2504.2m	0.9937
#	2545.9m	2519.4m	0.9973	2561.0m	2534.5m	1.0010
#	2576.1m	2549.6m	1.0046	2591.2m	2564.7m	1.0080
#	2606.3m	2579.8m	1.0113	2621.5m	2595.0m	1.0147
#	2636.6m	2610.1m	1.0183	2651.6m	2625.1m	1.0215
#	2666.8m	2640.3m	1.0249	2681.9m	2655.4m	1.0285
#	2697.0m	2670.5m	1.0325	2712.1m	2685.6m	1.0361
#	2727.3m	2700.8m	1.0399	2742.4m	2715.9m	1.0434
#	2757.5m	2731.0m	1.0472	2772.6m	2746.1m	1.0510
#	2787.7m	2761.2m	1.0547	2802.8m	2776.3m	1.0582
#	2817.9m	2791.4m	1.0617	2833.0m	2806.5m	1.0651
#	2848.2m	2821.7m	1.0685	2863.3m	2836.8m	1.0718
#	2878.4m	2851.9m	1.0750	2893.6m	2867.1m	1.0781
#	2908.8m	2882.3m	1.0814	2914.1m	2887.6m	1.0824
#	2923.9m	2897.4m	1.0844	2929.2m	2902.7m	1.0855
#	2939.0m	2912.5m	1.0875	2944.4m	2917.8m	1.0887
#	2954.0m	2927.5m	1.0907	2959.5m	2933.0m	1.0921
#	2969.1m	2942.6m	1.0941	2984.3m	2957.8m	1.0975
#	2999.4m	2972.9m	1.1008	3014.5m	2988.0m	1.1040
#	3029.6m	3003.1m	1.1072	3044.8m	3018.3m	1.1103
#	3059.9m	3033.4m	1.1134	3075.1m	3048.5m	1.1165
#	3090.2m	3063.7m	1.1194	3105.3m	3078.8m	1.1224
#	3120.4m	3093.9m	1.1253	3135.6m	3109.0m	1.1284
#	3150.7m	3124.2m	1.1318	3165.8m	3139.3m	1.1352
#	3180.9m	3154.4m	1.1385	3196.0m	3169.5m	1.1420
#	3211.2m	3184.6m	1.1452	3226.3m	3199.8m	1.1486
#	3241.4m	3214.9m	1.1518	3256.4m	3229.9m	1.1550
#	3271.6m	3245.0m	1.1583	3286.7m	3260.2m	1.1618
#	3301.8m	3275.3m	1.1653	3316.9m	3290.4m	1.1690
#	3332.1m	3305.6m	1.1726	3347.2m	3320.7m	1.1767
#	3362.3m	3335.8m	1.1808	3377.4m	3350.9m	1.1849
#	3392.6m	3366.0m	1.1889	3407.7m	3381.2m	1.1926
#	3831.1m	3804.5m	1.2951	3846.2m	3819.6m	1.2989
#	3861.2m	3834.7m	1.3025	3876.3m	3849.8m	1.3067
#	3891.5m	3864.9m	1.3108	3906.6m	3880.0m	1.3154
#	3921.7m	3895.1m	1.3196	3936.8m	3910.2m	1.3245
#	3952.0m	3925.3m	1.3297	3967.1m	3940.4m	1.3350
#	3982.3m	3955.6m	1.3402	3997.4m	3970.7m	1.3452
#	4012.5m	3985.8m	1.3502	4027.6m	4000.9m	1.3552
#	4042.6m	4015.9m	1.3603	4057.8m	4031.0m	1.3653
#	4072.9m	4046.0m	1.3703	4088.0m	4061.0m	1.3752
#	4103.2m	4076.1m	1.3799	4118.3m	4091.0m	1.3848
#	4133.4m	4105.8m	1.3895	4148.5m	4120.7m	1.3944
#	4163.7m	4135.4m	1.3993	4178.8m	4150.1m	1.4041
#	4193.9m	4164.7m	1.4089	4209.0m	4179.3m	1.4135
#	4224.1m	4193.9m	1.4181	4239.2m	4208.6m	1.4227
#	4254.3m	4223.3m	1.4271	4269.4m	4238.1m	1.4316
#	4284.7m	4253.0m	1.4359	4284.7m	4253.0m	1.4358
#	4299.8m	4267.8m	1.4402	4299.8m	4267.8m	1.4402
#	4314.9m	4282.6m	1.4448	4314.9m	4282.6m	1.4447
#	4330.0m	4297.5m	1.4493	4330.0m	4297.5m	1.4493	
#
# ************************************************************
#    This LAS file was created by Occam Technology Pty. Ltd.
# The edit data contained herein are copyright property of
# Occam Technology Pty. Ltd. The data are licensed to the
# purchasing company and subsidiaries worldwide, and are NOT
# for on-copying to third parties.  We place no restriction on
# the distribution of plots generated from the digital data.
#
#    We supply the data on a 'best effort' basis.  We cannot
# control either the original data acquisition or the application
# of the data, and therefore we cannot be held responsible for
# the consequences of any interpretations based on the data.  We
# urge purchasers to apply normal quality control procedures to
# the data before use for any quantitative interpretative
# procedures.
# ************************************************************
~A      DEPT        ECGR        ATRX        ATRT        NPHI        CAL1        HDAR        HROM        DTSM        DTCO
# ...
   4532.5000     44.4236      2.2280      2.1092   -999.2500      5.1230   -999.2500   -999.2500    148.2754     84.2811
   4533.0000     44.6477      2.1804      2.1386   -999.2500      5.1226   -999.2500   -999.2500    149.2256     83.6671
   4533.5000     44.8601      2.2001      2.1102   -999.2500      5.1221   -999.2500   -999.2500    153.9264     84.4457
   4534.0000     45.7150      2.2500      2.1600   -999.2500      5.1231   -999.2500   -999.2500    149.3182     84.4781
   4534.5000     42.5398      2.2593      2.1007   -999.2500      5.1218   -999.2500   -999.2500    148.8886     82.3267
   4535.0000     44.1619      2.6319      2.5217   -999.2500      5.1216   -999.2500   -999.2500    145.3852     86.3428
   4535.5000     40.7945      2.6191      2.4486   -999.2500      5.1231   -999.2500   -999.2500    142.5794     82.4530
   4536.0000     36.4226      2.1504      2.0698   -999.2500      5.1243   -999.2500   -999.2500    148.3187     83.7942
   4536.5000     38.1331      2.3294      2.1801   -999.2500      5.1218   -999.2500   -999.2500    141.7534     82.7251
   4537.0000     42.3235      2.5073      2.3211   -999.2500      5.1216   -999.2500   -999.2500    140.7614     81.1521
   4537.5000     37.1382      2.4768      2.3168   -999.2500      5.1223   -999.2500   -999.2500    145.5064     83.4695
   4538.0000     37.3918      2.7286      2.5476   -999.2500      5.1223   -999.2500   -999.2500    141.3796     80.4490
   4538.5000     41.2553      2.9990      2.8888   -999.2500      5.1223   -999.2500   -999.2500    141.6082     80.8089
   4539.0000     34.5564      2.9612      2.8004   -999.2500      5.1216   -999.2500   -999.2500    128.8240     73.9147
   4539.5000     37.5333      3.0845      2.9132   -999.2500      5.1208   -999.2500   -999.2500    142.5735     81.2886
   4540.0000     48.6414      2.6418      2.5020   -999.2500      5.1224   -999.2500   -999.2500    148.1121     78.3844
   4540.5000     46.5286      2.8402      2.6302   -999.2500      5.1204   -999.2500   -999.2500    148.1213     82.6756
   4541.0000     42.3226      2.7711      2.5212   -999.2500      5.1216   -999.2500   -999.2500    134.7080     72.6887
   4541.5000     38.2290      2.8276      2.6589   -999.2500      5.1223   -999.2500   -999.2500    134.9123     74.4747
   4542.0000     37.2584      3.1669      2.9075   -999.2500      5.1233   -999.2500   -999.2500    139.2600     72.8973
   4542.5000     33.2780      3.0189      2.7195   -999.2500      5.1216   -999.2500   -999.2500    135.2956     76.0776
   4543.0000     30.7064      2.4090      2.2794   -999.2500      5.1239   -999.2500   -999.2500    121.8379   -999.2500
   4543.5000     31.7421      2.2401      2.0904   -999.2500      5.1216   -999.2500   -999.2500    131.3273   -999.2500
   4544.0000     39.5602      2.3380      2.2487   -999.2500      5.1208   -999.2500   -999.2500    140.1970     71.7096
   4544.5000     36.2933      2.3130      2.1832   -999.2500      5.1213   -999.2500   -999.2500    134.9085     77.0356
   4545.0000     33.9292      2.5109      2.4591   -999.2500      5.1223   -999.2500   -999.2500    133.0934     73.9694
   4545.5000     33.4154      2.5500      2.4000   -999.2500      5.1224   -999.2500   -999.2500    134.4143   -999.2500
   4546.0000     28.9415      2.7086      2.5177   -999.2500      5.1224   -999.2500   -999.2500    122.5034   -999.2500
   4546.5000     35.0907      2.5304      2.3588     23.7100      5.1216   -999.2500   -999.2500    150.0562     78.0126
   4547.0000     42.8656      2.3815      2.3005     24.3700      5.1231   -999.2500   -999.2500    132.6269     88.0425
   4547.5000     44.5620      2.4398      2.2699     24.3000      5.1208   -999.2500   -999.2500    156.6072   -999.2500
   4548.0000     44.8592      2.4500      2.3599     22.8500      5.1211   -999.2500   -999.2500    148.4548   -999.2500
   4548.5000     40.8118      2.5897      2.4789     23.2800      5.1193   -999.2500   -999.2500    135.1333     80.8915
   4549.0000     35.8285      2.7082      2.4394     23.6900      5.1200   -999.2500   -999.2500    131.6635     80.4571
   4549.5000     32.0439      2.9692      2.5995     23.0800      5.1216   -999.2500   -999.2500    131.6688     76.5096
   4550.0000     33.9738      2.9703      2.5513     23.5600      5.1223   -999.2500   -999.2500    123.3493     77.9470
   4550.5000     37.2734      3.3498      2.8899     23.8400      5.1216   -999.2500   -999.2500    142.9433     69.9337
   4551.0000     41.1984      3.3116      2.8416     23.9700      5.1216   -999.2500   -999.2500    138.3069     70.5891
   4551.5000     39.9630      3.2418      2.8607     24.5700      5.1231   -999.2500   -999.2500    147.8108     81.7571
   4552.0000     36.4096      3.4018      3.0116     23.3900      5.1200   -999.2500   -999.2500    140.3501     80.5047
   4552.5000     39.2744      3.3798      2.9697     22.3600      5.1224   -999.2500      2.3571    134.8686     80.3233
   4553.0000     33.3978      3.1805      2.7124     21.8800      5.1216   -999.2500      2.2730    126.8263     75.4408
   4553.5000     37.3388      2.8970      2.6070     22.9000      5.1216   -999.2500      2.2642    120.1609     74.7967
   4554.0000     31.0104      2.6864      2.5167     21.4800      5.1220   -999.2500      2.2431    140.0736     78.4611
   4554.5000     31.8073      2.4902      2.3212     20.3200      5.1211   -999.2500      2.2818    121.2507     68.7900
   4555.0000     30.3353      2.5102      2.4001     19.0300      5.1218   -999.2500      2.2047    126.6058     74.3817
   4555.5000     31.6152      2.4305      2.3498     20.0200      5.1223      6.2548      2.2600    133.6705   -999.2500
   4556.0000     31.7221      2.5492      2.3803     20.4300      5.1218      6.2381      2.2661    123.2146   -999.2500
   4556.5000     32.2474      2.4995      2.3295     19.8400      5.1224      6.2464      2.2714    137.9748   -999.2500
   4557.0000     34.4986      2.4200      2.3100     21.2300      5.1223      6.2464      2.3115    131.5066     74.0847
   4557.5000     35.7732      2.3201      2.2102     22.6800      5.1216      6.2423      2.2707    139.8558     73.9341
   4558.0000     38.3568      2.2992      2.1504     21.1700      5.1223      6.2490      2.1994    141.8643     77.8736
   4558.5000     40.4549      2.5562      2.4235     20.7800      5.1216      6.2548      2.2740    140.0904     79.0222
   4559.0000     41.8670      2.7302      2.5891     21.8400      5.1231      6.2590      2.2927    148.3463   -999.2500
   4559.5000     41.4082      2.6502      2.4609     22.3200      5.1208      6.2925      2.2863    147.7796   -999.2500
   4560.0000     45.5474      2.7799      2.6593     21.8900      5.1228      6.2883      2.2857    141.2316   -999.2500
   4560.5000     46.4718      2.6621      2.4727     21.1400      5.1208      6.2841      2.3260    148.1982   -999.2500
   4561.0000     46.1255      2.5403      2.4688     19.6400      5.1223      6.2883      2.2157    151.3554   -999.2500
   4561.5000     45.2106      2.5892      2.4696     17.7000      5.1231      6.2799      2.1619    139.1747   -999.2500
   4562.0000     36.8423      2.5097      2.3601     19.7400      5.1218      6.3008      1.9718    133.1621   -999.2500
   4562.5000     32.9272      2.5300      2.3900     22.9300      5.1228      6.2841      1.9893    130.7821   -999.2500
   4563.0000     36.0593      2.5690      2.3595     20.8200      5.1243      6.2883      2.1795    148.6500   -999.2500
   4563.5000     33.5369      2.5718      2.4614     21.4800      5.1208      6.2992      2.2144    141.3048   -999.2500
   4564.0000     38.0406      2.7202      2.5602     20.3800      5.1208      6.2674      2.1389    141.5914   -999.2500
   4564.5000     39.2583      2.7300      2.5200     20.0600      5.1216      6.2540      2.2983    138.0179   -999.2500
   4565.0000     41.5050      2.6681      2.4986     19.7600      5.1223      6.2506      2.1617    138.1388   -999.2500
   4565.5000     43.2002      2.7500      2.5697     20.0100      5.1216      6.2966      2.0739    139.8181   -999.2500
