~Version Information
 VERS.           2.0     :   CWLS log ASCII Standard -VERSION 2.0
 WRAP.           NO      :   One line per depth step
~Well Information
#MNEM.UNIT      VALUE/NAME              DESCRIPTION
#--------     --------------            ---------------------
 STRT.M           508.0000              :START DEPTH
 STOP.M          5279.5000              :STOP DEPTH
 STEP.M             0.5000              :STEP
 NULL.             -999.25              :NULL VALUE
 COMP.    ConocoPhillips                :COMPANY
 WELL.    Poseidon North 1              :WELL
 FLD .    Exploration                   :FIELD
 LOC .                                  :LOCATION
 PROV.                                  :PROVINCE
 SRVC.    Schlumberger                  :SERVICE COMPANY
 CTRY.                                  :COUNTRY
 DATE.    05/20/2014                    :LOG DATE
 UWI .                                  :UNIQUE WELL ID
 LATI.DEG -13/34/24.825                  : Latitude
 LONG.DEG 122/20/24.556                 : Longitude
 GDAT.                                  : Geodetic Datum
~PARAMETER INFORMATION
~CURVE INFORMATION
#MNEM    .UNIT     API CODE             Curve Description
 DEPT    .M                             :   Along hole depth
 GRD     .gAPI                          :   Gamma Ray
 RS      .ohm.m                         :   (RM)    (ARC[1])                (6in)                   Phase Shift Resistivity 22 inch Spacing at 2 MHz, Environmentally Corrected.
 RD      .ohm.m                         :   (RM)    (ARC[1])                (6in)                   Phase Shift Resistivity 34 inch Spacing at 2 MHz, Environmentally Corrected.
 RHOB    .g/cm3                         :   (RM)    (ADN[1])                (6in)                   Bulk Density
 TNPH    .pu                            :   (RM)    (ADN[1])                (6in)                   Thermal Neutron Porosity (Ratio Method) in Selected Lithology
 DTCO    .us/ft                         :   Delta-T Compressional
 DTSM    .us/ft                         :   Delta-T Shear
 HDAR    .in                            :   Hole Diameter from Area
#
# Curve              Start        Stop     Minimum     Maximum
# ------------------------------------------------------------
#
# GRD             508.0000   5279.5000      3.5346    204.6889
# RS              568.5000   5279.5000      0.1925    487.9586
# RD              568.5000   5279.5000      0.1945    316.2479
# RHOB           3782.0000   4931.5000      1.9495      3.5107
# TNPH           3780.5000   4931.5000      6.2988     68.6649
# DTCO           3677.0000   5250.0000     48.6167    124.5370
# DTSM           3804.5000   5250.0000     85.6802    273.5039
# HDAR           3808.0000   5273.5000      8.3409     17.3339
# ******************************
# #
# DEVIATION SURVEY:	(Schlumberger)		Definitive Survey
#	Depth	Dev (deg)	Azimuth (deg)	Depth	Dev (deg)	Azimuth (deg)
#	508.3m	0.00	0.00	535.0m	0.51	175.26
#	567.0m	0.46	159.23	632.3m	0.50	124.18
#	690.2m	0.36	105.64	718.4m	0.30	104.70
#	747.0m	0.22	100.37	833.2m	0.12	92.39
#	862.3m	0.14	89.88	948.6m	0.09	77.24
#	1034.5m	0.21	61.94	1120.7m	0.43	72.74
#	1178.5m	0.55	94.45	1234.9m	0.84	96.85
#	1264.2m	1.11	104.58	1293.6m	1.37	101.48
#	1322.8m	1.51	87.02	1353.0m	1.76	69.73
#	1412.0m	1.26	53.07	1440.7m	1.13	48.89
#	1469.3m	0.97	55.84	1497.6m	1.03	53.67
#	1526.2m	0.92	59.74	1554.4m	0.82	58.53
#	1583.8m	0.75	60.20	1641.9m	0.66	59.63
#	1670.7m	0.75	60.62	1698.0m	0.69	57.52
#	1725.9m	0.67	57.15	1754.8m	0.32	52.85
#	1783.6m	0.81	146.83	1812.6m	1.47	161.88
#	1841.3m	1.64	163.20	1870.0m	1.76	163.52
#	1899.8m	1.79	177.44	1927.8m	1.29	184.32
#	1957.9m	1.72	185.24	1986.4m	1.87	187.31
#	2016.7m	1.89	185.97	2045.2m	1.80	187.62
#	2073.8m	1.81	185.62	2102.3m	1.83	186.20
#	2130.6m	1.79	187.06	2159.6m	1.78	184.95
#	2189.6m	1.85	185.18	2218.1m	1.85	184.70
#	2246.2m	1.81	184.66	2274.6m	1.82	181.40
#	2303.7m	1.76	181.56	2331.2m	1.76	183.12
#	2360.1m	1.77	183.23	2389.2m	1.78	181.43
#	2429.8m	1.81	178.67	2453.0m	1.78	181.70
#	2490.3m	1.75	186.73	2519.1m	1.74	190.18
#	2577.7m	1.34	193.07	2606.3m	1.34	194.30
#	2634.8m	1.43	194.62	2663.0m	1.49	196.08
#	2691.9m	1.52	191.72	2720.5m	1.41	196.99
#	2749.1m	1.30	192.26	2778.8m	1.33	197.61
#	2807.5m	1.18	197.33	2836.7m	1.13	193.60
#	2865.4m	1.01	194.63	2894.6m	1.02	201.33
#	2923.5m	0.87	193.21	2952.2m	0.92	194.81
#	2979.9m	0.79	197.44	3007.9m	0.71	189.93
#	3039.2m	0.62	204.55	3068.6m	0.38	211.96
#	3098.5m	0.64	224.56	3126.6m	0.95	223.07
#	3154.6m	0.84	235.70	3185.2m	0.78	238.33
#	3212.8m	0.76	226.49	3242.0m	0.64	244.70
#	3272.3m	0.59	246.79	3300.2m	0.57	235.82
#	3327.8m	0.59	264.08	3357.0m	0.61	267.57
#	3388.0m	0.41	270.93	3443.1m	0.26	299.95
#	3474.8m	0.43	301.03	3500.7m	0.47	288.64
#	3531.2m	0.29	300.47	3558.2m	0.41	316.53
#	3588.3m	0.55	309.28	3617.9m	0.51	307.43
#	3648.0m	0.46	340.11	3676.0m	0.35	315.45
#	3703.6m	0.43	300.04	3730.9m	0.34	326.82
#	3751.3m	0.17	271.57	3780.6m	0.09	301.36
#	3814.8m	0.29	187.90	3828.0m	0.42	183.54
#	3858.7m	0.35	156.45	3888.1m	0.72	141.78
#	3916.0m	0.93	151.39	3944.8m	1.30	136.05
#	3973.2m	1.99	136.59	4001.6m	2.33	140.24
#	4028.8m	2.82	136.91	4057.0m	3.00	139.76
#	4117.2m	2.72	150.07	4147.1m	2.18	148.78
#	4176.6m	1.90	141.66	4205.2m	1.35	129.99
#	4234.2m	0.98	109.72	4261.7m	0.87	84.30
#	4291.0m	1.20	72.60	4320.5m	0.67	70.91
#	4348.8m	0.56	71.19	4376.7m	0.42	56.80
#	4404.4m	0.30	20.79	4433.2m	0.31	341.16
#	4462.6m	0.26	334.54	4521.8m	0.92	284.18
#	4552.1m	1.66	297.93	4580.0m	1.95	318.44
#	4606.9m	2.21	336.83	4636.2m	2.24	345.69
#	4664.8m	2.50	352.22	4693.7m	2.79	352.27
#	4723.0m	2.96	347.28	4753.0m	3.12	334.48
#	4782.4m	3.27	329.12	4811.3m	3.87	326.41
#	4838.8m	4.07	319.63	4866.5m	4.23	317.95
#	4895.6m	4.63	317.81	4927.1m	4.57	312.59
#	4955.7m	3.99	310.09	4983.3m	3.37	308.64
#	5009.6m	2.66	307.75	5040.2m	2.81	307.39
#	5069.7m	3.03	298.46	5100.5m	3.88	292.76
#	5126.7m	3.99	297.59	5157.5m	4.00	296.72
#	5186.1m	4.23	299.71	5213.0m	3.84	304.22
#	5242.0m	3.97	301.56	5265.7m	4.07	299.21
#	5287.0m	4.07	299.21
#
# VELOCITY SURVEY:	No checkshot survey run
# 
# ************************************************************
#
# #
# LOCN 	LAT:	13o 34' 24.825" S			WELL NAME:	Poseidon North 1	
# 	LONG:	122o 20' 24.556" E
# 	EASTING:	428611.91m E	NORTHING: 	8499338.27m N	ZONE:	51	GDA 94
# SEISMIC SURV:	Poseidon 3D	INLINE:  3600	XLINE: 2250	STATUS:	P & A
# ELEVN SF:	- 486.0m MSL 	DATUM RT:	22.0m	OPERATOR:	ConocoPhillips
# BASIN:		Browse	TOTAL D:	5287m	PARTNERS:	Karoon, PetroChina
# SPUD DATE:	19/03/2014	COMPLN DATE:	18/05/2014	LEASE:	WA-315-P
# TARGET:	Montara & Plover Fms, seismic closure	DRILLER:	Transocean
# DATA SOURCE:	WCR (Basic), logs			RIG:	Legend
# #
# HOLE AND CASING DATA:
# 	Hole 	Hole	Casing	Casing 	Weight	Grade	Joints	Cement	TOC
# 	Size	Depth	Size	Depth	lb/ft
# 	36”	568.3m	30”	568m	456 / 310	X-52	2 / 3	221 sx G at SG 1.5	
# 								1118 sx G at SG 1.9
# 								225 sx G at SG 1.9 	Grouted
# 	17.5”	2459m	13 3/8”	2453m	72	P-110	160	1734 sx G at SG 1.44
# 								486 sx G at SG 1.9
# 	12.25”	3820m	9 5/8”	3814.8m	53.5	P-110	267	469 sx HTB at SG 1.89
# 	8.5”	5287m	
# #
# TEMPERATURES:
# 	Depth Driller	Logger	Temp	Log Type	Time since circ	Circ Time
# 	5287m	5234m	165.6 deg C	QAIT-HNGS	25.9 hrs	2.5 hrs
# 		5060m	165.6 deg C	MDT	55 hrs
# #
# MUD PROPERTIES:
# Depth (L)	Fluid Type	SG	Vis.	pH	Fl cc	Rm	Rmf	Rmc
#  5287m	Novatec SBM	1.57	81	na	3.6	Assumed infinite
# #
#
# ************************************************************
#    This LAS file was created by Occam Technology Pty. Ltd.
# The edit data contained herein are copyright property of
# Occam Technology Pty. Ltd. The data are licensed to the
# purchasing company and subsidiaries worldwide, and are NOT
# for on-copying to third parties.  We place no restriction on
# the distribution of plots generated from the digital data.
#
#    We supply the data on a 'best effort' basis.  We cannot
# control either the original data acquisition or the application
# of the data, and therefore we cannot be held responsible for
# the consequences of any interpretations based on the data.  We
# urge purchasers to apply normal quality control procedures to
# the data before use for any quantitative interpretative
# procedures.
# ************************************************************
~A      DEPT         GRD          RS          RD        RHOB        TNPH        DTCO        DTSM        HDAR
# ...
   4097.0000     92.1708      0.7931      0.7868      2.4687     29.1315    103.8579    219.9909      8.6288
   4097.5000     97.3188      0.7811      0.7739      2.4696     28.0549    103.8281    219.9627      8.6288
   4098.0000     85.2727      0.8012      0.7948      2.4631     28.6424    103.8455    219.9147      8.6067
   4098.5000     84.3387      0.7999      0.7913      2.5288     28.2461    103.8436    219.9288      8.6067
   4099.0000     87.4489      0.7942      0.7832      2.5111     28.0007    103.8335    219.9027      8.6288
   4099.5000     95.3885      0.7859      0.7688      2.4709     28.2221    103.9960    218.3455      8.6067
   4100.0000     79.5458      0.8374      0.8174      2.5391     26.0832    103.9191    218.8818      8.6288
   4100.5000     90.6089      0.7974      0.7863      2.4944     29.5897    103.3519    216.0214      8.6067
   4101.0000     86.2270      0.8834      0.8827      2.4780     26.7020    103.7735    217.4448      8.6510
   4101.5000     91.8738      0.8543      0.8505      2.4792     27.5808    103.5911    215.5397      8.6510
   4102.0000     92.1753      0.8349      0.8310      2.4709     27.9678    102.9455    213.9779      8.6510
   4102.5000     85.7147      1.0357      1.0463      2.5870     28.7832    103.5296    214.7757      8.6288
   4103.0000     86.5988      0.7894      0.7711      2.4688     27.0526    102.4108    214.0060      8.6510
   4103.5000     91.9214      0.7840      0.7792      2.4610     29.2994    102.7968    216.5323      8.6510
   4104.0000     92.3340      0.8124      0.8113      2.4691     30.5837    103.4684    219.0694      8.6510
   4104.5000     95.3727      0.7852      0.7783      2.4626     27.8512    104.7696    223.5236      8.6288
   4105.0000     86.6985      0.8223      0.8177      2.4689     26.7523    104.8667    222.9296      8.6731
   4105.5000     87.7424      0.8520      0.8468      2.4962     29.1534    104.5371    222.8051      8.6510
   4106.0000     86.2588      0.7927      0.7835      2.4622     26.3501    104.7424    224.1905      8.6731
   4106.5000     94.0523      0.8035      0.8059      2.4909     29.1673    106.3175    224.1905      8.6510
   4107.0000     96.4007      0.7154      0.7071      2.4559     29.6597    107.0459    228.9085      8.6731
   4107.5000     90.3799      0.7439      0.7386      2.4736     30.3310    107.3076    231.0571      8.7396
   4108.0000     92.2671      0.7332      0.7193      2.4670     30.6479    106.6899    231.0973      8.7396
   4108.5000     89.9991      0.7244      0.7369      2.4719     29.1536    107.1564    232.9907      8.8504
   4109.0000     95.4441      0.7510      0.7448      2.4676     29.4953    107.4855    229.1986      8.8725
   4109.5000     90.1918      0.9764      1.0279      2.4777     29.3967    107.6741    225.3728      8.8725
   4110.0000     93.6442      0.8618      0.8832      2.4542     29.9564    107.4794    224.2141      8.8504
   4110.5000     89.6863      0.9341      0.9692      2.4483     30.4701    106.9203    224.5987      8.8504
   4111.0000     89.6636      1.0226      1.0467      2.4533     29.2068    106.1144    225.2326      8.8725
   4111.5000     91.2164      1.1924      1.3196      2.4558     27.8322    105.8358    219.2987      8.9168
   4112.0000     90.6304      0.8271      0.8608      2.4419     30.2737    107.9012    227.4115      8.9390
   4112.5000     87.5645      0.7261      0.7465      2.4329     30.0002    108.3505    225.0059      8.6510
   4113.0000     85.9255      0.7156      0.7063      2.4305     30.4752    109.0311    230.4712      8.6953
   4113.5000     90.1963      0.7259      0.7091      2.4406     28.4353    110.1152    234.4889      8.6731
   4114.0000     94.6847      0.7071      0.6999      2.4484     28.9748    111.2865    238.2418      8.6953
   4114.5000     96.9765      0.6939      0.6856      2.4541     29.7578    110.9377    237.3395      8.6510
   4115.0000     89.7475      0.6976      0.6870      2.4533     30.1871    110.6419    238.5237      8.6510
   4115.5000     98.2006      0.6701      0.6552      2.4394     29.2361    110.4387    243.3567      8.6731
   4116.0000     96.0879      0.6445      0.6391      2.4488     29.9809    111.0109    245.6373      8.7396
   4116.5000     95.3716      0.6913      0.6853      2.4598     30.5068    111.3787    244.8808      8.8504
   4117.0000     96.5979      0.9665      0.9748      2.4510     30.0325    111.3235    247.2973      8.8725
   4117.5000     94.4675      0.7447      0.7360      2.4543     29.4907    108.8083    250.7927      8.8504
   4118.0000     92.7499      0.7264      0.7599      2.4640     28.2283    108.8083    250.7927      8.8504
   4118.5000     92.6128      0.8748      0.9011      2.4553     27.9524    109.5653    228.5044      8.8504
   4119.0000     94.8003      2.0739      2.0861      2.4441     29.8677    109.5653    228.5044      8.8504
   4119.5000     92.7624      1.9453      1.8699      2.4246     30.3139    109.5653    234.8610      8.8725
   4120.0000     86.6478      1.1225      1.1281      2.4316     32.3712    109.6071    234.8610      8.8504
   4120.5000     87.5259      0.7119      0.7299      2.4353     28.3159    109.6071    234.8610      8.9168
   4121.0000     86.8391      0.6549      0.6137      2.5826     30.1824    109.6349    235.0523      8.7839
   4121.5000     82.5048      0.7307      0.6862      2.4666     26.7691    109.5999    235.2728      8.7396
   4122.0000     86.3880      0.7168      0.7360      2.4558     26.9053    109.5779    235.2572      8.7396
   4122.5000     81.8884      0.8031      0.8808      2.4750     30.9108    109.5709    235.2768      8.7396
   4123.0000     85.3169      1.0148      1.1362      2.4851     26.3722    109.5342    235.0762      8.7617
   4123.5000     93.7598      1.1647      1.2156      2.4536     29.0755    109.5431    235.2419      8.7396
   4124.0000     88.8502      1.1727      1.1654      2.4464     28.9144    109.5322    235.2608      8.7396
   4124.5000     91.8851      0.9382      0.8941      2.4576     28.8660    109.5465    235.2811      8.7396
   4125.0000     96.0220      0.7586      0.7310      2.4746     30.5146    109.4396    234.8086      8.7396
   4125.5000     97.7623      0.6997      0.6890      2.4781     30.5693    109.2590    235.2829      8.7396
   4126.0000     97.7961      0.6326      0.6124      2.4536     29.7512    109.0487    238.6557      8.7396
   4126.5000     93.7965      0.7329      0.7307      2.5256     29.4465    109.3404    244.8229      8.7396
   4127.0000     91.7047      0.8432      0.8756      2.4598     32.0639    108.9745    240.4012      8.7396
   4127.5000     88.9223      1.1334      1.1120      2.4102     30.9679    107.7402    233.7499      8.7617
   4128.0000     89.9896      1.3847      1.4345      2.4266     30.2261    110.1470    237.1940      8.8504
   4128.5000     94.7232      1.1408      1.1636      2.4444     29.0011    115.0184    246.4402      9.2491
   4129.0000     96.6795      0.8687      0.9307      2.4485     26.4292    117.6112    249.1974      8.8061
   4129.5000     87.0384      0.8645      0.9118      2.4561     25.9086    109.0240    237.9697      8.6731
   4130.0000     90.1759      0.8980      0.9351      2.4524     26.3997    108.0013    225.7438      8.6731
   4130.5000     86.9456      0.7456      0.7502      2.4363     24.8858    106.4189    220.6789      8.6731
   4131.0000     86.3967      0.7742      0.7956      2.4510     25.9018    105.7540    217.8007      8.7174
   4131.5000     86.8391      0.8255      0.9056      2.4466     25.4219    105.1693    215.1135      8.6953
   4132.0000     87.5480      0.9520      1.1515      2.4559     26.6026    104.9795    214.7337      8.7174
   4132.5000     88.7432      1.2015      1.5854      2.4591     28.0888    105.3646    216.0106      8.6953
   4133.0000     85.6567      1.4254      1.7960      2.4609     28.1406    105.6626    219.2047      8.7174
   4133.5000     92.4314      1.2950      1.3942      2.4611     27.0123    106.0347    221.1333      8.7839
