~Version Information
 VERS.           2.0     :   CWLS log ASCII Standard -VERSION 2.0
 WRAP.           NO      :   One line per depth step
~Well Information
#MNEM.UNIT      VALUE/NAME              DESCRIPTION
#--------     --------------            ---------------------
 STRT.M           579.5000              :START DEPTH
 STOP.M          5115.5000              :STOP DEPTH
 STEP.M             0.5000              :STEP
 NULL.             -999.25              :NULL VALUE
 COMP.    ConocoPhillips                :COMPANY
 WELL.    Poseidon 1                    :WELL
 FLD .    Exploration                   :FIELD
 LOC .                                  :LOCATION
 PROV.                                  :PROVINCE
 SRVC.    Schlumberger D&M              :SERVICE COMPANY
 CTRY.                                  :COUNTRY
 DATE.    28-Apr-09                     :LOG DATE
 UWI .                                  :UNIQUE WELL ID
 LATI.DEG -13/37/16.79                   : Latitude
 LONG.DEG 122/18/23.99                  : Longitude
 GDAT.                                  : Geodetic Datum
~PARAMETER INFORMATION
~CURVE INFORMATION
#MNEM    .UNIT     API CODE             Curve Description
 DEPT    .M                             :   Along hole depth
 ECGR    .gAPI                          :   EDTC Corrected Gamma-Ray
 ATRX    .ohm.m                         :   Array Induction Two Foot Rxo
 ATRT    .ohm.m                         :   Array Induction Two Foot Rt
 NPHI    .pu                            :   Thermal Neutron Porosity (Ratio Method)
 CAL1    .in                            :   Caliper 1
 HDAR    .in                            :   Hole Diameter from Area
 HROM    .g/cm3                         :   LDS High Resolution Corrected Bulk Density
 DTSM    .us/ft                         :   Delta-T Shear
 DTCO    .us/ft                         :   Delta-T Compressional
#
# Curve              Start        Stop     Minimum     Maximum
# ------------------------------------------------------------
#
# ECGR            904.0000   5108.0000      5.0321    198.6361
# ATRX            579.5000   5114.0000      0.1100   1950.0000
# ATRT            579.5000   5114.0000      0.1803   1950.0000
# NPHI           3858.0000   5104.5000      1.0400     50.1900
# CAL1           3845.0000   5003.0000      4.5412     12.7663
# HDAR           3884.0000   5110.0000      5.8056     12.6868
# HROM           3887.0000   5115.0000      1.4423      3.0358
# DTSM           4395.0000   4974.0000     83.2234    221.9217
# DTCO           4395.0000   4974.0000     51.4416    111.5382
# ******************************
# 
# ************************************************************
#
# #
# LOCN 	LAT:	13o 37' 16.79" S			WELL NAME:	Poseidon 1
# 	LONG:	122o 18' 23.99" E
# 	EASTING:	425055.467m E	NORTHING: 	8493875.264m N	ZONE:	51	GDA 94
# SHOT POINT:		SEISMIC LINE:		STATUS:	P & A
# SEISMIC SURVEY:		INLINE:	XLINE:
# ELEVN SF:	494.0m	DATUM KB:	26.4m	OPERATOR:	ConocoPhillips
# BASIN :		Browse	TOTAL D:	5112.1m	PARTNERS:	Karoon
# SPUD DATE:	26/01/2009	COMPLN DATE:	29/05/2009	LEASE:	WA-315-P
# TARGET:	Plover SS			DRILLER:	Transocean
# DATA SOURCE:	WCR, logs			RIG:	Sedco 703
# #
# HOLE AND CASING DATA:
# 	Hole 	Hole	Casing	Casing 	Weight	Grade	Joints	Cement	TOC
# 	Size	Depth	Size	Depth	lb/ft
# 	36”	581.8m	30”	578m	310	X-52	5	1105 sx G at SG 1.9	Seafloor
# 								185 sx G at SG 1.9 – top up
# 	17.5”	2296m	13 3/8”	2287.5m	72	P-110	143	688 sx G at SG 1.5
# 								500 sx G at SG 1.9
# 	12.25”	3898m	9 5/8”	3890.8m	53.5	P-110	274	202 sx G at SG 1.62	
# 								133 sx G at SG 1.98
# 	9.5”	3965m	7 5/8”	3957m	30.5	EX-80	14	
# 	8.5”	4588m	7”	4587.5m	32 / 29	P110/L80	47/20	213 sx G at SG 1.9
# 	6”	5112.1m	5”	5088.4m	18	P-110	72	116 sx G at SG 1.9
# #
# TEMPERATURES:
# 	Depth Driller	Logger	Temp	Log Type	Time since circ	Circ Time
# 	3965m	3960m	104 deg C	FMI	22.78 hrs	2.5 hrs
# 	5112.1m	5118m	160 deg C	CMR	22.83 hrs
# 			162 deg C	HNGS	36.17 hrs
# 		4990m	165 deg c	Sonic Scanner	47.47 hrs
# #
# MUD PROPERTIES:
# Depth (L)	Fluid Type	SG	Vis.	pH	Fl cc	Rm	Rmf	Rmc
# 3965m	KCl-Polymer	1.29				0.167 at 18.6 deg C	0.244 at 17.8 deg C	0.261 at 18 deg C
# 		KCl	6%	Barite 	7.5%
# 5112.1m	Novatec SBM	1.20			3.6	
# 				Barite	10.3%
# #
#
# DEVIATION SURVEY:		(Schlumberger)
#	Depth	Dev (deg)	Azimuth (deg)	Depth	Dev (deg)	Azimuth (deg)
#	0.0m	0.00	0.00	520.5m	0.00	0.00
#	527.6m	0.39	259.27	552.8m	1.09	19.41
#	607.9m	0.33	161.06	636.3m	0.28	157.46
#	666.2m	0.42	156.27	723.3m	0.49	158.80
#	752.4m	0.76	145.50	811.0m	0.69	144.79
#	868.3m	0.66	149.14	897.2m	0.66	152.38
#	926.2m	0.53	150.70	1013.9m	0.64	144.22
#	1100.8m	0.45	222.81	1130.8m	0.53	244.07
#	1187.1m	0.69	231.27	1215.1m	0.65	232.48
#	1243.9m	0.64	288.99	1272.6m	0.63	304.63
#	1300.8m	0.62	311.48	1329.9m	0.16	285.18
#	1359.0m	0.11	292.17	1386.3m	0.31	331.80
#	1416.5m	0.53	355.63	1447.1m	0.61	2.60
#	1474.7m	0.94	7.68	1505.2m	1.01	358.08
#	1534.9m	0.92	345.86	1563.8m	0.61	5.17
#	1592.2m	0.76	17.60	1622.0m	0.60	20.84
#	1650.2m	0.65	36.42	1763.9m	0.60	51.71
#	1821.4m	0.46	44.49	1850.5m	0.79	49.16
#	1908.9m	0.96	36.49	1939.6m	0.58	13.70
#	1959.8m	0.13	322.88	2044.1m	0.34	243.01
#	2073.4m	0.44	233.00	2101.7m	0.51	240.40
#	2131.7m	0.50	252.10	2189.0m	0.49	257.69
#	2246.1m	0.42	251.29	2269.4m	0.43	247.24
#	2313.9m	0.33	207.85	2341.6m	0.20	199.21
#	2369.9m	0.15	229.33	2398.5m	0.14	219.45
#	2427.2m	0.22	182.60	2456.2m	0.23	217.52
#	2486.6m	0.30	200.91	2516.1m	0.34	250.17
#	2599.5m	0.23	257.73	2656.6m	0.37	259.03
#	2685.9m	0.36	244.41	2714.4m	0.33	247.01
#	2743.5m	0.44	264.65	2772.9m	0.36	248.49
#	2802.7m	0.49	249.47	2829.7m	0.46	254.82
#	2887.1m	0.37	245.00	2916.6m	0.30	229.13
#	2946.6m	0.14	227.49	3004.8m	0.20	234.38
#	3062.1m	0.52	223.74	3090.7m	0.51	219.43
#	3120.9m	0.47	216.60	3150.2m	0.49	219.95
#	3178.9m	0.44	222.75	3206.5m	0.40	211.30
#	3235.7m	0.35	217.26	3265.7m	0.49	214.66
#	3322.4m	0.35	211.44	3350.4m	0.36	212.61
#	3379.8m	0.35	230.18	3409.2m	0.34	230.92
#	3494.2m	0.34	231.38	3557.7m	0.29	277.76
#	3668.7m	0.32	324.77	3698.3m	0.43	340.30
#	3729.8m	0.45	340.13	3756.5m	0.39	332.45
#	3815.7m	0.44	309.71	3873.0m	0.59	285.30
#	4047.5m	4.76	321.71	4065.7m	5.39	333.06
#	4082.1m	6.39	336.20	4098.9m	7.73	337.83
#	4115.7m	9.43	344.07	4147.0m	12.37	344.49
#	4160.9m	13.41	345.79	4170.7m	13.89	349.54
#	4182.8m	14.27	348.89	4198.0m	15.83	349.61
#	4230.3m	13.55	353.68	4255.8m	12.41	353.57
#	4287.3m	11.70	355.88	4312.9m	11.40	355.42
#	4344.1m	10.54	354.84	4370.2m	10.32	356.38
#	4403.0m	10.25	3.71	4428.6m	10.50	359.63
#	4443.5m	9.94	359.87	4458.4m	10.08	1.47
#	4486.5m	9.71	359.12	4514.6m	9.26	359.81
#	4545.3m	9.64	0.67	4572.5m	9.26	356.64
#	4602.8m	8.97	350.43	4631.2m	8.70	344.94
#	4660.8m	8.34	342.12	4688.5m	8.14	338.90
#	4718.7m	8.30	333.76	4776.7m	8.03	335.31
#	4804.1m	7.88	336.68	4832.6m	7.95	337.54
#	4862.8m	7.84	339.39	4891.2m	7.71	338.67
#	4920.0m	8.19	338.17	4948.2m	8.48	335.94
#	4980.2m	8.19	335.87	5009.6m	7.89	329.96
#	5036.0m	7.84	329.96	5066.0m	7.78	329.28
#	5093.9m	7.52	327.67	5112.0m	7.52	327.67
#
# VELOCITY SURVEY:	(Schlumberger)		OWT, vertically corrected, relative to SRD (MSL)
#	Depth	TVD SS	OWT(sec)	Depth	TVD SS	OWT(sec)
#	29.3m	2.9m	0.0316	44.4m	18.0m	0.1682
#	59.5m	33.1m	0.3158	784.1m	757.7m	0.6576
#	799.2m	772.8m	0.6603	814.3m	787.9m	0.6620
#	829.5m	803.0m	0.6645	1744.4m	1717.9m	0.8235
#	1759.5m	1733.0m	0.8269	1774.6m	1748.2m	0.8303
#	1789.7m	1763.3m	0.8333	1804.9m	1778.5m	0.8364
#	1820.0m	1793.6m	0.8400	1835.2m	1808.7m	0.8433
#	1850.3m	1823.8m	0.8473	1865.4m	1838.9m	0.8510
#	1880.5m	1854.0m	0.8546	1895.6m	1869.1m	0.8584
#	1910.7m	1884.2m	0.8627	1925.8m	1899.3m	0.8666
#	1940.9m	1914.5m	0.8705	1956.1m	1929.6m	0.8744
#	1971.2m	1944.7m	0.8782	1986.4m	1959.9m	0.8816
#	2001.5m	1975.0m	0.8850	2016.7m	1990.2m	0.8885
#	2031.8m	2005.3m	0.8918	2046.8m	2020.3m	0.8953
#	2062.0m	2035.5m	0.8987	2077.1m	2050.6m	0.9018
#	2092.2m	2065.7m	0.9050	2107.3m	2080.8m	0.9080
#	2122.4m	2095.9m	0.9111	2137.6m	2111.1m	0.9138
#	2152.7m	2126.2m	0.9168	2167.8m	2141.3m	0.9196
#	2182.9m	2156.4m	0.9224	2198.1m	2171.6m	0.9253
#	2213.2m	2186.7m	0.9283	2228.3m	2201.8m	0.9313
#	2243.4m	2216.9m	0.9342	2258.6m	2232.1m	0.9371
#	2273.7m	2247.2m	0.9400	2288.8m	2262.4m	0.9430
#	2304.0m	2277.5m	0.9460	2319.1m	2292.6m	0.9488
#	2334.2m	2307.7m	0.9517	2349.2m	2322.7m	0.9545
#	2364.4m	2337.9m	0.9576	2379.5m	2353.0m	0.9605
#	2394.6m	2368.1m	0.9632	2409.6m	2383.1m	0.9661
#	2424.8m	2398.3m	0.9692	2439.9m	2413.4m	0.9724
#	2455.0m	2428.5m	0.9757	2470.2m	2443.7m	0.9795
#	2485.3m	2458.8m	0.9830	2500.4m	2473.9m	0.9865
#	2515.6m	2489.1m	0.9900	2530.7m	2504.2m	0.9937
#	2545.9m	2519.4m	0.9973	2561.0m	2534.5m	1.0010
#	2576.1m	2549.6m	1.0046	2591.2m	2564.7m	1.0080
#	2606.3m	2579.8m	1.0113	2621.5m	2595.0m	1.0147
#	2636.6m	2610.1m	1.0183	2651.6m	2625.1m	1.0215
#	2666.8m	2640.3m	1.0249	2681.9m	2655.4m	1.0285
#	2697.0m	2670.5m	1.0325	2712.1m	2685.6m	1.0361
#	2727.3m	2700.8m	1.0399	2742.4m	2715.9m	1.0434
#	2757.5m	2731.0m	1.0472	2772.6m	2746.1m	1.0510
#	2787.7m	2761.2m	1.0547	2802.8m	2776.3m	1.0582
#	2817.9m	2791.4m	1.0617	2833.0m	2806.5m	1.0651
#	2848.2m	2821.7m	1.0685	2863.3m	2836.8m	1.0718
#	2878.4m	2851.9m	1.0750	2893.6m	2867.1m	1.0781
#	2908.8m	2882.3m	1.0814	2914.1m	2887.6m	1.0824
#	2923.9m	2897.4m	1.0844	2929.2m	2902.7m	1.0855
#	2939.0m	2912.5m	1.0875	2944.4m	2917.8m	1.0887
#	2954.0m	2927.5m	1.0907	2959.5m	2933.0m	1.0921
#	2969.1m	2942.6m	1.0941	2984.3m	2957.8m	1.0975
#	2999.4m	2972.9m	1.1008	3014.5m	2988.0m	1.1040
#	3029.6m	3003.1m	1.1072	3044.8m	3018.3m	1.1103
#	3059.9m	3033.4m	1.1134	3075.1m	3048.5m	1.1165
#	3090.2m	3063.7m	1.1194	3105.3m	3078.8m	1.1224
#	3120.4m	3093.9m	1.1253	3135.6m	3109.0m	1.1284
#	3150.7m	3124.2m	1.1318	3165.8m	3139.3m	1.1352
#	3180.9m	3154.4m	1.1385	3196.0m	3169.5m	1.1420
#	3211.2m	3184.6m	1.1452	3226.3m	3199.8m	1.1486
#	3241.4m	3214.9m	1.1518	3256.4m	3229.9m	1.1550
#	3271.6m	3245.0m	1.1583	3286.7m	3260.2m	1.1618
#	3301.8m	3275.3m	1.1653	3316.9m	3290.4m	1.1690
#	3332.1m	3305.6m	1.1726	3347.2m	3320.7m	1.1767
#	3362.3m	3335.8m	1.1808	3377.4m	3350.9m	1.1849
#	3392.6m	3366.0m	1.1889	3407.7m	3381.2m	1.1926
#	3831.1m	3804.5m	1.2951	3846.2m	3819.6m	1.2989
#	3861.2m	3834.7m	1.3025	3876.3m	3849.8m	1.3067
#	3891.5m	3864.9m	1.3108	3906.6m	3880.0m	1.3154
#	3921.7m	3895.1m	1.3196	3936.8m	3910.2m	1.3245
#	3952.0m	3925.3m	1.3297	3967.1m	3940.4m	1.3350
#	3982.3m	3955.6m	1.3402	3997.4m	3970.7m	1.3452
#	4012.5m	3985.8m	1.3502	4027.6m	4000.9m	1.3552
#	4042.6m	4015.9m	1.3603	4057.8m	4031.0m	1.3653
#	4072.9m	4046.0m	1.3703	4088.0m	4061.0m	1.3752
#	4103.2m	4076.1m	1.3799	4118.3m	4091.0m	1.3848
#	4133.4m	4105.8m	1.3895	4148.5m	4120.7m	1.3944
#	4163.7m	4135.4m	1.3993	4178.8m	4150.1m	1.4041
#	4193.9m	4164.7m	1.4089	4209.0m	4179.3m	1.4135
#	4224.1m	4193.9m	1.4181	4239.2m	4208.6m	1.4227
#	4254.3m	4223.3m	1.4271	4269.4m	4238.1m	1.4316
#	4284.7m	4253.0m	1.4359	4284.7m	4253.0m	1.4358
#	4299.8m	4267.8m	1.4402	4299.8m	4267.8m	1.4402
#	4314.9m	4282.6m	1.4448	4314.9m	4282.6m	1.4447
#	4330.0m	4297.5m	1.4493	4330.0m	4297.5m	1.4493	
#
# ************************************************************
#    This LAS file was created by Occam Technology Pty. Ltd.
# The edit data contained herein are copyright property of
# Occam Technology Pty. Ltd. The data are licensed to the
# purchasing company and subsidiaries worldwide, and are NOT
# for on-copying to third parties.  We place no restriction on
# the distribution of plots generated from the digital data.
#
#    We supply the data on a 'best effort' basis.  We cannot
# control either the original data acquisition or the application
# of the data, and therefore we cannot be held responsible for
# the consequences of any interpretations based on the data.  We
# urge purchasers to apply normal quality control procedures to
# the data before use for any quantitative interpretative
# procedures.
# ************************************************************
~A      DEPT        ECGR        ATRX        ATRT        NPHI        CAL1        HDAR        HROM        DTSM        DTCO
# ...
   4733.5000    102.4426      1.7841      1.7047     40.7000      6.0666      6.4849      2.5620    179.2182     94.5167
   4734.0000     96.8615      1.3905      1.3745     42.1100      6.1010      6.5154      2.5231    182.0564     94.7350
   4734.5000     83.1971      1.2472      1.2629     42.6100      6.1744      6.4430      2.7690    177.5149     91.1844
   4735.0000     79.4649      1.3370      1.3622     41.6800      6.1447      6.4042      2.7274    185.1991     90.0591
   4735.5000     83.3766      1.3290      1.3734     43.5300      6.1374      6.4060      2.6465    194.6466     93.8743
   4736.0000     79.6508      1.2956      1.3311     47.2600      6.1837      6.3397      2.6569    193.3581     87.3490
   4736.5000     71.6493      1.4512      1.4034     42.3600      6.1466      6.3200      2.6305    176.0695     86.9608
   4737.0000     63.8222      2.0955      1.4562     36.3400      6.1263      6.3218      2.6277    141.9437     63.1858
   4737.5000     49.3007      3.0377      1.5621     28.7000      6.1060      6.3227      2.6236    167.5970     88.5038
   4738.0000     74.3648      3.0234      1.5768     42.8200      6.1416      6.3253      2.6347    191.6429     96.9444
   4738.5000     82.6860      2.0298      1.3443     42.0400      6.1782      6.3310      2.4759    195.5330    102.3072
   4739.0000     92.9351      1.2954      1.3001     42.4200      6.2404      6.3235      2.5969    200.3872    107.3947
   4739.5000     91.9788      1.0791      1.4711     41.2900      6.1368      6.3415      2.5776    176.8242     82.8937
   4740.0000     71.7634      0.9857      1.3235     36.4600      6.1227      6.2626      2.6655    155.7057     86.3932
   4740.5000     70.4433      1.1468      0.8402     38.1400      6.1592      6.2482      2.5550    154.8363     87.2564
   4741.0000     49.8022      1.4002      0.6576     32.9200      6.1002      6.2680      2.6365    122.5821     56.1454
   4741.5000     42.6451      1.7730      0.6964     16.0200      6.1060      6.2411      2.6730    115.1714     52.4810
   4742.0000     53.9471      2.5186      1.2144     21.5000      6.0662      6.2874      2.6090    149.6434     65.0247
   4742.5000     59.8439      2.5764      2.4679     30.2500      6.1485      6.2841      2.5997    185.2984     82.7894
   4743.0000     56.1654      1.7698      2.8077     34.3800      6.1838      6.2751      2.6032    160.7306     79.8827
   4743.5000     46.2540      1.9520      3.2976     31.8600      6.1010      6.2464      2.7598    150.0656     59.8771
   4744.0000     40.9772      2.6821      4.3744     21.5100      6.1064      6.2500      2.7197    141.1086     58.0135
   4744.5000     43.1197      4.5050     11.8110     19.7100      6.1591      6.2716      2.7192    138.0922     62.3163
   4745.0000     39.5717      6.4112     50.8893     14.2400      6.1042      6.2500      2.7389    121.8581     59.3046
   4745.5000     41.4730      9.6090     91.2648     13.5100      6.0662      6.2733      2.7321    113.2123     54.5364
   4746.0000     41.5928     25.0445     39.9215     15.7900      6.1037      6.2859      2.7240    112.5636     56.2420
   4746.5000     40.1790     97.4545     19.0665     18.6500      6.1420      6.2859      2.7174    114.7894     56.8458
   4747.0000     39.4896    429.2322     11.3732     14.3500      6.0547      6.2895      2.7418    114.2867     56.5353
   4747.5000     38.6112    238.7974      9.9372     12.9500      6.0627      6.2858      2.7659    106.0709     51.4416
   4748.0000     38.8519    142.7431     12.5002     13.0300      6.0302      6.2805      2.7608    106.6838     55.2528
   4748.5000     38.7992     98.6687     16.1891     13.9600      6.0589      6.3164      2.7384    106.8788     55.7347
   4749.0000     39.3703     60.7493     15.6818     13.1100      6.0681      6.3253      2.7769    105.9521     56.8698
   4749.5000     38.3492     40.1176     13.8900     12.2000      6.1033      6.3243      2.7391    103.8410     54.4299
   4750.0000     40.0733     82.5510     16.1912     14.4700      6.0671      6.3253      2.7530    103.9637     51.6429
   4750.5000     36.6560    172.0007     17.7572     16.5100      6.1098      6.3253      2.7794    104.3155     56.7389
   4751.0000     37.5644    156.5610     17.7402     16.9800      6.1009      6.3235      2.7425    111.1868     56.9306
   4751.5000     39.0596    122.1911     16.6779     17.7600      6.1167      6.3218      2.7607    111.9446     56.9514
   4752.0000     41.3254    128.2831     14.3030     19.7400      6.1405      6.3361      2.7125    113.3711     61.0410
   4752.5000     43.7434    196.9512     13.1011     19.5800      6.1039      6.2824      2.7243    114.3846     61.0303
   4753.0000     42.7712    122.6712     12.5380     19.4200      6.1071      6.2908      2.7501    113.3827     61.4645
   4753.5000     42.6848     51.7979     14.0830     20.2500      6.1068      6.2895      2.7581    113.3969     62.4011
   4754.0000     42.6503     28.7583     11.9179     21.3300      6.1417      6.2877      2.7514    113.5789     62.6172
   4754.5000     45.7007     19.9336     11.7447     20.9200      6.1425      6.2874      2.6922    113.8215     64.4358
   4755.0000     45.0667      9.6671      6.0335     21.5000      6.1316      6.2941      2.7023    114.8987     65.0466
   4755.5000     40.8672      8.4465      4.5107     21.5800      6.1068      6.2823      2.7383    113.4472     62.6137
   4756.0000     38.0959      9.4573      3.7692     23.9600      6.0980      6.2824      2.7515    112.4140     59.0366
   4756.5000     44.2527      9.7232      2.4967     27.6600      6.1460      6.2908      2.7219    120.8339     63.2040
   4757.0000     84.8154      3.5795      0.9182     36.4300      6.1454      6.7215      2.2957    176.0692     89.0510
   4757.5000     93.8030      1.2617      0.5236     35.3300      6.5129      7.7666      2.5676    219.2466    101.0408
   4758.0000     91.5064      0.9156      0.5499     34.3300      6.8592      6.7861      2.6175    209.3391    106.1483
   4758.5000     95.0352      0.8198      0.7188     39.5800      6.4379      7.9477      2.0533    186.6164     95.0419
   4759.0000     96.0186      0.7925      0.7771     40.0100      6.8489      6.7699      2.7081    221.9217    111.5382
   4759.5000     98.3745      0.7874      0.7751     42.2800      7.0421      6.7744      2.4464    192.2808     98.6756
   4760.0000     95.5431      0.7707      0.7683     38.4500      6.3060      6.6229      2.4253    185.7254    101.9137
   4760.5000    109.1947      0.7479      0.7564     40.5700      6.3340      8.3816      2.3516    192.8910     99.9537
   4761.0000    101.5233      0.8111      0.8085     44.2100      6.6286      7.2930      2.7097    178.9365     96.0095
   4761.5000     83.5489      0.9639      0.9237     43.8800      6.3102      6.6840      2.5870    171.1858     92.2882
   4762.0000     81.5862      1.0798      1.0025     43.6500      6.3010      6.6713      2.6128    192.7864     95.8064
   4762.5000     88.3398      0.9525      0.9027     40.8800      6.1427      6.5225      2.4282    197.6869    103.6560
   4763.0000     96.9245      0.7962      0.7951     41.5100      5.9279      6.4329      2.6042    194.4715     99.0681
   4763.5000     90.2701      0.7104      0.7344     39.4800      5.9896      6.4060      2.7282    187.3656     94.8246
   4764.0000     84.3877      0.6117      0.6594     40.2000      5.9826      6.3755      2.4174    188.8926     97.3041
   4764.5000     90.5893      0.5829      0.6352     40.1800      5.9667      6.4741      2.6618    190.2511     95.3405
   4765.0000     86.4935      0.5855      0.5975     41.1900      5.9936      6.5136      3.0097    187.2651     96.3715
   4765.5000     82.1749      0.4507      0.4604     40.4800      5.9410      6.5064      2.7119    186.3984     94.5653
   4766.0000     82.0641      0.4035      0.4202     43.6000      5.9207      6.5691      2.6214    192.1479     98.3872
   4766.5000     85.5783      0.4753      0.5108     39.9600      5.8391      6.4831      2.9169    187.0298     97.7378
