~Version Information
 VERS.           2.0     :   CWLS log ASCII Standard -VERSION 2.0
 WRAP.           NO      :   One line per depth step
~Well Information
#MNEM.UNIT      VALUE/NAME              DESCRIPTION
#--------     --------------            ---------------------
 STRT.M           579.5000              :START DEPTH
 STOP.M          5115.5000              :STOP DEPTH
 STEP.M             0.5000              :STEP
 NULL.             -999.25              :NULL VALUE
 COMP.    ConocoPhillips                :COMPANY
 WELL.    Poseidon 1                    :WELL
 FLD .    Exploration                   :FIELD
 LOC .                                  :LOCATION
 PROV.                                  :PROVINCE
 SRVC.    Schlumberger D&M              :SERVICE COMPANY
 CTRY.                                  :COUNTRY
 DATE.    28-Apr-09                     :LOG DATE
 UWI .                                  :UNIQUE WELL ID
 LATI.DEG -13/37/16.79                   : Latitude
 LONG.DEG 122/18/23.99                  : Longitude
 GDAT.                                  : Geodetic Datum
~PARAMETER INFORMATION
~CURVE INFORMATION
#MNEM    .UNIT     API CODE             Curve Description
 DEPT    .M                             :   Along hole depth
 ECGR    .gAPI                          :   EDTC Corrected Gamma-Ray
 ATRX    .ohm.m                         :   Array Induction Two Foot Rxo
 ATRT    .ohm.m                         :   Array Induction Two Foot Rt
 NPHI    .pu                            :   Thermal Neutron Porosity (Ratio Method)
 CAL1    .in                            :   Caliper 1
 HDAR    .in                            :   Hole Diameter from Area
 HROM    .g/cm3                         :   LDS High Resolution Corrected Bulk Density
 DTSM    .us/ft                         :   Delta-T Shear
 DTCO    .us/ft                         :   Delta-T Compressional
#
# Curve              Start        Stop     Minimum     Maximum
# ------------------------------------------------------------
#
# ECGR            904.0000   5108.0000      5.0321    198.6361
# ATRX            579.5000   5114.0000      0.1100   1950.0000
# ATRT            579.5000   5114.0000      0.1803   1950.0000
# NPHI           3858.0000   5104.5000      1.0400     50.1900
# CAL1           3845.0000   5003.0000      4.5412     12.7663
# HDAR           3884.0000   5110.0000      5.8056     12.6868
# HROM           3887.0000   5115.0000      1.4423      3.0358
# DTSM           4395.0000   4974.0000     83.2234    221.9217
# DTCO           4395.0000   4974.0000     51.4416    111.5382
# ******************************
# 
# ************************************************************
#
# #
# LOCN 	LAT:	13o 37' 16.79" S			WELL NAME:	Poseidon 1
# 	LONG:	122o 18' 23.99" E
# 	EASTING:	425055.467m E	NORTHING: 	8493875.264m N	ZONE:	51	GDA 94
# SHOT POINT:		SEISMIC LINE:		STATUS:	P & A
# SEISMIC SURVEY:		INLINE:	XLINE:
# ELEVN SF:	494.0m	DATUM KB:	26.4m	OPERATOR:	ConocoPhillips
# BASIN :		Browse	TOTAL D:	5112.1m	PARTNERS:	Karoon
# SPUD DATE:	26/01/2009	COMPLN DATE:	29/05/2009	LEASE:	WA-315-P
# TARGET:	Plover SS			DRILLER:	Transocean
# DATA SOURCE:	WCR, logs			RIG:	Sedco 703
# #
# HOLE AND CASING DATA:
# 	Hole 	Hole	Casing	Casing 	Weight	Grade	Joints	Cement	TOC
# 	Size	Depth	Size	Depth	lb/ft
# 	36”	581.8m	30”	578m	310	X-52	5	1105 sx G at SG 1.9	Seafloor
# 								185 sx G at SG 1.9 – top up
# 	17.5”	2296m	13 3/8”	2287.5m	72	P-110	143	688 sx G at SG 1.5
# 								500 sx G at SG 1.9
# 	12.25”	3898m	9 5/8”	3890.8m	53.5	P-110	274	202 sx G at SG 1.62	
# 								133 sx G at SG 1.98
# 	9.5”	3965m	7 5/8”	3957m	30.5	EX-80	14	
# 	8.5”	4588m	7”	4587.5m	32 / 29	P110/L80	47/20	213 sx G at SG 1.9
# 	6”	5112.1m	5”	5088.4m	18	P-110	72	116 sx G at SG 1.9
# #
# TEMPERATURES:
# 	Depth Driller	Logger	Temp	Log Type	Time since circ	Circ Time
# 	3965m	3960m	104 deg C	FMI	22.78 hrs	2.5 hrs
# 	5112.1m	5118m	160 deg C	CMR	22.83 hrs
# 			162 deg C	HNGS	36.17 hrs
# 		4990m	165 deg c	Sonic Scanner	47.47 hrs
# #
# MUD PROPERTIES:
# Depth (L)	Fluid Type	SG	Vis.	pH	Fl cc	Rm	Rmf	Rmc
# 3965m	KCl-Polymer	1.29				0.167 at 18.6 deg C	0.244 at 17.8 deg C	0.261 at 18 deg C
# 		KCl	6%	Barite 	7.5%
# 5112.1m	Novatec SBM	1.20			3.6	
# 				Barite	10.3%
# #
#
# DEVIATION SURVEY:		(Schlumberger)
#	Depth	Dev (deg)	Azimuth (deg)	Depth	Dev (deg)	Azimuth (deg)
#	0.0m	0.00	0.00	520.5m	0.00	0.00
#	527.6m	0.39	259.27	552.8m	1.09	19.41
#	607.9m	0.33	161.06	636.3m	0.28	157.46
#	666.2m	0.42	156.27	723.3m	0.49	158.80
#	752.4m	0.76	145.50	811.0m	0.69	144.79
#	868.3m	0.66	149.14	897.2m	0.66	152.38
#	926.2m	0.53	150.70	1013.9m	0.64	144.22
#	1100.8m	0.45	222.81	1130.8m	0.53	244.07
#	1187.1m	0.69	231.27	1215.1m	0.65	232.48
#	1243.9m	0.64	288.99	1272.6m	0.63	304.63
#	1300.8m	0.62	311.48	1329.9m	0.16	285.18
#	1359.0m	0.11	292.17	1386.3m	0.31	331.80
#	1416.5m	0.53	355.63	1447.1m	0.61	2.60
#	1474.7m	0.94	7.68	1505.2m	1.01	358.08
#	1534.9m	0.92	345.86	1563.8m	0.61	5.17
#	1592.2m	0.76	17.60	1622.0m	0.60	20.84
#	1650.2m	0.65	36.42	1763.9m	0.60	51.71
#	1821.4m	0.46	44.49	1850.5m	0.79	49.16
#	1908.9m	0.96	36.49	1939.6m	0.58	13.70
#	1959.8m	0.13	322.88	2044.1m	0.34	243.01
#	2073.4m	0.44	233.00	2101.7m	0.51	240.40
#	2131.7m	0.50	252.10	2189.0m	0.49	257.69
#	2246.1m	0.42	251.29	2269.4m	0.43	247.24
#	2313.9m	0.33	207.85	2341.6m	0.20	199.21
#	2369.9m	0.15	229.33	2398.5m	0.14	219.45
#	2427.2m	0.22	182.60	2456.2m	0.23	217.52
#	2486.6m	0.30	200.91	2516.1m	0.34	250.17
#	2599.5m	0.23	257.73	2656.6m	0.37	259.03
#	2685.9m	0.36	244.41	2714.4m	0.33	247.01
#	2743.5m	0.44	264.65	2772.9m	0.36	248.49
#	2802.7m	0.49	249.47	2829.7m	0.46	254.82
#	2887.1m	0.37	245.00	2916.6m	0.30	229.13
#	2946.6m	0.14	227.49	3004.8m	0.20	234.38
#	3062.1m	0.52	223.74	3090.7m	0.51	219.43
#	3120.9m	0.47	216.60	3150.2m	0.49	219.95
#	3178.9m	0.44	222.75	3206.5m	0.40	211.30
#	3235.7m	0.35	217.26	3265.7m	0.49	214.66
#	3322.4m	0.35	211.44	3350.4m	0.36	212.61
#	3379.8m	0.35	230.18	3409.2m	0.34	230.92
#	3494.2m	0.34	231.38	3557.7m	0.29	277.76
#	3668.7m	0.32	324.77	3698.3m	0.43	340.30
#	3729.8m	0.45	340.13	3756.5m	0.39	332.45
#	3815.7m	0.44	309.71	3873.0m	0.59	285.30
#	4047.5m	4.76	321.71	4065.7m	5.39	333.06
#	4082.1m	6.39	336.20	4098.9m	7.73	337.83
#	4115.7m	9.43	344.07	4147.0m	12.37	344.49
#	4160.9m	13.41	345.79	4170.7m	13.89	349.54
#	4182.8m	14.27	348.89	4198.0m	15.83	349.61
#	4230.3m	13.55	353.68	4255.8m	12.41	353.57
#	4287.3m	11.70	355.88	4312.9m	11.40	355.42
#	4344.1m	10.54	354.84	4370.2m	10.32	356.38
#	4403.0m	10.25	3.71	4428.6m	10.50	359.63
#	4443.5m	9.94	359.87	4458.4m	10.08	1.47
#	4486.5m	9.71	359.12	4514.6m	9.26	359.81
#	4545.3m	9.64	0.67	4572.5m	9.26	356.64
#	4602.8m	8.97	350.43	4631.2m	8.70	344.94
#	4660.8m	8.34	342.12	4688.5m	8.14	338.90
#	4718.7m	8.30	333.76	4776.7m	8.03	335.31
#	4804.1m	7.88	336.68	4832.6m	7.95	337.54
#	4862.8m	7.84	339.39	4891.2m	7.71	338.67
#	4920.0m	8.19	338.17	4948.2m	8.48	335.94
#	4980.2m	8.19	335.87	5009.6m	7.89	329.96
#	5036.0m	7.84	329.96	5066.0m	7.78	329.28
#	5093.9m	7.52	327.67	5112.0m	7.52	327.67
#
# VELOCITY SURVEY:	(Schlumberger)		OWT, vertically corrected, relative to SRD (MSL)
#	Depth	TVD SS	OWT(sec)	Depth	TVD SS	OWT(sec)
#	29.3m	2.9m	0.0316	44.4m	18.0m	0.1682
#	59.5m	33.1m	0.3158	784.1m	757.7m	0.6576
#	799.2m	772.8m	0.6603	814.3m	787.9m	0.6620
#	829.5m	803.0m	0.6645	1744.4m	1717.9m	0.8235
#	1759.5m	1733.0m	0.8269	1774.6m	1748.2m	0.8303
#	1789.7m	1763.3m	0.8333	1804.9m	1778.5m	0.8364
#	1820.0m	1793.6m	0.8400	1835.2m	1808.7m	0.8433
#	1850.3m	1823.8m	0.8473	1865.4m	1838.9m	0.8510
#	1880.5m	1854.0m	0.8546	1895.6m	1869.1m	0.8584
#	1910.7m	1884.2m	0.8627	1925.8m	1899.3m	0.8666
#	1940.9m	1914.5m	0.8705	1956.1m	1929.6m	0.8744
#	1971.2m	1944.7m	0.8782	1986.4m	1959.9m	0.8816
#	2001.5m	1975.0m	0.8850	2016.7m	1990.2m	0.8885
#	2031.8m	2005.3m	0.8918	2046.8m	2020.3m	0.8953
#	2062.0m	2035.5m	0.8987	2077.1m	2050.6m	0.9018
#	2092.2m	2065.7m	0.9050	2107.3m	2080.8m	0.9080
#	2122.4m	2095.9m	0.9111	2137.6m	2111.1m	0.9138
#	2152.7m	2126.2m	0.9168	2167.8m	2141.3m	0.9196
#	2182.9m	2156.4m	0.9224	2198.1m	2171.6m	0.9253
#	2213.2m	2186.7m	0.9283	2228.3m	2201.8m	0.9313
#	2243.4m	2216.9m	0.9342	2258.6m	2232.1m	0.9371
#	2273.7m	2247.2m	0.9400	2288.8m	2262.4m	0.9430
#	2304.0m	2277.5m	0.9460	2319.1m	2292.6m	0.9488
#	2334.2m	2307.7m	0.9517	2349.2m	2322.7m	0.9545
#	2364.4m	2337.9m	0.9576	2379.5m	2353.0m	0.9605
#	2394.6m	2368.1m	0.9632	2409.6m	2383.1m	0.9661
#	2424.8m	2398.3m	0.9692	2439.9m	2413.4m	0.9724
#	2455.0m	2428.5m	0.9757	2470.2m	2443.7m	0.9795
#	2485.3m	2458.8m	0.9830	2500.4m	2473.9m	0.9865
#	2515.6m	2489.1m	0.9900	2530.7m	2504.2m	0.9937
#	2545.9m	2519.4m	0.9973	2561.0m	2534.5m	1.0010
#	2576.1m	2549.6m	1.0046	2591.2m	2564.7m	1.0080
#	2606.3m	2579.8m	1.0113	2621.5m	2595.0m	1.0147
#	2636.6m	2610.1m	1.0183	2651.6m	2625.1m	1.0215
#	2666.8m	2640.3m	1.0249	2681.9m	2655.4m	1.0285
#	2697.0m	2670.5m	1.0325	2712.1m	2685.6m	1.0361
#	2727.3m	2700.8m	1.0399	2742.4m	2715.9m	1.0434
#	2757.5m	2731.0m	1.0472	2772.6m	2746.1m	1.0510
#	2787.7m	2761.2m	1.0547	2802.8m	2776.3m	1.0582
#	2817.9m	2791.4m	1.0617	2833.0m	2806.5m	1.0651
#	2848.2m	2821.7m	1.0685	2863.3m	2836.8m	1.0718
#	2878.4m	2851.9m	1.0750	2893.6m	2867.1m	1.0781
#	2908.8m	2882.3m	1.0814	2914.1m	2887.6m	1.0824
#	2923.9m	2897.4m	1.0844	2929.2m	2902.7m	1.0855
#	2939.0m	2912.5m	1.0875	2944.4m	2917.8m	1.0887
#	2954.0m	2927.5m	1.0907	2959.5m	2933.0m	1.0921
#	2969.1m	2942.6m	1.0941	2984.3m	2957.8m	1.0975
#	2999.4m	2972.9m	1.1008	3014.5m	2988.0m	1.1040
#	3029.6m	3003.1m	1.1072	3044.8m	3018.3m	1.1103
#	3059.9m	3033.4m	1.1134	3075.1m	3048.5m	1.1165
#	3090.2m	3063.7m	1.1194	3105.3m	3078.8m	1.1224
#	3120.4m	3093.9m	1.1253	3135.6m	3109.0m	1.1284
#	3150.7m	3124.2m	1.1318	3165.8m	3139.3m	1.1352
#	3180.9m	3154.4m	1.1385	3196.0m	3169.5m	1.1420
#	3211.2m	3184.6m	1.1452	3226.3m	3199.8m	1.1486
#	3241.4m	3214.9m	1.1518	3256.4m	3229.9m	1.1550
#	3271.6m	3245.0m	1.1583	3286.7m	3260.2m	1.1618
#	3301.8m	3275.3m	1.1653	3316.9m	3290.4m	1.1690
#	3332.1m	3305.6m	1.1726	3347.2m	3320.7m	1.1767
#	3362.3m	3335.8m	1.1808	3377.4m	3350.9m	1.1849
#	3392.6m	3366.0m	1.1889	3407.7m	3381.2m	1.1926
#	3831.1m	3804.5m	1.2951	3846.2m	3819.6m	1.2989
#	3861.2m	3834.7m	1.3025	3876.3m	3849.8m	1.3067
#	3891.5m	3864.9m	1.3108	3906.6m	3880.0m	1.3154
#	3921.7m	3895.1m	1.3196	3936.8m	3910.2m	1.3245
#	3952.0m	3925.3m	1.3297	3967.1m	3940.4m	1.3350
#	3982.3m	3955.6m	1.3402	3997.4m	3970.7m	1.3452
#	4012.5m	3985.8m	1.3502	4027.6m	4000.9m	1.3552
#	4042.6m	4015.9m	1.3603	4057.8m	4031.0m	1.3653
#	4072.9m	4046.0m	1.3703	4088.0m	4061.0m	1.3752
#	4103.2m	4076.1m	1.3799	4118.3m	4091.0m	1.3848
#	4133.4m	4105.8m	1.3895	4148.5m	4120.7m	1.3944
#	4163.7m	4135.4m	1.3993	4178.8m	4150.1m	1.4041
#	4193.9m	4164.7m	1.4089	4209.0m	4179.3m	1.4135
#	4224.1m	4193.9m	1.4181	4239.2m	4208.6m	1.4227
#	4254.3m	4223.3m	1.4271	4269.4m	4238.1m	1.4316
#	4284.7m	4253.0m	1.4359	4284.7m	4253.0m	1.4358
#	4299.8m	4267.8m	1.4402	4299.8m	4267.8m	1.4402
#	4314.9m	4282.6m	1.4448	4314.9m	4282.6m	1.4447
#	4330.0m	4297.5m	1.4493	4330.0m	4297.5m	1.4493	
#
# ************************************************************
#    This LAS file was created by Occam Technology Pty. Ltd.
# The edit data contained herein are copyright property of
# Occam Technology Pty. Ltd. The data are licensed to the
# purchasing company and subsidiaries worldwide, and are NOT
# for on-copying to third parties.  We place no restriction on
# the distribution of plots generated from the digital data.
#
#    We supply the data on a 'best effort' basis.  We cannot
# control either the original data acquisition or the application
# of the data, and therefore we cannot be held responsible for
# the consequences of any interpretations based on the data.  We
# urge purchasers to apply normal quality control procedures to
# the data before use for any quantitative interpretative
# procedures.
# ************************************************************
~A      DEPT        ECGR        ATRX        ATRT        NPHI        CAL1        HDAR        HROM        DTSM        DTCO
# ...
   5068.5000     13.2351     91.5009     32.9751      4.4800   -999.2500      6.0482      2.4034   -999.2500   -999.2500
   5069.0000     14.7862     85.6099     30.7382      4.3200   -999.2500      6.0439      2.4048   -999.2500   -999.2500
   5069.5000     65.8548     95.4540     29.8833      5.7000   -999.2500      6.0515      2.4527   -999.2500   -999.2500
   5070.0000     33.6286    106.8691     26.8927     14.4900   -999.2500      6.0498      2.5617   -999.2500   -999.2500
   5070.5000     25.3017    127.2488     28.4583      5.8800   -999.2500      6.0421      2.4279   -999.2500   -999.2500
   5071.0000     86.3097    131.8223     38.0928      6.4800   -999.2500      6.0457      2.4336   -999.2500   -999.2500
   5071.5000    117.1127    134.4169     43.9006      9.8600   -999.2500      6.1569      2.5485   -999.2500   -999.2500
   5072.0000    105.6270    139.6430     39.4089     15.9200   -999.2500      6.1246      2.6561   -999.2500   -999.2500
   5072.5000     37.8534    112.3307     29.0420      7.1800   -999.2500      6.0448      2.4861   -999.2500   -999.2500
   5073.0000     29.4589    100.5188     22.9413      6.7800   -999.2500      6.0349      2.4239   -999.2500   -999.2500
   5073.5000     24.5048    127.7703     24.0993      6.1400   -999.2500      6.0448      2.4162   -999.2500   -999.2500
   5074.0000     20.0260    160.1782     27.0701      5.9300   -999.2500      6.0385      2.4318   -999.2500   -999.2500
   5074.5000     31.7691    169.3671     27.0789      5.7400   -999.2500      6.0482      2.4229   -999.2500   -999.2500
   5075.0000     26.0724    148.1228     20.2931      5.6800   -999.2500      6.0439      2.4394   -999.2500   -999.2500
   5075.5000     26.6190    149.0099     13.3271      5.1100   -999.2500      6.0064      2.4569   -999.2500   -999.2500
   5076.0000     12.3673    163.9825     11.3292      5.8900   -999.2500      6.0206      2.4815   -999.2500   -999.2500
   5076.5000     10.7400    138.0470     12.7120      5.5200   -999.2500      6.0080      2.3679   -999.2500   -999.2500
   5077.0000     12.3502     72.4585     12.8168      6.1700   -999.2500      6.0062      2.4000   -999.2500   -999.2500
   5077.5000     10.8513     39.0286     12.4524      6.3500   -999.2500      6.0097      2.3757   -999.2500   -999.2500
   5078.0000     11.0419     37.4466     17.8048      6.3100   -999.2500      6.0295      2.3787   -999.2500   -999.2500
   5078.5000     12.3458     61.9509     41.0840      6.0700   -999.2500      6.1855      2.4337   -999.2500   -999.2500
   5079.0000     78.5810     87.6228     67.9248      5.2400   -999.2500      6.5870      2.4568   -999.2500   -999.2500
   5079.5000     62.6346     98.0302     82.4871      6.1300   -999.2500      6.4029      2.5719   -999.2500   -999.2500
   5080.0000     68.0788    116.3440     80.1895      6.8900   -999.2500      6.2088      2.5819   -999.2500   -999.2500
   5080.5000     65.9311    135.3579     63.0708      5.0800   -999.2500      6.1620      2.5895   -999.2500   -999.2500
   5081.0000     98.0688    211.4799     52.1862      4.7600   -999.2500      6.1586      2.5687   -999.2500   -999.2500
   5081.5000     44.6388    511.1206     48.0268     10.3000   -999.2500      6.0984      2.5967   -999.2500   -999.2500
   5082.0000     43.8930    488.8173     43.3008      5.9000   -999.2500      6.0116      2.4831   -999.2500   -999.2500
   5082.5000     39.8175    314.0952     41.4874      6.9400   -999.2500      6.0080      2.4353   -999.2500   -999.2500
   5083.0000     36.1683    286.0983     38.3484      7.0100   -999.2500      6.0047      2.4290   -999.2500   -999.2500
   5083.5000     69.6706    315.8582     31.3370      7.2900   -999.2500      6.0080      2.4649   -999.2500   -999.2500
   5084.0000     87.3714    385.7532     33.6022      6.9400   -999.2500      6.0114      2.5063   -999.2500   -999.2500
   5084.5000     53.2019    458.8490     38.2166      5.7200   -999.2500      6.1299      2.4777   -999.2500   -999.2500
   5085.0000     48.6366    330.1384     50.9102      4.9300   -999.2500      6.1369      2.5102   -999.2500   -999.2500
   5085.5000     45.4959    197.5435     60.5324      5.2700   -999.2500      6.2626      2.5202   -999.2500   -999.2500
   5086.0000     67.1558    151.4636     66.8507      9.3000   -999.2500      6.3415      2.5534   -999.2500   -999.2500
   5086.5000     47.0590    270.0592     87.9592      9.3400   -999.2500      6.4096      2.5573   -999.2500   -999.2500
   5087.0000     16.8958    675.0616     97.5888      4.8500   -999.2500      6.0062      2.4362   -999.2500   -999.2500
   5087.5000     15.3391    408.0317     66.9195      4.2200   -999.2500      6.0114      2.4281   -999.2500   -999.2500
   5088.0000     20.8460    103.9591     33.8685      5.6500   -999.2500      6.0510      2.4008   -999.2500   -999.2500
   5088.5000     22.2012     48.6655     20.6191      5.8900   -999.2500      6.1801      2.4501   -999.2500   -999.2500
   5089.0000     36.1992     27.6192     17.3406      7.9600   -999.2500      6.3644      2.8288   -999.2500   -999.2500
   5089.5000    158.7435     19.4754     17.3823     22.7000   -999.2500      6.3661      2.6329   -999.2500   -999.2500
   5090.0000    158.6565     19.2839     17.0243     21.5100   -999.2500      6.3243      2.6321   -999.2500   -999.2500
   5090.5000    154.7304     15.3810     15.5820     22.7200   -999.2500      6.3164      2.6305   -999.2500   -999.2500
   5091.0000    157.4944     13.7297     13.6928     23.5400   -999.2500      6.3271      2.6229   -999.2500   -999.2500
   5091.5000     15.5237     15.8265     11.6918     23.2800   -999.2500      6.2949      2.6704   -999.2500   -999.2500
   5092.0000     14.4967     26.5732     13.6055     14.6300   -999.2500      6.0797      2.6051   -999.2500   -999.2500
   5092.5000     15.2909     68.6430     13.6941      5.4400   -999.2500      6.0421      2.3975   -999.2500   -999.2500
   5093.0000     15.4824    205.8934     16.7338      5.6200   -999.2500      6.0457      2.4100   -999.2500   -999.2500
   5093.5000     16.7713    593.0106     14.5455      3.0200   -999.2500      6.0421      2.4061   -999.2500   -999.2500
   5094.0000     16.1329    398.6862     14.2848      2.3700   -999.2500      6.0779      2.4172   -999.2500   -999.2500
   5094.5000     17.3464    297.6292     15.7048      2.5000   -999.2500      6.1210      2.4521   -999.2500   -999.2500
   5095.0000     44.6910    214.6968     21.6115      2.7000   -999.2500      6.1640      2.4984   -999.2500   -999.2500
   5095.5000     45.2077    225.6393     34.0940      6.5100   -999.2500      6.1670      2.5628   -999.2500   -999.2500
   5096.0000     37.4079    384.5152     53.5448      4.3600   -999.2500      6.1604      2.5116   -999.2500   -999.2500
   5096.5000     51.4424    384.7254     61.0239      5.4300   -999.2500      6.2070      2.4863   -999.2500   -999.2500
   5097.0000     57.7076    219.0736     56.5590      8.9400   -999.2500      6.4795      2.6251   -999.2500   -999.2500
   5097.5000     39.1217    154.1811     52.3970     15.2800   -999.2500      6.3218      2.5338   -999.2500   -999.2500
   5098.0000     79.6733     90.1245     51.3071     10.3300   -999.2500      6.6588      2.5886   -999.2500   -999.2500
   5098.5000    121.2869     65.7554     55.4884     10.1300   -999.2500      6.2464      2.6748   -999.2500   -999.2500
   5099.0000    112.1749     62.9217     54.1637      9.4000   -999.2500      6.3433      2.5428   -999.2500   -999.2500
   5099.5000    141.2139     63.2780     48.8400     11.6600   -999.2500      6.3611      2.6223   -999.2500   -999.2500
   5100.0000    162.4416     62.9082     41.9716     15.5400   -999.2500      6.3702      2.6572   -999.2500   -999.2500
   5100.5000     60.1489     67.3676     40.8291      6.2800   -999.2500      6.7090      2.5818   -999.2500   -999.2500
   5101.0000     77.2165     89.1856     39.5213     11.7500   -999.2500      6.5674      2.4735   -999.2500   -999.2500
   5101.5000     43.5223    108.5489     38.7170      8.1400   -999.2500      6.2908      2.6625   -999.2500   -999.2500
