~Version Information
 VERS.           2.0     :   CWLS log ASCII Standard -VERSION 2.0
 WRAP.           NO      :   One line per depth step
~Well Information
#MNEM.UNIT      VALUE/NAME              DESCRIPTION
#--------     --------------            ---------------------
 STRT.M           508.0000              :START DEPTH
 STOP.M          5279.5000              :STOP DEPTH
 STEP.M             0.5000              :STEP
 NULL.             -999.25              :NULL VALUE
 COMP.    ConocoPhillips                :COMPANY
 WELL.    Poseidon North 1              :WELL
 FLD .    Exploration                   :FIELD
 LOC .                                  :LOCATION
 PROV.                                  :PROVINCE
 SRVC.    Schlumberger                  :SERVICE COMPANY
 CTRY.                                  :COUNTRY
 DATE.    05/20/2014                    :LOG DATE
 UWI .                                  :UNIQUE WELL ID
 LATI.DEG -13/34/24.825                  : Latitude
 LONG.DEG 122/20/24.556                 : Longitude
 GDAT.                                  : Geodetic Datum
~PARAMETER INFORMATION
~CURVE INFORMATION
#MNEM    .UNIT     API CODE             Curve Description
 DEPT    .M                             :   Along hole depth
 GRD     .gAPI                          :   Gamma Ray
 RS      .ohm.m                         :   (RM)    (ARC[1])                (6in)                   Phase Shift Resistivity 22 inch Spacing at 2 MHz, Environmentally Corrected.
 RD      .ohm.m                         :   (RM)    (ARC[1])                (6in)                   Phase Shift Resistivity 34 inch Spacing at 2 MHz, Environmentally Corrected.
 RHOB    .g/cm3                         :   (RM)    (ADN[1])                (6in)                   Bulk Density
 TNPH    .pu                            :   (RM)    (ADN[1])                (6in)                   Thermal Neutron Porosity (Ratio Method) in Selected Lithology
 DTCO    .us/ft                         :   Delta-T Compressional
 DTSM    .us/ft                         :   Delta-T Shear
 HDAR    .in                            :   Hole Diameter from Area
#
# Curve              Start        Stop     Minimum     Maximum
# ------------------------------------------------------------
#
# GRD             508.0000   5279.5000      3.5346    204.6889
# RS              568.5000   5279.5000      0.1925    487.9586
# RD              568.5000   5279.5000      0.1945    316.2479
# RHOB           3782.0000   4931.5000      1.9495      3.5107
# TNPH           3780.5000   4931.5000      6.2988     68.6649
# DTCO           3677.0000   5250.0000     48.6167    124.5370
# DTSM           3804.5000   5250.0000     85.6802    273.5039
# HDAR           3808.0000   5273.5000      8.3409     17.3339
# ******************************
# #
# DEVIATION SURVEY:	(Schlumberger)		Definitive Survey
#	Depth	Dev (deg)	Azimuth (deg)	Depth	Dev (deg)	Azimuth (deg)
#	508.3m	0.00	0.00	535.0m	0.51	175.26
#	567.0m	0.46	159.23	632.3m	0.50	124.18
#	690.2m	0.36	105.64	718.4m	0.30	104.70
#	747.0m	0.22	100.37	833.2m	0.12	92.39
#	862.3m	0.14	89.88	948.6m	0.09	77.24
#	1034.5m	0.21	61.94	1120.7m	0.43	72.74
#	1178.5m	0.55	94.45	1234.9m	0.84	96.85
#	1264.2m	1.11	104.58	1293.6m	1.37	101.48
#	1322.8m	1.51	87.02	1353.0m	1.76	69.73
#	1412.0m	1.26	53.07	1440.7m	1.13	48.89
#	1469.3m	0.97	55.84	1497.6m	1.03	53.67
#	1526.2m	0.92	59.74	1554.4m	0.82	58.53
#	1583.8m	0.75	60.20	1641.9m	0.66	59.63
#	1670.7m	0.75	60.62	1698.0m	0.69	57.52
#	1725.9m	0.67	57.15	1754.8m	0.32	52.85
#	1783.6m	0.81	146.83	1812.6m	1.47	161.88
#	1841.3m	1.64	163.20	1870.0m	1.76	163.52
#	1899.8m	1.79	177.44	1927.8m	1.29	184.32
#	1957.9m	1.72	185.24	1986.4m	1.87	187.31
#	2016.7m	1.89	185.97	2045.2m	1.80	187.62
#	2073.8m	1.81	185.62	2102.3m	1.83	186.20
#	2130.6m	1.79	187.06	2159.6m	1.78	184.95
#	2189.6m	1.85	185.18	2218.1m	1.85	184.70
#	2246.2m	1.81	184.66	2274.6m	1.82	181.40
#	2303.7m	1.76	181.56	2331.2m	1.76	183.12
#	2360.1m	1.77	183.23	2389.2m	1.78	181.43
#	2429.8m	1.81	178.67	2453.0m	1.78	181.70
#	2490.3m	1.75	186.73	2519.1m	1.74	190.18
#	2577.7m	1.34	193.07	2606.3m	1.34	194.30
#	2634.8m	1.43	194.62	2663.0m	1.49	196.08
#	2691.9m	1.52	191.72	2720.5m	1.41	196.99
#	2749.1m	1.30	192.26	2778.8m	1.33	197.61
#	2807.5m	1.18	197.33	2836.7m	1.13	193.60
#	2865.4m	1.01	194.63	2894.6m	1.02	201.33
#	2923.5m	0.87	193.21	2952.2m	0.92	194.81
#	2979.9m	0.79	197.44	3007.9m	0.71	189.93
#	3039.2m	0.62	204.55	3068.6m	0.38	211.96
#	3098.5m	0.64	224.56	3126.6m	0.95	223.07
#	3154.6m	0.84	235.70	3185.2m	0.78	238.33
#	3212.8m	0.76	226.49	3242.0m	0.64	244.70
#	3272.3m	0.59	246.79	3300.2m	0.57	235.82
#	3327.8m	0.59	264.08	3357.0m	0.61	267.57
#	3388.0m	0.41	270.93	3443.1m	0.26	299.95
#	3474.8m	0.43	301.03	3500.7m	0.47	288.64
#	3531.2m	0.29	300.47	3558.2m	0.41	316.53
#	3588.3m	0.55	309.28	3617.9m	0.51	307.43
#	3648.0m	0.46	340.11	3676.0m	0.35	315.45
#	3703.6m	0.43	300.04	3730.9m	0.34	326.82
#	3751.3m	0.17	271.57	3780.6m	0.09	301.36
#	3814.8m	0.29	187.90	3828.0m	0.42	183.54
#	3858.7m	0.35	156.45	3888.1m	0.72	141.78
#	3916.0m	0.93	151.39	3944.8m	1.30	136.05
#	3973.2m	1.99	136.59	4001.6m	2.33	140.24
#	4028.8m	2.82	136.91	4057.0m	3.00	139.76
#	4117.2m	2.72	150.07	4147.1m	2.18	148.78
#	4176.6m	1.90	141.66	4205.2m	1.35	129.99
#	4234.2m	0.98	109.72	4261.7m	0.87	84.30
#	4291.0m	1.20	72.60	4320.5m	0.67	70.91
#	4348.8m	0.56	71.19	4376.7m	0.42	56.80
#	4404.4m	0.30	20.79	4433.2m	0.31	341.16
#	4462.6m	0.26	334.54	4521.8m	0.92	284.18
#	4552.1m	1.66	297.93	4580.0m	1.95	318.44
#	4606.9m	2.21	336.83	4636.2m	2.24	345.69
#	4664.8m	2.50	352.22	4693.7m	2.79	352.27
#	4723.0m	2.96	347.28	4753.0m	3.12	334.48
#	4782.4m	3.27	329.12	4811.3m	3.87	326.41
#	4838.8m	4.07	319.63	4866.5m	4.23	317.95
#	4895.6m	4.63	317.81	4927.1m	4.57	312.59
#	4955.7m	3.99	310.09	4983.3m	3.37	308.64
#	5009.6m	2.66	307.75	5040.2m	2.81	307.39
#	5069.7m	3.03	298.46	5100.5m	3.88	292.76
#	5126.7m	3.99	297.59	5157.5m	4.00	296.72
#	5186.1m	4.23	299.71	5213.0m	3.84	304.22
#	5242.0m	3.97	301.56	5265.7m	4.07	299.21
#	5287.0m	4.07	299.21
#
# VELOCITY SURVEY:	No checkshot survey run
# 
# ************************************************************
#
# #
# LOCN 	LAT:	13o 34' 24.825" S			WELL NAME:	Poseidon North 1	
# 	LONG:	122o 20' 24.556" E
# 	EASTING:	428611.91m E	NORTHING: 	8499338.27m N	ZONE:	51	GDA 94
# SEISMIC SURV:	Poseidon 3D	INLINE:  3600	XLINE: 2250	STATUS:	P & A
# ELEVN SF:	- 486.0m MSL 	DATUM RT:	22.0m	OPERATOR:	ConocoPhillips
# BASIN:		Browse	TOTAL D:	5287m	PARTNERS:	Karoon, PetroChina
# SPUD DATE:	19/03/2014	COMPLN DATE:	18/05/2014	LEASE:	WA-315-P
# TARGET:	Montara & Plover Fms, seismic closure	DRILLER:	Transocean
# DATA SOURCE:	WCR (Basic), logs			RIG:	Legend
# #
# HOLE AND CASING DATA:
# 	Hole 	Hole	Casing	Casing 	Weight	Grade	Joints	Cement	TOC
# 	Size	Depth	Size	Depth	lb/ft
# 	36”	568.3m	30”	568m	456 / 310	X-52	2 / 3	221 sx G at SG 1.5	
# 								1118 sx G at SG 1.9
# 								225 sx G at SG 1.9 	Grouted
# 	17.5”	2459m	13 3/8”	2453m	72	P-110	160	1734 sx G at SG 1.44
# 								486 sx G at SG 1.9
# 	12.25”	3820m	9 5/8”	3814.8m	53.5	P-110	267	469 sx HTB at SG 1.89
# 	8.5”	5287m	
# #
# TEMPERATURES:
# 	Depth Driller	Logger	Temp	Log Type	Time since circ	Circ Time
# 	5287m	5234m	165.6 deg C	QAIT-HNGS	25.9 hrs	2.5 hrs
# 		5060m	165.6 deg C	MDT	55 hrs
# #
# MUD PROPERTIES:
# Depth (L)	Fluid Type	SG	Vis.	pH	Fl cc	Rm	Rmf	Rmc
#  5287m	Novatec SBM	1.57	81	na	3.6	Assumed infinite
# #
#
# ************************************************************
#    This LAS file was created by Occam Technology Pty. Ltd.
# The edit data contained herein are copyright property of
# Occam Technology Pty. Ltd. The data are licensed to the
# purchasing company and subsidiaries worldwide, and are NOT
# for on-copying to third parties.  We place no restriction on
# the distribution of plots generated from the digital data.
#
#    We supply the data on a 'best effort' basis.  We cannot
# control either the original data acquisition or the application
# of the data, and therefore we cannot be held responsible for
# the consequences of any interpretations based on the data.  We
# urge purchasers to apply normal quality control procedures to
# the data before use for any quantitative interpretative
# procedures.
# ************************************************************
~A      DEPT         GRD          RS          RD        RHOB        TNPH        DTCO        DTSM        HDAR
# ...
   4430.0000     86.1213      1.0827      1.0775      2.5046     26.0723     96.9418    197.1135      8.5403
   4430.5000     96.0952      1.1099      1.0904      2.5095     27.2301     95.3754    191.7467      8.5624
   4431.0000     74.1402      1.3339      1.3095      2.6098     26.1198     94.4763    189.0749      8.5403
   4431.5000     81.1576      1.2670      1.2544      2.5077     23.8719     94.5830    187.3261      8.5403
   4432.0000     83.3789      1.2498      1.2438      2.5076     23.9573     95.1422    187.5969      8.5403
   4432.5000     81.6118      1.2663      1.2480      2.5202     24.6691     94.9751    188.7770      8.5403
   4433.0000     79.3957      1.2230      1.2083      2.5253     23.0236     95.0898    189.5505      8.5624
   4433.5000     79.9812      1.1633      1.1437      2.5082     24.1485     95.8878    192.9697      8.5403
   4434.0000     82.9496      1.0819      1.0703      2.5845     27.8192     97.1601    197.1395      8.5403
   4434.5000     89.2875      1.0484      1.0247      2.5415     27.1377     98.7327    201.6274      8.5403
   4435.0000     89.2652      1.0259      1.0104      2.5234     27.8575     98.2540    203.0881      8.5403
   4435.5000     91.4964      1.0094      1.0007      2.5028     27.1689     98.1949    202.5243      8.5403
   4436.0000     94.7211      1.0259      1.0187      2.5193     26.4163     98.3134    201.8835      8.5846
   4436.5000     89.3427      1.0407      1.0372      2.5096     27.8482     98.2155    201.0288      8.5403
   4437.0000     89.0635      1.0646      1.0523      2.5254     27.6518     98.0997    199.1869      8.5403
   4437.5000     91.6446      1.1048      1.0953      2.5223     26.3894     97.4827    197.6477      8.5403
   4438.0000     83.8173      1.1818      1.1681      2.5180     27.0256     94.5234    193.1627      8.5624
   4438.5000     79.1717      1.3193      1.2865      2.5965     25.0876     94.6989    190.7053      8.6067
   4439.0000     81.9974      1.2980      1.2819      2.5275     25.7108     94.9027    189.9653      8.5624
   4439.5000     85.3495      1.1911      1.1759      2.5005     24.8091     95.4089    190.5282      8.5624
   4440.0000     81.7029      1.2195      1.2065      2.5453     23.1295     96.2773    194.4621      8.5403
   4440.5000     82.1125      1.0751      1.0669      2.5123     26.6992     96.9582    196.8947      8.5624
   4441.0000     86.5775      1.0654      1.0562      2.5160     27.1662     97.1658    196.0763      8.5403
   4441.5000     83.1334      1.1236      1.1097      2.5251     25.6032     96.2777    192.5093      8.5846
   4442.0000     83.5337      1.1954      1.1930      2.5297     25.2230     95.6036    189.5757      8.5624
   4442.5000     81.6814      1.2676      1.2603      2.5129     23.8028     95.1566    188.5159      8.5624
   4443.0000     84.3722      1.2182      1.2006      2.5269     23.1146     95.1066    188.1765      8.5624
   4443.5000     82.1721      1.2440      1.2322      2.5161     24.9300     95.1635    188.0073      8.5624
   4444.0000     83.8189      1.2517      1.2380      2.5037     24.5516     94.8546    185.4960      8.5403
   4444.5000     80.9658      1.2986      1.2862      2.5196     24.3477     94.5051    183.1785      8.5403
   4445.0000     76.7227      1.3154      1.2998      2.5095     23.1106     93.7722    180.3673      8.5403
   4445.5000     84.5165      1.3718      1.3554      2.5102     22.8145     93.3148    180.5598      8.5403
   4446.0000     83.1620      1.4064      1.3901      2.5108     22.4295     92.9956    179.5641      8.5403
   4446.5000     84.5229      1.4228      1.4030      2.5066     22.7717     92.8223    178.9092      8.5403
   4447.0000     75.6913      1.4398      1.4219      2.4972     22.2691     93.2414    180.3192      8.5403
   4447.5000     84.9727      1.3877      1.3687      2.5107     22.3756     93.8988    183.2117      8.5403
   4448.0000     80.9060      1.2782      1.2607      2.4920     25.3951     94.7955    187.6263      8.5403
   4448.5000     88.6285      1.2255      1.2058      2.5087     25.5856     94.8381    188.7494      8.5624
   4449.0000     87.4740      1.2350      1.2142      2.5480     23.4125     95.2095    192.1850      8.5403
   4449.5000     83.4291      1.1723      1.1571      2.5268     24.4011     95.7535    193.0513      8.5403
   4450.0000     87.5073      1.1526      1.1401      2.5024     24.8174     96.2726    191.7427      8.5624
   4450.5000     86.8954      1.1737      1.1608      2.5268     25.7162     95.2269    191.3348      8.5403
   4451.0000     85.0298      1.2434      1.2284      2.5013     25.7734     94.7205    188.4500      8.5624
   4451.5000     79.4172      1.2653      1.2435      2.5599     24.6306     94.9424    186.6420      8.5624
   4452.0000     88.2060      1.2544      1.2476      2.5205     25.2224     95.2472    186.4689      8.5403
   4452.5000     86.5232      1.2524      1.2368      2.4985     23.7975     94.3030    186.2933      8.5624
   4453.0000     76.0697      1.3514      1.3224      2.5842     24.7752     94.0178    187.5378      8.5403
   4453.5000     83.1956      1.2731      1.2543      2.5005     25.5495     94.4239    188.0059      8.5403
   4454.0000     80.6251      1.3207      1.3086      2.5027     23.2477     95.4465    190.8645      8.5403
   4454.5000     80.0109      1.2048      1.1926      2.5043     24.8177     96.0464    193.1330      8.5403
   4455.0000     76.4556      1.1327      1.1261      2.5241     27.2988     96.5258    195.8338      8.5846
   4455.5000     84.5686      1.0920      1.0853      2.5142     25.9628     96.7740    196.8455      8.5403
   4456.0000     86.6625      1.0843      1.0749      2.5083     26.6994     96.9780    196.8030      8.5624
   4456.5000     84.2489      1.1013      1.0947      2.5234     25.5871     96.9400    197.8220      8.5403
   4457.0000     84.3608      1.0906      1.0870      2.5031     25.4765     95.9507    196.6770      8.5403
   4457.5000     83.3424      1.0959      1.0823      2.5029     25.8647     93.5296    192.0686      8.5846
   4458.0000     86.4912      1.2513      1.2259      2.5233     26.4831     93.4039    191.7219      8.5403
   4458.5000     67.3219      1.5127      1.4932      2.6670     23.8863     94.6956    192.8929      8.5403
   4459.0000     87.3817      1.1109      1.0902      2.5277     26.5829     96.4050    196.3058      8.5403
   4459.5000     88.0485      1.0837      1.0772      2.5287     27.1418     96.9301    198.6988      8.5403
   4460.0000     84.5327      1.0466      1.0348      2.5129     27.1964     96.2664    200.0302      8.5403
   4460.5000     88.3202      1.0214      1.0007      2.5228     29.6915     96.1475    200.5336      8.5403
   4461.0000     89.4277      1.1777      1.1817      2.5523     28.0781     97.5349    202.8251      8.5624
   4461.5000     94.7846      0.9810      0.9624      2.5273     28.4418     99.6975    204.1287      8.5403
   4462.0000     95.4821      0.9757      0.9700      2.5099     28.7867     98.8310    203.9410      8.5403
   4462.5000     90.0556      1.0594      1.0490      2.5178     29.0692     98.3269    201.2372      8.5403
   4463.0000     90.1344      1.0209      1.0066      2.5107     28.3060     97.6944    198.7414      8.5403
   4463.5000     92.0913      1.0401      1.0310      2.5045     28.2144     97.4834    196.3753      8.5403
   4464.0000     92.2249      1.0969      1.0894      2.5025     26.6988     96.8756    192.4636      8.5403
   4464.5000     88.2517      1.1673      1.1629      2.5040     25.3952     95.3362    187.8427      8.5403
   4465.0000     82.2029      1.2637      1.2554      2.5234     25.1270     93.8438    183.1831      8.5846
   4465.5000     85.9934      1.4325      1.4210      2.5116     22.7152     92.5286    179.4229      8.5624
   4466.0000     81.2919      1.4357      1.4233      2.5077     23.6683     92.1847    178.8733      8.5624
   4466.5000     81.2553      1.4338      1.4229      2.5018     23.1827     92.1388    178.9741      8.5624
