~Version Information
 VERS.           2.0     :   CWLS log ASCII Standard -VERSION 2.0
 WRAP.           NO      :   One line per depth step
~Well Information
#MNEM.UNIT      VALUE/NAME              DESCRIPTION
#--------     --------------            ---------------------
 STRT.M           508.0000              :START DEPTH
 STOP.M          5279.5000              :STOP DEPTH
 STEP.M             0.5000              :STEP
 NULL.             -999.25              :NULL VALUE
 COMP.    ConocoPhillips                :COMPANY
 WELL.    Poseidon North 1              :WELL
 FLD .    Exploration                   :FIELD
 LOC .                                  :LOCATION
 PROV.                                  :PROVINCE
 SRVC.    Schlumberger                  :SERVICE COMPANY
 CTRY.                                  :COUNTRY
 DATE.    05/20/2014                    :LOG DATE
 UWI .                                  :UNIQUE WELL ID
 LATI.DEG -13/34/24.825                  : Latitude
 LONG.DEG 122/20/24.556                 : Longitude
 GDAT.                                  : Geodetic Datum
~PARAMETER INFORMATION
~CURVE INFORMATION
#MNEM    .UNIT     API CODE             Curve Description
 DEPT    .M                             :   Along hole depth
 GRD     .gAPI                          :   Gamma Ray
 RS      .ohm.m                         :   (RM)    (ARC[1])                (6in)                   Phase Shift Resistivity 22 inch Spacing at 2 MHz, Environmentally Corrected.
 RD      .ohm.m                         :   (RM)    (ARC[1])                (6in)                   Phase Shift Resistivity 34 inch Spacing at 2 MHz, Environmentally Corrected.
 RHOB    .g/cm3                         :   (RM)    (ADN[1])                (6in)                   Bulk Density
 TNPH    .pu                            :   (RM)    (ADN[1])                (6in)                   Thermal Neutron Porosity (Ratio Method) in Selected Lithology
 DTCO    .us/ft                         :   Delta-T Compressional
 DTSM    .us/ft                         :   Delta-T Shear
 HDAR    .in                            :   Hole Diameter from Area
#
# Curve              Start        Stop     Minimum     Maximum
# ------------------------------------------------------------
#
# GRD             508.0000   5279.5000      3.5346    204.6889
# RS              568.5000   5279.5000      0.1925    487.9586
# RD              568.5000   5279.5000      0.1945    316.2479
# RHOB           3782.0000   4931.5000      1.9495      3.5107
# TNPH           3780.5000   4931.5000      6.2988     68.6649
# DTCO           3677.0000   5250.0000     48.6167    124.5370
# DTSM           3804.5000   5250.0000     85.6802    273.5039
# HDAR           3808.0000   5273.5000      8.3409     17.3339
# ******************************
# #
# DEVIATION SURVEY:	(Schlumberger)		Definitive Survey
#	Depth	Dev (deg)	Azimuth (deg)	Depth	Dev (deg)	Azimuth (deg)
#	508.3m	0.00	0.00	535.0m	0.51	175.26
#	567.0m	0.46	159.23	632.3m	0.50	124.18
#	690.2m	0.36	105.64	718.4m	0.30	104.70
#	747.0m	0.22	100.37	833.2m	0.12	92.39
#	862.3m	0.14	89.88	948.6m	0.09	77.24
#	1034.5m	0.21	61.94	1120.7m	0.43	72.74
#	1178.5m	0.55	94.45	1234.9m	0.84	96.85
#	1264.2m	1.11	104.58	1293.6m	1.37	101.48
#	1322.8m	1.51	87.02	1353.0m	1.76	69.73
#	1412.0m	1.26	53.07	1440.7m	1.13	48.89
#	1469.3m	0.97	55.84	1497.6m	1.03	53.67
#	1526.2m	0.92	59.74	1554.4m	0.82	58.53
#	1583.8m	0.75	60.20	1641.9m	0.66	59.63
#	1670.7m	0.75	60.62	1698.0m	0.69	57.52
#	1725.9m	0.67	57.15	1754.8m	0.32	52.85
#	1783.6m	0.81	146.83	1812.6m	1.47	161.88
#	1841.3m	1.64	163.20	1870.0m	1.76	163.52
#	1899.8m	1.79	177.44	1927.8m	1.29	184.32
#	1957.9m	1.72	185.24	1986.4m	1.87	187.31
#	2016.7m	1.89	185.97	2045.2m	1.80	187.62
#	2073.8m	1.81	185.62	2102.3m	1.83	186.20
#	2130.6m	1.79	187.06	2159.6m	1.78	184.95
#	2189.6m	1.85	185.18	2218.1m	1.85	184.70
#	2246.2m	1.81	184.66	2274.6m	1.82	181.40
#	2303.7m	1.76	181.56	2331.2m	1.76	183.12
#	2360.1m	1.77	183.23	2389.2m	1.78	181.43
#	2429.8m	1.81	178.67	2453.0m	1.78	181.70
#	2490.3m	1.75	186.73	2519.1m	1.74	190.18
#	2577.7m	1.34	193.07	2606.3m	1.34	194.30
#	2634.8m	1.43	194.62	2663.0m	1.49	196.08
#	2691.9m	1.52	191.72	2720.5m	1.41	196.99
#	2749.1m	1.30	192.26	2778.8m	1.33	197.61
#	2807.5m	1.18	197.33	2836.7m	1.13	193.60
#	2865.4m	1.01	194.63	2894.6m	1.02	201.33
#	2923.5m	0.87	193.21	2952.2m	0.92	194.81
#	2979.9m	0.79	197.44	3007.9m	0.71	189.93
#	3039.2m	0.62	204.55	3068.6m	0.38	211.96
#	3098.5m	0.64	224.56	3126.6m	0.95	223.07
#	3154.6m	0.84	235.70	3185.2m	0.78	238.33
#	3212.8m	0.76	226.49	3242.0m	0.64	244.70
#	3272.3m	0.59	246.79	3300.2m	0.57	235.82
#	3327.8m	0.59	264.08	3357.0m	0.61	267.57
#	3388.0m	0.41	270.93	3443.1m	0.26	299.95
#	3474.8m	0.43	301.03	3500.7m	0.47	288.64
#	3531.2m	0.29	300.47	3558.2m	0.41	316.53
#	3588.3m	0.55	309.28	3617.9m	0.51	307.43
#	3648.0m	0.46	340.11	3676.0m	0.35	315.45
#	3703.6m	0.43	300.04	3730.9m	0.34	326.82
#	3751.3m	0.17	271.57	3780.6m	0.09	301.36
#	3814.8m	0.29	187.90	3828.0m	0.42	183.54
#	3858.7m	0.35	156.45	3888.1m	0.72	141.78
#	3916.0m	0.93	151.39	3944.8m	1.30	136.05
#	3973.2m	1.99	136.59	4001.6m	2.33	140.24
#	4028.8m	2.82	136.91	4057.0m	3.00	139.76
#	4117.2m	2.72	150.07	4147.1m	2.18	148.78
#	4176.6m	1.90	141.66	4205.2m	1.35	129.99
#	4234.2m	0.98	109.72	4261.7m	0.87	84.30
#	4291.0m	1.20	72.60	4320.5m	0.67	70.91
#	4348.8m	0.56	71.19	4376.7m	0.42	56.80
#	4404.4m	0.30	20.79	4433.2m	0.31	341.16
#	4462.6m	0.26	334.54	4521.8m	0.92	284.18
#	4552.1m	1.66	297.93	4580.0m	1.95	318.44
#	4606.9m	2.21	336.83	4636.2m	2.24	345.69
#	4664.8m	2.50	352.22	4693.7m	2.79	352.27
#	4723.0m	2.96	347.28	4753.0m	3.12	334.48
#	4782.4m	3.27	329.12	4811.3m	3.87	326.41
#	4838.8m	4.07	319.63	4866.5m	4.23	317.95
#	4895.6m	4.63	317.81	4927.1m	4.57	312.59
#	4955.7m	3.99	310.09	4983.3m	3.37	308.64
#	5009.6m	2.66	307.75	5040.2m	2.81	307.39
#	5069.7m	3.03	298.46	5100.5m	3.88	292.76
#	5126.7m	3.99	297.59	5157.5m	4.00	296.72
#	5186.1m	4.23	299.71	5213.0m	3.84	304.22
#	5242.0m	3.97	301.56	5265.7m	4.07	299.21
#	5287.0m	4.07	299.21
#
# VELOCITY SURVEY:	No checkshot survey run
# 
# ************************************************************
#
# #
# LOCN 	LAT:	13o 34' 24.825" S			WELL NAME:	Poseidon North 1	
# 	LONG:	122o 20' 24.556" E
# 	EASTING:	428611.91m E	NORTHING: 	8499338.27m N	ZONE:	51	GDA 94
# SEISMIC SURV:	Poseidon 3D	INLINE:  3600	XLINE: 2250	STATUS:	P & A
# ELEVN SF:	- 486.0m MSL 	DATUM RT:	22.0m	OPERATOR:	ConocoPhillips
# BASIN:		Browse	TOTAL D:	5287m	PARTNERS:	Karoon, PetroChina
# SPUD DATE:	19/03/2014	COMPLN DATE:	18/05/2014	LEASE:	WA-315-P
# TARGET:	Montara & Plover Fms, seismic closure	DRILLER:	Transocean
# DATA SOURCE:	WCR (Basic), logs			RIG:	Legend
# #
# HOLE AND CASING DATA:
# 	Hole 	Hole	Casing	Casing 	Weight	Grade	Joints	Cement	TOC
# 	Size	Depth	Size	Depth	lb/ft
# 	36”	568.3m	30”	568m	456 / 310	X-52	2 / 3	221 sx G at SG 1.5	
# 								1118 sx G at SG 1.9
# 								225 sx G at SG 1.9 	Grouted
# 	17.5”	2459m	13 3/8”	2453m	72	P-110	160	1734 sx G at SG 1.44
# 								486 sx G at SG 1.9
# 	12.25”	3820m	9 5/8”	3814.8m	53.5	P-110	267	469 sx HTB at SG 1.89
# 	8.5”	5287m	
# #
# TEMPERATURES:
# 	Depth Driller	Logger	Temp	Log Type	Time since circ	Circ Time
# 	5287m	5234m	165.6 deg C	QAIT-HNGS	25.9 hrs	2.5 hrs
# 		5060m	165.6 deg C	MDT	55 hrs
# #
# MUD PROPERTIES:
# Depth (L)	Fluid Type	SG	Vis.	pH	Fl cc	Rm	Rmf	Rmc
#  5287m	Novatec SBM	1.57	81	na	3.6	Assumed infinite
# #
#
# ************************************************************
#    This LAS file was created by Occam Technology Pty. Ltd.
# The edit data contained herein are copyright property of
# Occam Technology Pty. Ltd. The data are licensed to the
# purchasing company and subsidiaries worldwide, and are NOT
# for on-copying to third parties.  We place no restriction on
# the distribution of plots generated from the digital data.
#
#    We supply the data on a 'best effort' basis.  We cannot
# control either the original data acquisition or the application
# of the data, and therefore we cannot be held responsible for
# the consequences of any interpretations based on the data.  We
# urge purchasers to apply normal quality control procedures to
# the data before use for any quantitative interpretative
# procedures.
# ************************************************************
~A      DEPT         GRD          RS          RD        RHOB        TNPH        DTCO        DTSM        HDAR
# ...
   4615.0000    122.3682      1.1796      1.1645      2.5534     27.3913     90.7510    183.9175      8.5403
   4615.5000    120.8674      1.0790      1.0557      2.6398     26.7256     80.8501    165.6130      8.5403
   4616.0000    131.0918      1.0763      1.0648      2.5675     29.2849     80.8501    165.6210      8.5624
   4616.5000    132.4541      1.0579      1.0555      2.5422     27.2955     84.0920    150.8501      8.5846
   4617.0000    117.4817      1.1487      1.1246      2.5433     26.8868     84.0920    150.8501      8.5846
   4617.5000    118.1658      0.8983      0.8789      2.6012     26.9452     84.0920    150.8501      8.5624
   4618.0000    125.0752      0.8667      0.8547      2.5233     30.1506     84.0978    148.1556      8.5624
   4618.5000    114.2073      1.2046      1.1918      2.5530     24.7275     84.0901    148.1957      8.5624
   4619.0000    107.6790      1.2032      1.1935      2.5519     23.7411     84.0832    148.2013      8.6067
   4619.5000    106.1359      1.2596      1.2642      2.5361     23.7950     84.0903    148.0859      8.5624
   4620.0000     96.7940      1.7066      1.6925      2.5822     21.7179     84.0886    148.0577      8.6067
   4620.5000     81.8947      2.6416      2.5786      2.5611     16.8684     84.0699    148.0189      8.5624
   4621.0000     82.7770      2.1738      2.1428      2.5593     17.5758     83.8410    147.9392      8.5624
   4621.5000     97.2278      1.4337      1.4584      2.5426     21.1230     78.7269    134.6415      8.5624
   4622.0000     78.1339      3.3475      3.3835      2.6147     15.8223     72.5995    124.1708      8.5403
   4622.5000     67.8015      3.9352      3.7718      2.5580     16.0241     72.8338    128.8601      8.5624
   4623.0000     81.5460      2.7545      2.8860      2.5488     17.7918     78.2134    137.1891      8.5624
   4623.5000    101.4149      2.0813      2.1068      2.5275     17.1355     94.1936    174.3874      8.5403
   4624.0000     60.0965      5.9425      5.6598      2.5398     14.2818     94.3276    188.7886      8.5624
   4624.5000     62.8647      4.3790      4.3223      2.5531     16.1276     94.3276    188.7886      8.5624
   4625.0000    131.0486      1.2243      1.1967      2.5536     23.9063     91.4479    172.4490      8.5403
   4625.5000    137.4673      1.1144      1.1185      2.5806     28.7995     91.4479    172.6426      8.5624
   4626.0000    143.1678      1.0152      1.0095      2.5649     30.5452     91.4479    178.8435      8.5403
   4626.5000    126.1039      1.0630      1.0492      2.5443     28.9801     91.4151    171.1759      8.5624
   4627.0000    124.1972      1.1919      1.1829      2.5559     27.8507     91.3814    174.4659      8.5624
   4627.5000    134.7192      1.0793      1.0569      2.5500     30.3144     91.3822    177.6168      8.5624
   4628.0000    119.5208      1.2597      1.2641      2.6672     27.8145     91.6536    177.5767      8.5846
   4628.5000    130.1318      0.9956      0.9893      2.5460     29.5403     91.6517    177.4941      8.6067
   4629.0000    130.6547      1.1533      1.1574      2.5665     28.2121     91.6485    177.4918      8.5624
   4629.5000    118.7924      1.3680      1.3517      2.5673     26.9554     91.6506    177.4040      8.5624
   4630.0000    125.3161      1.3083      1.3004      2.5556     28.4033     91.6396    177.4148      8.5624
   4630.5000    125.3823      1.4709      1.4582      2.5752     27.3731     91.2814    177.3056      8.5624
   4631.0000    130.9402      1.4930      1.4786      2.5638     26.4158     89.8326    179.1653      8.5624
   4631.5000    125.0763      1.2745      1.2792      2.5645     27.6325     89.7100    168.4979      8.5624
   4632.0000    122.9804      1.4211      1.4339      2.5694     22.5907     82.9985    145.0807      8.5624
   4632.5000    117.9475      2.0384      2.0240      2.5404     20.3460     82.9985    145.0807      8.5624
   4633.0000     90.4255      2.4043      2.3817      2.5956     16.6667     87.5732    169.8701      8.5624
   4633.5000     86.6158      2.8131      2.6507      2.5258     16.7379     87.6042    171.4743      8.5624
   4634.0000     85.3643      2.8362      2.7531      2.5716     18.0161     87.7048    171.6163      8.5624
   4634.5000    113.9002      2.3438      2.3382      2.5879     22.2379     87.7480    171.6691      8.5624
   4635.0000    149.3194      1.2551      1.2673      2.5529     24.4941     87.7905    171.7319      8.5624
   4635.5000    151.7763      1.4473      1.4309      2.5336     26.4193     90.3564    175.6037      8.5624
   4636.0000    143.9819      1.5548      1.5380      2.5672     25.6283     93.1207    183.7290      8.5846
   4636.5000    135.5070      1.3203      1.2904      2.5558     25.7888     93.2068    183.4726      8.5624
   4637.0000    128.4215      1.5147      1.5079      2.5580     22.8339     92.5598    183.1689      8.5624
   4637.5000    131.6823      1.4669      1.4499      2.5682     26.3499     91.8238    180.9500      8.5403
   4638.0000    136.1007      1.3332      1.3161      2.6654     27.9943     90.5401    182.6534      8.5403
   4638.5000    137.5118      1.3502      1.3330      2.6202     27.4770     91.8956    187.6118      8.5624
   4639.0000    140.7725      1.3431      1.3335      2.5819     27.8263     92.0524    189.1187      8.5624
   4639.5000    142.5171      1.2875      1.2663      2.5719     29.1199     92.4583    188.7316      8.5403
   4640.0000    135.0343      1.4205      1.4016      2.6371     28.2666     92.4583    188.4823      8.5624
   4640.5000    137.4684      1.3239      1.3092      2.5845     28.0316     92.4809    187.8382      8.5403
   4641.0000    142.9852      1.3130      1.3008      2.5845     29.6332     92.4214    187.5701      8.5624
   4641.5000    131.4699      1.3574      1.3442      2.5661     27.2683     92.3916    188.8573      8.5403
   4642.0000    137.7972      1.3156      1.2956      2.5782     28.8378     81.9714    181.0977      8.5624
   4642.5000    150.8778      1.2788      1.2724      2.5643     29.1731     90.3753    181.0977      8.5846
   4643.0000    144.9277      1.2777      1.2531      2.5623     28.6657     90.3753    185.5873      8.5624
   4643.5000    137.5655      1.3749      1.3624      2.5591     28.0003     90.5886    185.5873      8.5846
   4644.0000    139.0588      1.3856      1.3395      2.6775     26.7298     90.5870    185.5355      8.5624
   4644.5000    111.0665      1.8370      1.8054      2.7585     23.9592     90.5955    185.5891      8.5624
   4645.0000    114.4059      1.3376      1.2683      2.8284     19.1345     90.5791    185.5496      8.5624
   4645.5000    144.1680      1.2838      1.3020      2.6006     25.7075     90.5869    185.5104      8.5624
   4646.0000    132.8349      1.3866      1.3787      2.6068     25.3095     90.5735    185.5314      8.5624
   4646.5000    130.6901      1.4839      1.4676      2.5945     27.6482     90.5721    185.4817      8.5624
   4647.0000    145.4787      1.3511      1.3438      2.5523     30.7831     90.6680    185.4728      8.5846
   4647.5000    143.1622      1.3666      1.3602      2.5519     29.2225     91.6586    184.9686      8.5846
   4648.0000    128.4421      1.3588      1.3462      2.5566     28.1929     92.4096    187.2187      8.6067
   4648.5000    132.8639      1.3503      1.3323      2.5477     30.9802     93.1831    187.1634      8.5624
   4649.0000    132.4929      1.3582      1.3432      2.5976     29.9127     92.8797    187.1829      8.5624
   4649.5000    140.6355      1.3113      1.2964      2.5673     29.5840     92.8752    188.2591      8.5624
   4650.0000    137.4296      1.4418      1.4277      2.5520     30.5039     92.4975    186.2666      8.5846
   4650.5000    142.2727      1.4673      1.4536      2.5500     30.1549     91.2538    184.7832      8.5624
   4651.0000    135.6052      1.4809      1.4635      2.5749     29.9256     89.5518    183.7480      8.5624
   4651.5000    140.9050      1.4851      1.4756      2.5525     27.2565     89.5518    183.7480      8.5624
