~Version Information
 VERS.           2.0     :   CWLS log ASCII Standard -VERSION 2.0
 WRAP.           NO      :   One line per depth step
~Well Information
#MNEM.UNIT      VALUE/NAME              DESCRIPTION
#--------     --------------            ---------------------
 STRT.M           508.0000              :START DEPTH
 STOP.M          5279.5000              :STOP DEPTH
 STEP.M             0.5000              :STEP
 NULL.             -999.25              :NULL VALUE
 COMP.    ConocoPhillips                :COMPANY
 WELL.    Poseidon North 1              :WELL
 FLD .    Exploration                   :FIELD
 LOC .                                  :LOCATION
 PROV.                                  :PROVINCE
 SRVC.    Schlumberger                  :SERVICE COMPANY
 CTRY.                                  :COUNTRY
 DATE.    05/20/2014                    :LOG DATE
 UWI .                                  :UNIQUE WELL ID
 LATI.DEG -13/34/24.825                  : Latitude
 LONG.DEG 122/20/24.556                 : Longitude
 GDAT.                                  : Geodetic Datum
~PARAMETER INFORMATION
~CURVE INFORMATION
#MNEM    .UNIT     API CODE             Curve Description
 DEPT    .M                             :   Along hole depth
 GRD     .gAPI                          :   Gamma Ray
 RS      .ohm.m                         :   (RM)    (ARC[1])                (6in)                   Phase Shift Resistivity 22 inch Spacing at 2 MHz, Environmentally Corrected.
 RD      .ohm.m                         :   (RM)    (ARC[1])                (6in)                   Phase Shift Resistivity 34 inch Spacing at 2 MHz, Environmentally Corrected.
 RHOB    .g/cm3                         :   (RM)    (ADN[1])                (6in)                   Bulk Density
 TNPH    .pu                            :   (RM)    (ADN[1])                (6in)                   Thermal Neutron Porosity (Ratio Method) in Selected Lithology
 DTCO    .us/ft                         :   Delta-T Compressional
 DTSM    .us/ft                         :   Delta-T Shear
 HDAR    .in                            :   Hole Diameter from Area
#
# Curve              Start        Stop     Minimum     Maximum
# ------------------------------------------------------------
#
# GRD             508.0000   5279.5000      3.5346    204.6889
# RS              568.5000   5279.5000      0.1925    487.9586
# RD              568.5000   5279.5000      0.1945    316.2479
# RHOB           3782.0000   4931.5000      1.9495      3.5107
# TNPH           3780.5000   4931.5000      6.2988     68.6649
# DTCO           3677.0000   5250.0000     48.6167    124.5370
# DTSM           3804.5000   5250.0000     85.6802    273.5039
# HDAR           3808.0000   5273.5000      8.3409     17.3339
# ******************************
# #
# DEVIATION SURVEY:	(Schlumberger)		Definitive Survey
#	Depth	Dev (deg)	Azimuth (deg)	Depth	Dev (deg)	Azimuth (deg)
#	508.3m	0.00	0.00	535.0m	0.51	175.26
#	567.0m	0.46	159.23	632.3m	0.50	124.18
#	690.2m	0.36	105.64	718.4m	0.30	104.70
#	747.0m	0.22	100.37	833.2m	0.12	92.39
#	862.3m	0.14	89.88	948.6m	0.09	77.24
#	1034.5m	0.21	61.94	1120.7m	0.43	72.74
#	1178.5m	0.55	94.45	1234.9m	0.84	96.85
#	1264.2m	1.11	104.58	1293.6m	1.37	101.48
#	1322.8m	1.51	87.02	1353.0m	1.76	69.73
#	1412.0m	1.26	53.07	1440.7m	1.13	48.89
#	1469.3m	0.97	55.84	1497.6m	1.03	53.67
#	1526.2m	0.92	59.74	1554.4m	0.82	58.53
#	1583.8m	0.75	60.20	1641.9m	0.66	59.63
#	1670.7m	0.75	60.62	1698.0m	0.69	57.52
#	1725.9m	0.67	57.15	1754.8m	0.32	52.85
#	1783.6m	0.81	146.83	1812.6m	1.47	161.88
#	1841.3m	1.64	163.20	1870.0m	1.76	163.52
#	1899.8m	1.79	177.44	1927.8m	1.29	184.32
#	1957.9m	1.72	185.24	1986.4m	1.87	187.31
#	2016.7m	1.89	185.97	2045.2m	1.80	187.62
#	2073.8m	1.81	185.62	2102.3m	1.83	186.20
#	2130.6m	1.79	187.06	2159.6m	1.78	184.95
#	2189.6m	1.85	185.18	2218.1m	1.85	184.70
#	2246.2m	1.81	184.66	2274.6m	1.82	181.40
#	2303.7m	1.76	181.56	2331.2m	1.76	183.12
#	2360.1m	1.77	183.23	2389.2m	1.78	181.43
#	2429.8m	1.81	178.67	2453.0m	1.78	181.70
#	2490.3m	1.75	186.73	2519.1m	1.74	190.18
#	2577.7m	1.34	193.07	2606.3m	1.34	194.30
#	2634.8m	1.43	194.62	2663.0m	1.49	196.08
#	2691.9m	1.52	191.72	2720.5m	1.41	196.99
#	2749.1m	1.30	192.26	2778.8m	1.33	197.61
#	2807.5m	1.18	197.33	2836.7m	1.13	193.60
#	2865.4m	1.01	194.63	2894.6m	1.02	201.33
#	2923.5m	0.87	193.21	2952.2m	0.92	194.81
#	2979.9m	0.79	197.44	3007.9m	0.71	189.93
#	3039.2m	0.62	204.55	3068.6m	0.38	211.96
#	3098.5m	0.64	224.56	3126.6m	0.95	223.07
#	3154.6m	0.84	235.70	3185.2m	0.78	238.33
#	3212.8m	0.76	226.49	3242.0m	0.64	244.70
#	3272.3m	0.59	246.79	3300.2m	0.57	235.82
#	3327.8m	0.59	264.08	3357.0m	0.61	267.57
#	3388.0m	0.41	270.93	3443.1m	0.26	299.95
#	3474.8m	0.43	301.03	3500.7m	0.47	288.64
#	3531.2m	0.29	300.47	3558.2m	0.41	316.53
#	3588.3m	0.55	309.28	3617.9m	0.51	307.43
#	3648.0m	0.46	340.11	3676.0m	0.35	315.45
#	3703.6m	0.43	300.04	3730.9m	0.34	326.82
#	3751.3m	0.17	271.57	3780.6m	0.09	301.36
#	3814.8m	0.29	187.90	3828.0m	0.42	183.54
#	3858.7m	0.35	156.45	3888.1m	0.72	141.78
#	3916.0m	0.93	151.39	3944.8m	1.30	136.05
#	3973.2m	1.99	136.59	4001.6m	2.33	140.24
#	4028.8m	2.82	136.91	4057.0m	3.00	139.76
#	4117.2m	2.72	150.07	4147.1m	2.18	148.78
#	4176.6m	1.90	141.66	4205.2m	1.35	129.99
#	4234.2m	0.98	109.72	4261.7m	0.87	84.30
#	4291.0m	1.20	72.60	4320.5m	0.67	70.91
#	4348.8m	0.56	71.19	4376.7m	0.42	56.80
#	4404.4m	0.30	20.79	4433.2m	0.31	341.16
#	4462.6m	0.26	334.54	4521.8m	0.92	284.18
#	4552.1m	1.66	297.93	4580.0m	1.95	318.44
#	4606.9m	2.21	336.83	4636.2m	2.24	345.69
#	4664.8m	2.50	352.22	4693.7m	2.79	352.27
#	4723.0m	2.96	347.28	4753.0m	3.12	334.48
#	4782.4m	3.27	329.12	4811.3m	3.87	326.41
#	4838.8m	4.07	319.63	4866.5m	4.23	317.95
#	4895.6m	4.63	317.81	4927.1m	4.57	312.59
#	4955.7m	3.99	310.09	4983.3m	3.37	308.64
#	5009.6m	2.66	307.75	5040.2m	2.81	307.39
#	5069.7m	3.03	298.46	5100.5m	3.88	292.76
#	5126.7m	3.99	297.59	5157.5m	4.00	296.72
#	5186.1m	4.23	299.71	5213.0m	3.84	304.22
#	5242.0m	3.97	301.56	5265.7m	4.07	299.21
#	5287.0m	4.07	299.21
#
# VELOCITY SURVEY:	No checkshot survey run
# 
# ************************************************************
#
# #
# LOCN 	LAT:	13o 34' 24.825" S			WELL NAME:	Poseidon North 1	
# 	LONG:	122o 20' 24.556" E
# 	EASTING:	428611.91m E	NORTHING: 	8499338.27m N	ZONE:	51	GDA 94
# SEISMIC SURV:	Poseidon 3D	INLINE:  3600	XLINE: 2250	STATUS:	P & A
# ELEVN SF:	- 486.0m MSL 	DATUM RT:	22.0m	OPERATOR:	ConocoPhillips
# BASIN:		Browse	TOTAL D:	5287m	PARTNERS:	Karoon, PetroChina
# SPUD DATE:	19/03/2014	COMPLN DATE:	18/05/2014	LEASE:	WA-315-P
# TARGET:	Montara & Plover Fms, seismic closure	DRILLER:	Transocean
# DATA SOURCE:	WCR (Basic), logs			RIG:	Legend
# #
# HOLE AND CASING DATA:
# 	Hole 	Hole	Casing	Casing 	Weight	Grade	Joints	Cement	TOC
# 	Size	Depth	Size	Depth	lb/ft
# 	36”	568.3m	30”	568m	456 / 310	X-52	2 / 3	221 sx G at SG 1.5	
# 								1118 sx G at SG 1.9
# 								225 sx G at SG 1.9 	Grouted
# 	17.5”	2459m	13 3/8”	2453m	72	P-110	160	1734 sx G at SG 1.44
# 								486 sx G at SG 1.9
# 	12.25”	3820m	9 5/8”	3814.8m	53.5	P-110	267	469 sx HTB at SG 1.89
# 	8.5”	5287m	
# #
# TEMPERATURES:
# 	Depth Driller	Logger	Temp	Log Type	Time since circ	Circ Time
# 	5287m	5234m	165.6 deg C	QAIT-HNGS	25.9 hrs	2.5 hrs
# 		5060m	165.6 deg C	MDT	55 hrs
# #
# MUD PROPERTIES:
# Depth (L)	Fluid Type	SG	Vis.	pH	Fl cc	Rm	Rmf	Rmc
#  5287m	Novatec SBM	1.57	81	na	3.6	Assumed infinite
# #
#
# ************************************************************
#    This LAS file was created by Occam Technology Pty. Ltd.
# The edit data contained herein are copyright property of
# Occam Technology Pty. Ltd. The data are licensed to the
# purchasing company and subsidiaries worldwide, and are NOT
# for on-copying to third parties.  We place no restriction on
# the distribution of plots generated from the digital data.
#
#    We supply the data on a 'best effort' basis.  We cannot
# control either the original data acquisition or the application
# of the data, and therefore we cannot be held responsible for
# the consequences of any interpretations based on the data.  We
# urge purchasers to apply normal quality control procedures to
# the data before use for any quantitative interpretative
# procedures.
# ************************************************************
~A      DEPT         GRD          RS          RD        RHOB        TNPH        DTCO        DTSM        HDAR
# ...
   3801.0000     83.8913      0.8130      0.7854      2.6482     29.6083     98.1472   -999.2500   -999.2500
   3801.5000     91.5737      0.8297      0.8203      2.7102     34.2985     95.7302   -999.2500   -999.2500
   3802.0000     86.1709      0.8470      0.8357      2.9027     34.7045     95.8680   -999.2500   -999.2500
   3802.5000     87.9814      0.8739      0.8617      2.7426     36.0013     98.7659   -999.2500   -999.2500
   3803.0000     85.2472      0.7991      0.7843      2.7181     39.7318     99.2092   -999.2500   -999.2500
   3803.5000     87.9018      0.8339      0.8220      2.6999     36.0326    101.6849   -999.2500   -999.2500
   3804.0000     83.7511      0.8750      0.8664      2.6826     35.4254    102.6344   -999.2500   -999.2500
   3804.5000     91.8795      0.7568      0.7463      2.6874     33.1497    103.2006    265.6669   -999.2500
   3805.0000     87.9685      0.7808      0.7678      2.7601     33.0513    102.1039    226.7275   -999.2500
   3805.5000     82.0157      0.8032      0.7891      2.6528     34.8457    102.8163    270.7018   -999.2500
   3806.0000     89.5939   -999.2500   -999.2500      2.6893     34.9896     98.9029    252.9244   -999.2500
   3806.5000     76.8032   -999.2500   -999.2500      2.7081     24.0070     98.1353    254.8651   -999.2500
   3807.0000     79.8859   -999.2500   -999.2500      2.8194     29.2636     99.3498    246.3247   -999.2500
   3807.5000     80.6977   -999.2500   -999.2500      2.8258     33.2229    101.5538    217.6986   -999.2500
   3808.0000     79.2084   -999.2500   -999.2500      2.7754     29.0277     90.7681    205.8295      8.6953
   3808.5000     47.2326   -999.2500   -999.2500      2.7690     19.3417     86.6739    196.6101      8.6953
   3809.0000     71.3071   -999.2500   -999.2500      2.7537     26.2240     92.5960    197.3719      8.6953
   3809.5000     81.4337   -999.2500   -999.2500      2.7229     31.3749    101.7764    187.9939      8.6510
   3810.0000     84.5241   -999.2500   -999.2500      2.9876     32.0256    106.3105    198.0377      8.6731
   3810.5000     67.2742   -999.2500   -999.2500      3.3736     31.1507    106.5735    206.6568      8.6731
   3811.0000     74.0437   -999.2500   -999.2500      2.2906     35.6231     87.1778    237.9657      8.8282
   3811.5000    109.3237   -999.2500   -999.2500      2.0341     40.3518     96.1050    257.1166      9.5592
   3812.0000    103.8759      0.6972      0.6516      1.9929     54.9029    104.1579    249.0199     14.9416
   3812.5000     89.2401      0.8292      0.7376      1.9495     55.8139    107.9840    252.7234     15.8498
   3813.0000    101.0524      0.7365      0.6650      1.9639     52.3684    108.6205    263.3142     17.2231
   3813.5000     96.8277      0.7215      0.6650      1.9802     45.6449    106.9488    253.3826     17.2010
   3814.0000     98.9764      0.7138      0.6612      1.9844     55.0401    106.3236    238.4016     17.1567
   3814.5000     96.5577      0.6976      0.6447      1.9858     54.6822    105.7709    254.3620     17.2010
   3815.0000    102.5067      0.7080      0.6488      1.9702     54.3261    103.0753    252.1781     17.2010
   3815.5000    101.9080      0.7232      0.6582      1.9759     54.9106    104.2467    273.5039     17.1567
   3816.0000     95.6181      0.7094      0.6351      1.9741     59.2673    106.5732    259.5339     17.0459
   3816.5000     90.4097      0.7606      0.6761      1.9707     56.6348    106.2496    259.0593     16.1821
   3817.0000    105.0424      0.7371      0.6543      1.9922     55.6199    106.6785    253.6454     17.3339
   3817.5000    109.0405      0.7750      0.6856      2.0175     54.9123    106.2968    247.9322     14.6980
   3818.0000    114.4194      0.7136      0.6299      2.0148     50.8674    107.1981    249.0141      8.8947
   3818.5000    112.8940      0.7185      0.6446      2.0436     55.9793    107.1981    250.4565      8.6288
   3819.0000    116.5288      0.6589      0.6109      2.0808     41.9857    107.6320    250.8171      8.6288
   3819.5000    133.4637      0.6108      0.5728      2.4428     22.6303    107.6320    250.8171      8.5846
   3820.0000     90.8515      0.6173      0.5924      2.4820     32.2548    107.6346    251.0817      8.6067
   3820.5000     92.6886      0.6166      0.5999      2.4785     32.7193    107.6259    251.0189      8.5846
   3821.0000     90.9259      0.6172      0.6035      2.4784     30.3092    107.6593    251.0148      8.6067
   3821.5000     86.0265      0.6224      0.6077      2.4705     31.5420    107.6461    251.0037      8.5846
   3822.0000     90.1689      0.6388      0.6249      2.4808     30.6644    108.1634    252.9610      8.6067
   3822.5000     87.5461      0.6210      0.6081      2.4821     31.5511    107.4921    260.5153      8.6288
   3823.0000     91.0091      0.6337      0.6242      2.4801     33.4454    106.4517    252.2289      8.5846
   3823.5000     93.3568      0.5875      0.5772      2.5473     32.1768    106.6278    255.0575      8.5846
   3824.0000     81.1322      0.7226      0.7202      2.5892     31.8689    107.6374    254.7440      8.6288
   3824.5000     98.9929      0.5799      0.5702      2.4718     31.9757    108.5833    257.9825      8.6067
   3825.0000     90.8502      0.5850      0.5794      2.4663     33.6826    108.2785    256.9522      8.6288
   3825.5000     91.6924      0.6013      0.5955      2.4699     32.4845    107.4377    257.1699      8.6067
   3826.0000     89.6390      0.5932      0.5871      2.4732     31.9406    106.2161    256.1695      8.6288
   3826.5000     91.4397      0.5950      0.5849      2.4746     32.4056    105.9907    253.4788      8.6288
   3827.0000     83.3129      0.7014      0.6949      2.5035     30.8831    106.4215    252.1410      8.6288
   3827.5000     87.3069      0.5993      0.5832      2.4920     30.5701    107.4130    256.6568      8.6288
   3828.0000     92.4727      0.5994      0.5930      2.4945     30.9436    107.7027    258.0032      8.6510
   3828.5000     94.7663      0.5833      0.5743      2.4663     32.4199    107.0565    256.5981      8.6067
   3829.0000     88.2651      0.5919      0.5870      2.4786     33.0037    106.3686    262.8704      8.5846
   3829.5000     88.4142      0.6019      0.5898      2.5006     31.3995    106.0939    252.0261      8.6067
   3830.0000     87.2752      0.6481      0.6458      2.5043     32.8980    106.2566    252.2991      8.6067
   3830.5000     87.5318      0.6225      0.6188      2.5141     33.3556    106.8579    257.0490      8.6067
   3831.0000     87.8168      0.5979      0.5923      2.4761     32.3100    106.7145    254.9514      8.5846
   3831.5000     86.5311      0.5968      0.5876      2.4854     30.8358    106.4026    254.2944      8.6288
   3832.0000     85.4056      0.6647      0.6623      2.5046     32.1655    106.3238    253.3076      8.5846
   3832.5000     84.8700      0.6082      0.5995      2.4813     31.5656    106.6293    255.2537      8.6288
   3833.0000     91.3705      0.6137      0.6092      2.4876     32.1297    107.2429    255.7704      8.5846
   3833.5000     87.5891      0.5750      0.5659      2.4814     30.7175    107.1628    258.1792      8.6067
   3834.0000     94.7640      0.5871      0.5799      2.4702     32.1211    106.5260    253.4805      8.6288
   3834.5000     89.9723      0.6457      0.6401      2.4975     30.6980    105.4853    250.1606      8.6067
   3835.0000     88.2800      0.6276      0.6180      2.4951     32.6695    105.0961    245.1923      8.5846
   3835.5000     87.2972      0.6406      0.6317      2.4867     30.7208    104.9599    249.3065      8.6288
   3836.0000     84.8620      0.6169      0.6053      2.5013     29.4008    104.5700    246.2725      8.5846
   3836.5000     83.4263      0.6732      0.6764      2.5439     31.4738    104.6178    244.7627      8.5846
   3837.0000     82.8653      0.6718      0.6657      2.5039     29.6873    104.7517    244.1835      8.5846
   3837.5000     85.4953      0.6344      0.6224      2.4757     31.2062    105.0905    244.1920      8.5846
