~Version Information
VERS.    1.20:   CWLS log ASCII Standard - version 1.20
WRAP.      NO:   one line per depth step
~Well Information
#MNEM.UNIT     Data Type     Information
#_________     _________     ________________________
 STRT.M            0.000:
 STOP.M          245.550:
 STEP.M            0.050:
 NULL.              -0.0:
 COMP.           COMPANY: KANGARILLA DRILLING
 WELL.              WELL: PN103351
 FLD.              FIELD: OBSERVATION WELL
 LOC.           LOCATION:
 CNTY.            COUNTY:
 STAT.             STATE:
 CTRY.           COUNTRY:
 SRVC.   SERVICE COMPANY:    DEPARTMENT OF WATER, LAND/ and Biodiversity Conservation
 DATE.          LOG DATE: 15/12/2004
 UWI.     UNIQUE WELL ID: unknown
~Curve Information
#MNEM.UNIT       Curve  Information
#_________       _____  ___________________
 DEPT.M        :    1   DEPTH
 Gamm.API      :    2   Gamma
 Neut.CPS      :    3   Neutron
 SP  .MILLIVOLTS :    4   SP
 PR  .OHM      :    5   PR
 Cali.mm       :    6   Caliper
 Dens.g/cc     :    7   Density
 MED_.ohm/m    :    8   MED_INDU
 DEEP.ohm/m    :    9   DEEP_IND
~Parameter Information
#MNEM.UNIT       Value        Information
#_________     _________     ________________________
 LMF .       G.L. : Log Measured From
~Other Information
#MNEM.                 Description        Information
#_________            _____________     ________________________
 ENGI.                     Operator : V.Freschi
 LUN .                      Vehicle : T3362
 LATI.                     Latitude : 54H 0278156
 LONG.                    Longitude : 6142207
 TDD .                Depth Driller : 245M
 TDL .                 Depth Logger : 245.55
 BS  .                     Bit Size : 8" OPEN HOLE
 WITN.                      Witness : A FORBES
 COMM.                      comment : WINGFIELD
 JOBN.                     Job Name : 7086
#
 Azimuth degrees.                 relative to  : magnetic north
#
#
# conversion formula for CALIPER mm
#    where V = reading
#    -114.3909988403 + 0.1567000002*V
#
# conversion formula for DENSITY g/cc
#    where L = ln(reading)
#    19.1588001251 - 1.7809599638*L
#
# conversion formula for GAMMA API
#    where V = reading
#    -0.1789000034 + 1.9390000105*V
#
# conversion formula for  cps,ohm/m
#    where V = reading
#    0 + 1*V
#
# calculated values formula is :
#    1000/(V1*(V1*0.0000002+0.244)-412.12),1000/(V2*(V2*0.00002+0.067)-48.849)
#
# conversion formula for  cps,ohm/m
#    where V = reading
#    0 + 1*V
#
# calculated values formula is :
#    1000/(V1*(V1*0.0000002+0.244)-421.12),1000/(V2*(V2*0.00002+0.067)-48.849)
#
# conversion formula for NEUTRON CPS
#    where V = reading
#    1 + 1*V
#
# conversion formula for POINT-RESIS OHM
#    where V = reading
#    -141.5144042969 + 0.5735049844*V
#
# conversion formula for SPON-POT MILLIVOLTS
#    where V = reading
#    -817.1540527344 + 0.4111811817*V
#
~A Depth      Gamm      Neut      SP        PR        Cali      Dens      MED_      DEEP
# ...
   31.55    36.662   198.000   -19.874   298.364   213.739     2.211     1.396     1.156
   31.60    38.601   186.000   -19.463   300.084   203.553     2.205     1.384     1.156
   31.65    28.906   179.000   -18.640   298.364   210.605     2.229     1.351     1.131
   31.70    38.601   228.000   -18.229   300.084   204.807     2.207     1.334     1.131
   31.75    42.479   222.000   -17.407   301.231   206.687     2.122     1.316     1.102
   31.80    28.906   230.000   -19.051   300.084   209.038     2.076     1.298     1.085
   31.85    40.540   188.000   -16.584   299.511   205.277     2.038     1.280     1.046
   31.90    50.235   206.000   -17.818   299.511   210.918     2.132     1.266     1.032
   31.95    52.174   194.000   -16.584   301.231   211.545     2.169     1.252     1.016
   32.00    32.784   194.000   -16.584   299.511   214.992     2.226     1.247     1.012
   32.05    38.601   209.000   -16.173   300.084   209.038     2.260     1.238     1.006
   32.10    26.967   217.000   -16.584   299.511   209.978     2.226     1.221     0.986
   32.15    28.906   183.000   -17.818   298.937   206.531     2.241     1.215     0.961
   32.20    28.906   208.000   -20.285   299.511   205.120     2.247     1.204     0.931
   32.25    28.906   223.000   -20.696   300.084   209.195     2.303     1.194     0.883
   32.30    34.723   200.000   -21.107   298.937   210.918     2.318     1.176     0.848
   32.35    40.540   209.000   -20.285   300.658   208.881     2.327     1.160     0.823
   32.40    40.540   234.000   -21.107   300.084   205.590     2.328     1.149     0.805
   32.45    30.845   221.000   -22.752   298.937   207.001     2.281     1.136     0.788
   32.50    50.235   218.000   -23.986   299.511   211.075     2.252     1.125     0.773
   32.55    44.418   218.000   -29.331   299.511   207.471     2.229     1.109     0.755
   32.60    44.418   214.000   -30.153   297.790   203.553     2.262     1.093     0.736
   32.65    30.845   199.000   -29.742   297.790   201.046     2.278     1.076     0.712
   32.70    36.662   177.000   -29.331   297.217   209.195     2.273     1.057     0.695
   32.75    48.296   190.000   -30.564   300.658   210.605     2.299     1.042     0.689
   32.80    30.845   192.000   -28.509   300.084   204.023     2.273     1.033     0.686
   32.85    50.235   179.000   -27.686   299.511   209.038     2.240     1.024     0.691
   32.90    50.235   170.000   -26.041   298.937   208.254     2.212     1.026     0.702
   32.95    61.869   137.000   -22.341   298.937   216.089     2.228     1.031     0.715
   33.00    34.723   143.000   -24.397   299.511   205.434     2.253     1.043     0.734
   33.05    46.357   192.000   -23.163   296.643   208.411     2.250     1.054     0.754
   33.10    28.906   144.000   -21.107   298.937   212.642     2.297     1.074     0.782
   33.15    38.601   147.000   -22.752   298.937   207.157     2.272     1.097     0.818
   33.20    42.479   164.000   -19.874   297.790   214.679     2.260     1.116     0.849
   33.25    50.235   136.000   -19.051   299.511   203.240     2.239     1.136     0.879
   33.30    50.235   163.000   -20.285   298.937   213.112     2.224     1.156     0.907
   33.35    46.357   173.000   -21.107   297.790   206.687     2.269     1.169     0.915
   33.40    36.662   147.000   -19.874   299.511   208.254     2.304     1.185     0.919
   33.45    52.174   170.000   -19.463   300.084   208.881     2.316     1.198     0.934
   33.50    38.601   196.000   -17.818   299.511   208.411     2.345     1.202     0.942
   33.55    32.784   196.000   -18.229   300.658   211.075     2.320     1.221     0.957
   33.60    25.028   170.000   -17.407   300.084   205.120     2.327     1.233     0.975
   33.65    46.357   183.000   -17.407   298.937   212.955     2.328     1.251     0.994
   33.70    50.235   181.000   -16.173   299.511   216.403     2.284     1.257     1.001
   33.75    46.357   185.000   -16.173   298.364   207.628     2.282     1.268     1.005
   33.80    46.357   188.000   -13.706   300.658   210.291     2.284     1.275     0.999
   33.85    50.235   194.000   -15.762   298.937   214.052     2.323     1.279     1.002
   33.90    46.357   222.000   -15.762   299.511   208.881     2.344     1.273     0.990
   33.95    38.601   197.000   -16.995   300.084   208.568     2.336     1.274     0.982
   34.00    50.235   190.000   -16.995   300.084   209.038     2.309     1.277     0.984
   34.05    40.540   188.000   -17.407   298.364   210.605     2.276     1.275     0.982
   34.10    36.662   211.000   -18.640   300.084   207.471     2.284     1.271     0.979
   34.15    42.479   183.000   -18.229   298.937   206.061     2.279     1.269     0.986
   34.20    21.150   202.000   -21.518   298.364   209.978     2.269     1.264     0.987
   34.25    32.784   179.000   -18.229   299.511   210.605     2.305     1.270     0.994
   34.30    28.906   170.000   -17.407   300.658   210.291     2.270     1.264     0.994
   34.35    38.601   207.000   -16.584   298.937   210.448     2.277     1.269     1.001
   34.40    48.296   202.000   -16.173   299.511   212.955     2.288     1.273     1.008
   34.45    36.662   175.000   -17.407   300.084   211.545     2.268     1.282     1.012
   34.50    38.601   179.000   -14.528   299.511   206.844     2.263     1.294     1.020
   34.55    44.418   201.000   -15.762   298.937   214.836     2.309     1.302     1.043
   34.60    50.235   164.000   -14.528   300.084   208.254     2.285     1.309     1.057
   34.65    32.784   181.000   -15.351   298.364   218.440     2.276     1.327     1.080
   34.70    52.174   222.000   -14.528   299.511   212.642     2.252     1.334     1.097
   34.75    25.028   181.000   -16.584   299.511   213.739     2.286     1.351     1.100
   34.80    32.784   164.000   -14.117   298.937   220.320     2.291     1.353     1.107
   34.85    34.723   177.000   -16.995   299.511   213.425     2.288     1.355     1.099
   34.90    50.235   190.000   -15.351   299.511   219.380     2.333     1.360     1.092
   34.95    32.784   211.000   -12.884   298.937   216.559     2.277     1.363     1.095
   35.00    54.113   203.000   -13.706   297.790   211.232     2.241     1.359     1.096
   35.05    44.418   216.000   -13.706   300.658   209.978     2.260     1.356     1.098
   35.10    44.418   171.000   -12.061   298.364   212.015     2.235     1.358     1.114
   35.15    54.113   207.000   -12.061   300.084   215.463     2.250     1.358     1.118
   35.20    38.601   164.000   -14.528   300.084   209.665     2.255     1.372     1.128
   35.25    38.601   179.000   -10.828   299.511   211.075     2.280     1.373     1.130
   35.30    25.028   200.000   -12.061   300.658   215.463     2.267     1.381     1.127
   35.35    34.723   207.000   -12.061   298.937   212.642     2.273     1.387     1.127
   35.40    32.784   207.000   -12.061   299.511   212.955     2.273     1.389     1.138
   35.45    50.235   209.000   -11.239   300.658   218.126     2.233     1.383     1.145
   35.50    19.211   203.000   -10.828   297.790   209.665     2.201     1.383     1.154
   35.55    52.174   190.000   -12.061   300.084   213.739     2.184     1.392     1.153
   35.60    32.784   181.000   -10.828   299.511   219.380     2.166     1.392     1.159
   35.65    32.784   192.000    -9.594   300.084   212.955     2.180     1.392     1.153
   35.70    25.028   185.000    -9.183   300.658   219.380     2.200     1.386     1.153
   35.75    46.357   216.000    -9.594   297.790   214.052     2.170     1.396     1.165
   35.80    36.662   183.000    -9.183   300.084   217.343     2.167     1.396     1.158
   35.85    36.662   181.000    -9.594   300.084   217.186     2.179     1.389     1.158
   35.90    46.357   179.000    -9.594   300.084   220.164     2.234     1.386     1.151
   35.95    42.479   205.000    -7.949   298.364   219.223     2.260     1.380     1.147
   36.00    46.357   177.000    -6.716   298.937   223.298     2.274     1.380     1.147
