~Version Information
VERS.    1.20:   CWLS log ASCII Standard - version 1.20
WRAP.      NO:   one line per depth step
~Well Information
#MNEM.UNIT     Data Type     Information
#_________     _________     ________________________
 STRT.M            0.000:
 STOP.M          245.550:
 STEP.M            0.050:
 NULL.              -0.0:
 COMP.           COMPANY: KANGARILLA DRILLING
 WELL.              WELL: PN103351
 FLD.              FIELD: OBSERVATION WELL
 LOC.           LOCATION:
 CNTY.            COUNTY:
 STAT.             STATE:
 CTRY.           COUNTRY:
 SRVC.   SERVICE COMPANY:    DEPARTMENT OF WATER, LAND/ and Biodiversity Conservation
 DATE.          LOG DATE: 15/12/2004
 UWI.     UNIQUE WELL ID: unknown
~Curve Information
#MNEM.UNIT       Curve  Information
#_________       _____  ___________________
 DEPT.M        :    1   DEPTH
 Gamm.API      :    2   Gamma
 Neut.CPS      :    3   Neutron
 SP  .MILLIVOLTS :    4   SP
 PR  .OHM      :    5   PR
 Cali.mm       :    6   Caliper
 Dens.g/cc     :    7   Density
 MED_.ohm/m    :    8   MED_INDU
 DEEP.ohm/m    :    9   DEEP_IND
~Parameter Information
#MNEM.UNIT       Value        Information
#_________     _________     ________________________
 LMF .       G.L. : Log Measured From
~Other Information
#MNEM.                 Description        Information
#_________            _____________     ________________________
 ENGI.                     Operator : V.Freschi
 LUN .                      Vehicle : T3362
 LATI.                     Latitude : 54H 0278156
 LONG.                    Longitude : 6142207
 TDD .                Depth Driller : 245M
 TDL .                 Depth Logger : 245.55
 BS  .                     Bit Size : 8" OPEN HOLE
 WITN.                      Witness : A FORBES
 COMM.                      comment : WINGFIELD
 JOBN.                     Job Name : 7086
#
 Azimuth degrees.                 relative to  : magnetic north
#
#
# conversion formula for CALIPER mm
#    where V = reading
#    -114.3909988403 + 0.1567000002*V
#
# conversion formula for DENSITY g/cc
#    where L = ln(reading)
#    19.1588001251 - 1.7809599638*L
#
# conversion formula for GAMMA API
#    where V = reading
#    -0.1789000034 + 1.9390000105*V
#
# conversion formula for  cps,ohm/m
#    where V = reading
#    0 + 1*V
#
# calculated values formula is :
#    1000/(V1*(V1*0.0000002+0.244)-412.12),1000/(V2*(V2*0.00002+0.067)-48.849)
#
# conversion formula for  cps,ohm/m
#    where V = reading
#    0 + 1*V
#
# calculated values formula is :
#    1000/(V1*(V1*0.0000002+0.244)-421.12),1000/(V2*(V2*0.00002+0.067)-48.849)
#
# conversion formula for NEUTRON CPS
#    where V = reading
#    1 + 1*V
#
# conversion formula for POINT-RESIS OHM
#    where V = reading
#    -141.5144042969 + 0.5735049844*V
#
# conversion formula for SPON-POT MILLIVOLTS
#    where V = reading
#    -817.1540527344 + 0.4111811817*V
#
~A Depth      Gamm      Neut      SP        PR        Cali      Dens      MED_      DEEP
# ...
  193.55    21.150   232.000    36.047   292.629   204.964     2.322    12.105    23.855
  193.60    11.455   258.000    37.692   292.629   203.553     2.252    11.756    24.230
  193.65    11.455   262.000    38.514   292.055   205.120     2.219    11.824    23.490
  193.70    28.906   258.000    38.103   292.629   206.531     2.228    11.589    23.979
  193.75    11.455   234.000    36.869   292.055   207.784     2.177    11.963    24.682
  193.80     7.577   261.000    37.280   293.202   203.240     2.199    11.893    24.104
  193.85    21.150   270.000    36.458   292.055   200.576     2.227    12.105    24.552
  193.90    15.333   290.000    35.225   292.629   206.531     2.262    12.105    23.917
  193.95    15.333   243.000    37.280   293.202   212.485     2.286    11.824    24.358
  194.00    15.333   268.000    36.869   292.629   207.471     2.325    11.147    23.917
  194.05    25.028   261.000    36.458   292.629   208.724     2.331    11.824    24.041
  194.10    11.455   248.000    36.869   292.629   206.844     2.349    11.147    24.041
  194.15    21.150   258.000    35.225   292.629   208.881     2.308    11.364    23.430
  194.20    11.455   266.000    36.458   292.055   206.844     2.340    11.116    23.917
  194.25    28.906   271.000    36.047   292.629   205.747     2.332    12.668    24.294
  194.30    15.333   277.000    35.225   292.055   204.807     2.308    11.147    23.979
  194.35    11.455   224.000    35.225   292.629   207.628     2.314    11.301    23.490
  194.40    19.211   216.000    34.813   292.629   211.702     2.308    10.879    24.041
  194.45    11.455   240.000    34.402   292.629   203.710     2.280    11.492    23.490
  194.50    36.662   261.000    34.402   293.776   207.157     2.322    11.056    23.732
  194.55    15.333   258.000    34.813   289.761   209.351     2.285    11.177    24.617
  194.60    11.455   239.000    34.813   292.629   207.784     2.247    11.056    23.077
  194.65    15.333   234.000    33.169   290.908   209.195     2.255    11.177    23.490
  194.70     7.577   259.000    34.813   290.908   206.061     2.284    10.997    24.041
  194.75    26.967   251.000    33.991   291.482   210.605     2.282    10.822    22.790
  194.80    15.333   215.000    33.991   292.055   200.106     2.250    10.822    23.855
  194.85    17.272   240.000    33.169   290.908   209.508     2.268    11.116    22.734
  194.90    23.089   233.000    31.524   292.629   207.628     2.240    10.597    23.252
  194.95    25.028   227.000    32.757   289.761   210.448     2.223    11.116    22.962
  195.00    36.662   230.000    33.169   292.055   218.753     2.214    11.086    23.671
  195.05    25.028   230.000    31.524   291.482   214.052     2.210    10.997    23.732
  195.10    36.662   239.000    31.524   291.482   213.269     2.246    11.026    23.979
  195.15    28.906   209.000    31.935   292.055   201.986     2.227    10.938    23.855
  195.20    17.272   227.000    33.580   293.202   208.881     2.203    10.938    23.979
  195.25    19.211   243.000    33.580   291.482   200.576     2.270    11.208    23.732
  195.30    23.089   250.000    33.169   293.776   207.314     2.261    10.997    23.550
  195.35    17.272   222.000    33.991   292.629   207.471     2.314    11.301    24.041
  195.40    19.211   219.000    33.169   292.055   206.374     2.270    11.208    24.041
  195.45    19.211   231.000    31.524   290.335   205.434     2.213    11.026    23.917
  195.50    19.211   250.000    33.169   289.761   208.254     2.148    10.850    23.135
  195.55    17.272   248.000    33.169   290.908   207.157     2.065    11.056    24.104
  195.60    32.784   229.000    33.169   291.482   210.291     2.019    10.879    23.371
  195.65    26.967   235.000    33.580   291.482   203.553     1.982    10.908    23.732
  195.70    17.272   277.000    32.757   291.482   205.434     2.046    11.056    23.430
  195.75    19.211   245.000    34.402   291.482   212.799     2.174    11.270    23.732
  195.80    15.333   227.000    33.991   294.349   205.590     2.241    11.116    23.135
  195.85    23.089   285.000    32.346   292.055   211.388     2.339    11.427    23.917
  195.90    34.723   259.000    33.169   293.202   207.628     2.348    10.652    23.135
  195.95    32.784   215.000    31.935   292.629   205.277     2.320    10.822    23.019
  196.00    19.211   241.000    32.757   292.629   216.559     2.266    10.408    23.311
  196.05    25.028   243.000    32.346   292.629   205.747     2.219    10.488    22.904
  196.10    28.906   240.000    33.169   292.629   211.702     2.258    10.435    23.490
  196.15    28.906   282.000    31.524   293.776   213.582     2.218    10.822    23.019
  196.20    32.784   215.000    32.757   292.629   212.329     2.233    10.461    22.510
  196.25    23.089   262.000    33.169   290.908   214.992     2.292    10.435    23.252
  196.30    19.211   190.000    31.935   292.629   207.001     2.311    10.124    22.790
  196.35    19.211   220.000    31.524   292.629   212.329     2.314    10.303    22.962
  196.40    32.784   221.000    30.702   292.629   213.112     2.260     9.976    23.430
  196.45    32.784   192.000    29.879   288.041   212.799     2.183    10.074    22.566
  196.50    36.662   246.000    30.702   290.908   207.471     2.162    10.074    22.291
  196.55    28.906   204.000    30.702   290.908   207.784     2.124    10.074    22.510
  196.60    25.028   223.000    29.468   290.908   204.494     2.165    10.050    21.707
  196.65    21.150   238.000    30.702   291.482   207.471     2.152    10.099    22.847
  196.70    32.784   216.000    30.702   292.629   207.314     2.126     9.808    22.847
  196.75    21.150   198.000    31.113   290.908   200.106     2.108     9.808    22.345
  196.80    21.150   206.000    31.524   290.335   204.650     2.120     9.623    21.707
  196.85    28.906   221.000    28.646   292.055   198.226     2.120    10.025    21.759
  196.90    50.235   239.000    30.702   292.629   213.896     2.126     9.879    21.811
  196.95    44.418   233.000    30.702   290.335   204.023     2.187     9.952    21.916
  197.00    48.296   225.000    29.468   292.055   208.254     2.181    10.050    21.707
  197.05    36.662   196.000    31.524   291.482   204.337     2.177     9.785    22.400
  197.10    21.150   235.000    30.290   292.629   209.038     2.143     9.879    23.135
  197.15    32.784   231.000    29.468   291.482   205.120     2.179    10.149    22.400
  197.20    28.906   238.000    30.290   290.908   212.329     2.205     9.715    22.678
  197.25    32.784   252.000    28.646   292.055   211.858     2.252     9.785    22.455
  197.30    30.845   264.000    30.702   290.335   214.836     2.304    10.050    22.510
  197.35    25.028   229.000    28.646   293.202   213.582     2.305    10.124    22.236
  197.40    21.150   207.000    27.823   289.761   216.716     2.256    10.025    22.022
  197.45    19.211   208.000    29.879   292.055   210.448     2.284     9.808    22.129
  197.50    28.906   226.000    29.057   290.335   202.143     2.239     9.556    22.022
  197.55    25.028   227.000    30.702   289.761   205.747     2.188     9.646    21.552
  197.60    28.906   211.000    28.646   292.055   209.351     2.196     9.511    22.566
  197.65    23.089   204.000    29.057   290.335   207.157     2.135     9.785    21.552
  197.70    19.211   229.000    29.057   291.482   210.918     2.099     9.927    22.678
  197.75    25.028   225.000    26.179   292.055   204.023     2.051    10.382    22.510
  197.80    25.028   240.000    27.823   292.055   205.434     2.041     9.832    21.707
  197.85    23.089   225.000    29.057   289.188   207.784     2.081     9.467    22.345
  197.90    25.028   231.000    29.468   290.908   206.844     2.080     9.646    22.182
  197.95    21.150   196.000    30.702   292.055   207.628     2.116     9.556    22.129
  198.00    23.089   217.000    27.823   290.335   203.397     2.173     9.761    22.455
