~Version Information
VERS.    1.20:   CWLS log ASCII Standard - version 1.20
WRAP.      NO:   one line per depth step
~Well Information
#MNEM.UNIT     Data Type     Information
#_________     _________     ________________________
 STRT.M            0.000:
 STOP.M          245.550:
 STEP.M            0.050:
 NULL.              -0.0:
 COMP.           COMPANY: KANGARILLA DRILLING
 WELL.              WELL: PN103351
 FLD.              FIELD: OBSERVATION WELL
 LOC.           LOCATION:
 CNTY.            COUNTY:
 STAT.             STATE:
 CTRY.           COUNTRY:
 SRVC.   SERVICE COMPANY:    DEPARTMENT OF WATER, LAND/ and Biodiversity Conservation
 DATE.          LOG DATE: 15/12/2004
 UWI.     UNIQUE WELL ID: unknown
~Curve Information
#MNEM.UNIT       Curve  Information
#_________       _____  ___________________
 DEPT.M        :    1   DEPTH
 Gamm.API      :    2   Gamma
 Neut.CPS      :    3   Neutron
 SP  .MILLIVOLTS :    4   SP
 PR  .OHM      :    5   PR
 Cali.mm       :    6   Caliper
 Dens.g/cc     :    7   Density
 MED_.ohm/m    :    8   MED_INDU
 DEEP.ohm/m    :    9   DEEP_IND
~Parameter Information
#MNEM.UNIT       Value        Information
#_________     _________     ________________________
 LMF .       G.L. : Log Measured From
~Other Information
#MNEM.                 Description        Information
#_________            _____________     ________________________
 ENGI.                     Operator : V.Freschi
 LUN .                      Vehicle : T3362
 LATI.                     Latitude : 54H 0278156
 LONG.                    Longitude : 6142207
 TDD .                Depth Driller : 245M
 TDL .                 Depth Logger : 245.55
 BS  .                     Bit Size : 8" OPEN HOLE
 WITN.                      Witness : A FORBES
 COMM.                      comment : WINGFIELD
 JOBN.                     Job Name : 7086
#
 Azimuth degrees.                 relative to  : magnetic north
#
#
# conversion formula for CALIPER mm
#    where V = reading
#    -114.3909988403 + 0.1567000002*V
#
# conversion formula for DENSITY g/cc
#    where L = ln(reading)
#    19.1588001251 - 1.7809599638*L
#
# conversion formula for GAMMA API
#    where V = reading
#    -0.1789000034 + 1.9390000105*V
#
# conversion formula for  cps,ohm/m
#    where V = reading
#    0 + 1*V
#
# calculated values formula is :
#    1000/(V1*(V1*0.0000002+0.244)-412.12),1000/(V2*(V2*0.00002+0.067)-48.849)
#
# conversion formula for  cps,ohm/m
#    where V = reading
#    0 + 1*V
#
# calculated values formula is :
#    1000/(V1*(V1*0.0000002+0.244)-421.12),1000/(V2*(V2*0.00002+0.067)-48.849)
#
# conversion formula for NEUTRON CPS
#    where V = reading
#    1 + 1*V
#
# conversion formula for POINT-RESIS OHM
#    where V = reading
#    -141.5144042969 + 0.5735049844*V
#
# conversion formula for SPON-POT MILLIVOLTS
#    where V = reading
#    -817.1540527344 + 0.4111811817*V
#
~A Depth      Gamm      Neut      SP        PR        Cali      Dens      MED_      DEEP
# ...
   18.05    57.991   148.000   -19.463   300.084   220.007     2.242     0.839     0.515
   18.10    63.808   160.000   -19.051   299.511   221.104     2.284     0.849     0.531
   18.15    38.601   146.000   -20.285   300.084   223.141     2.252     0.857     0.539
   18.20    67.686   140.000   -19.874   298.937   220.320     2.232     0.857     0.554
   18.25    44.418   163.000   -18.640   300.084   220.320     2.246     0.879     0.565
   18.30    38.601   145.000   -19.874   298.937   223.768     2.222     0.890     0.578
   18.35    42.479   173.000   -21.107   298.937   222.201     2.231     0.901     0.596
   18.40    50.235   196.000   -20.696   300.084   220.634     2.246     0.901     0.596
   18.45    42.479   177.000   -20.285   300.658   219.223     2.217     0.921     0.620
   18.50    46.357   168.000   -21.518   299.511   222.044     2.232     0.930     0.621
   18.55    28.906   159.000   -21.518   299.511   220.320     2.268     0.937     0.629
   18.60    42.479   181.000   -21.518   300.658   221.260     2.246     0.944     0.629
   18.65    32.784   190.000   -21.107   300.084   217.500     2.262     0.947     0.628
   18.70    54.113   170.000   -21.518   300.658   216.716     2.251     0.947     0.630
   18.75    50.235   188.000   -21.518   300.084   211.388     2.225     0.946     0.626
   18.80    56.052   166.000   -21.930   300.658   217.186     2.216     0.949     0.624
   18.85    36.662   158.000   -20.696   298.364   210.605     2.206     0.948     0.624
   18.90    32.784   196.000   -22.752   300.084   208.881     2.211     0.954     0.625
   18.95    42.479   177.000   -21.930   300.084   218.126     2.233     0.954     0.627
   19.00    44.418   168.000   -22.752   299.511   214.209     2.237     0.964     0.628
   19.05    38.601   170.000   -22.341   300.084   221.104     2.203     0.966     0.632
   19.10    54.113   170.000   -23.574   300.084   211.702     2.230     0.969     0.637
   19.15    34.723   173.000   -23.574   300.084   222.044     2.248     0.971     0.637
   19.20    57.991   188.000   -26.453   299.511   213.582     2.259     0.979     0.639
   19.25    32.784   159.000   -24.808   300.084   216.403     2.285     0.981     0.643
   19.30    25.028   155.000   -25.630   300.084   212.015     2.294     0.985     0.646
   19.35    40.540   183.000   -24.397   299.511   217.970     2.284     0.993     0.654
   19.40    40.540   179.000   -25.219   300.084   212.642     2.248     0.996     0.659
   19.45    42.479   157.000   -25.219   298.937   218.126     2.242     1.002     0.662
   19.50    48.296   175.000   -24.397   298.937   212.799     2.218     1.004     0.671
   19.55    36.662   149.000   -23.986   300.084   217.030     2.181     1.010     0.680
   19.60    50.235   146.000   -23.574   300.084   220.477     2.194     1.015     0.689
   19.65    42.479   159.000   -22.341   299.511   219.223     2.130     1.020     0.697
   19.70    48.296   173.000   -22.752   299.511   218.753     2.113     1.029     0.711
   19.75    54.113   166.000   -22.341   300.084   216.403     2.143     1.040     0.722
   19.80    46.357   174.000   -22.341   298.364   214.209     2.128     1.053     0.734
   19.85    54.113   151.000   -21.930   298.937   217.343     2.123     1.067     0.747
   19.90    61.869   143.000   -22.341   300.084   215.149     2.104     1.079     0.771
   19.95    28.906   157.000   -23.163   298.937   221.887     2.162     1.095     0.788
   20.00    65.747   149.000   -21.930   298.937   217.813     2.153     1.109     0.815
   20.05    36.662   177.000   -19.874   299.511   218.440     2.197     1.123     0.839
   20.10    40.540   156.000   -19.874   300.658   220.790     2.192     1.137     0.859
   20.15    46.357   170.000   -16.173   300.084   219.067     2.259     1.145     0.870
   20.20    61.869   185.000   -17.407   298.937   204.337     2.273     1.151     0.876
   20.25    57.991   207.000   -18.640   300.084   217.970     2.256     1.151     0.882
   20.30    40.540   205.000   -18.229   301.231   218.440     2.253     1.145     0.875
   20.35    26.967   213.000   -16.995   301.231   208.568     2.257     1.149     0.865
   20.40    42.479   225.000   -20.285   300.084   208.411     2.200     1.144     0.851
   20.45    36.662   205.000   -19.874   301.231   220.634     2.194     1.137     0.851
   20.50    56.052   196.000   -19.874   298.937   217.656     2.183     1.139     0.843
   20.55    50.235   209.000   -20.285   298.937   218.597     2.171     1.145     0.845
   20.60    28.906   209.000   -22.341   298.937   213.896     2.181     1.152     0.859
   20.65    42.479   185.000   -19.874   300.658   212.172     2.185     1.150     0.866
   20.70    38.601   200.000   -21.518   300.084   210.291     2.173     1.156     0.868
   20.75    50.235   188.000   -23.163   298.364   213.269     2.147     1.156     0.870
   20.80    28.906   201.000   -22.341   298.937   211.232     2.206     1.151     0.841
   20.85    38.601   230.000   -22.341   298.937   209.821     2.252     1.139     0.811
   20.90    50.235   196.000   -22.341   299.511   214.209     2.297     1.123     0.789
   20.95    46.357   188.000   -22.341   301.231   220.947     2.272     1.107     0.769
   21.00    46.357   194.000   -21.930   301.805   217.030     2.268     1.086     0.751
   21.05    38.601   205.000   -20.696   299.511   212.485     2.256     1.072     0.737
   21.10    38.601   192.000   -21.518   300.084   212.955     2.247     1.063     0.731
   21.15    50.235   168.000   -21.107   300.084   214.209     2.246     1.057     0.725
   21.20    56.052   155.000   -22.752   298.937   222.201     2.247     1.050     0.723
   21.25    50.235   175.000   -22.341   299.511   213.425     2.252     1.046     0.724
   21.30    57.991   166.000   -23.986   300.658   216.089     2.272     1.045     0.719
   21.35    77.381   164.000   -21.107   298.937   220.320     2.250     1.042     0.721
   21.40    32.784   185.000   -21.930   299.511   221.731     2.224     1.037     0.724
   21.45    57.991   149.000   -21.107   300.658   217.970     2.216     1.036     0.723
   21.50    56.052   166.000   -19.874   299.511   214.679     2.236     1.039     0.727
   21.55    50.235   149.000   -18.640   300.084   210.291     2.206     1.039     0.730
   21.60    61.869   140.000   -18.229   298.937   215.933     2.243     1.042     0.732
   21.65    54.113   161.000   -19.051   300.084   219.850     2.269     1.045     0.739
   21.70    46.357   181.000   -17.818   300.084   213.425     2.256     1.047     0.738
   21.75    73.503   166.000   -19.463   298.364   219.380     2.269     1.047     0.738
   21.80    42.479   162.000   -18.640   298.937   211.702     2.284     1.046     0.735
   21.85    46.357   156.000   -19.463   301.231   210.448     2.265     1.043     0.736
   21.90    56.052   190.000   -18.229   300.084   217.343     2.263     1.041     0.738
   21.95    57.991   173.000   -16.995   299.511   219.850     2.267     1.043     0.730
   22.00    50.235   168.000   -18.640   301.231   216.403     2.260     1.039     0.727
   22.05    65.747   201.000   -18.229   298.937   216.873     2.246     1.037     0.727
   22.10    57.991   175.000   -18.229   299.511   218.597     2.288     1.043     0.719
   22.15    46.357   179.000   -19.051   300.658   219.693     2.255     1.040     0.714
   22.20    48.296   179.000   -22.341   300.658   211.075     2.279     1.035     0.713
   22.25    36.662   183.000   -20.285   298.364   218.753     2.270     1.031     0.708
   22.30    44.418   145.000   -21.107   300.658   214.679     2.231     1.028     0.708
   22.35    57.991   152.000   -19.874   299.511   220.164     2.213     1.024     0.707
   22.40    34.723   188.000   -20.696   300.084   219.067     2.218     1.021     0.704
   22.45    36.662   160.000   -18.229   299.511   211.702     2.253     1.020     0.699
   22.50    65.747   177.000   -18.640   298.937   215.306     2.253     1.014     0.695
