~Version Information
VERS.    1.20:   CWLS log ASCII Standard - version 1.20
WRAP.      NO:   one line per depth step
~Well Information
#MNEM.UNIT     Data Type     Information
#_________     _________     ________________________
 STRT.M            0.000:
 STOP.M          245.550:
 STEP.M            0.050:
 NULL.              -0.0:
 COMP.           COMPANY: KANGARILLA DRILLING
 WELL.              WELL: PN103351
 FLD.              FIELD: OBSERVATION WELL
 LOC.           LOCATION:
 CNTY.            COUNTY:
 STAT.             STATE:
 CTRY.           COUNTRY:
 SRVC.   SERVICE COMPANY:    DEPARTMENT OF WATER, LAND/ and Biodiversity Conservation
 DATE.          LOG DATE: 15/12/2004
 UWI.     UNIQUE WELL ID: unknown
~Curve Information
#MNEM.UNIT       Curve  Information
#_________       _____  ___________________
 DEPT.M        :    1   DEPTH
 Gamm.API      :    2   Gamma
 Neut.CPS      :    3   Neutron
 SP  .MILLIVOLTS :    4   SP
 PR  .OHM      :    5   PR
 Cali.mm       :    6   Caliper
 Dens.g/cc     :    7   Density
 MED_.ohm/m    :    8   MED_INDU
 DEEP.ohm/m    :    9   DEEP_IND
~Parameter Information
#MNEM.UNIT       Value        Information
#_________     _________     ________________________
 LMF .       G.L. : Log Measured From
~Other Information
#MNEM.                 Description        Information
#_________            _____________     ________________________
 ENGI.                     Operator : V.Freschi
 LUN .                      Vehicle : T3362
 LATI.                     Latitude : 54H 0278156
 LONG.                    Longitude : 6142207
 TDD .                Depth Driller : 245M
 TDL .                 Depth Logger : 245.55
 BS  .                     Bit Size : 8" OPEN HOLE
 WITN.                      Witness : A FORBES
 COMM.                      comment : WINGFIELD
 JOBN.                     Job Name : 7086
#
 Azimuth degrees.                 relative to  : magnetic north
#
#
# conversion formula for CALIPER mm
#    where V = reading
#    -114.3909988403 + 0.1567000002*V
#
# conversion formula for DENSITY g/cc
#    where L = ln(reading)
#    19.1588001251 - 1.7809599638*L
#
# conversion formula for GAMMA API
#    where V = reading
#    -0.1789000034 + 1.9390000105*V
#
# conversion formula for  cps,ohm/m
#    where V = reading
#    0 + 1*V
#
# calculated values formula is :
#    1000/(V1*(V1*0.0000002+0.244)-412.12),1000/(V2*(V2*0.00002+0.067)-48.849)
#
# conversion formula for  cps,ohm/m
#    where V = reading
#    0 + 1*V
#
# calculated values formula is :
#    1000/(V1*(V1*0.0000002+0.244)-421.12),1000/(V2*(V2*0.00002+0.067)-48.849)
#
# conversion formula for NEUTRON CPS
#    where V = reading
#    1 + 1*V
#
# conversion formula for POINT-RESIS OHM
#    where V = reading
#    -141.5144042969 + 0.5735049844*V
#
# conversion formula for SPON-POT MILLIVOLTS
#    where V = reading
#    -817.1540527344 + 0.4111811817*V
#
~A Depth      Gamm      Neut      SP        PR        Cali      Dens      MED_      DEEP
# ...
  112.55     3.699   207.000    47.971   299.511   204.650     2.295    11.056    23.311
  112.60    13.394   183.000    47.149   302.378   212.015     2.310    11.239    23.610
  112.65    34.723   223.000    46.326   301.231   212.955     2.328    11.395    23.019
  112.70    25.028   205.000    45.915   299.511   217.500     2.346    11.589    24.104
  112.75    36.662   226.000    46.738   301.805   220.634     2.332    11.656    23.135
  112.80    34.723   241.000    46.738   302.378   220.477     2.336    11.622    23.490
  112.85    56.052   212.000    47.971   301.805   214.522     2.337    11.301    22.847
  112.90    65.747   226.000    46.326   301.231   210.448     2.366    11.301    23.019
  112.95    50.235   238.000    45.915   302.952   204.023     2.349    11.427    22.904
  113.00    38.601   213.000    46.326   302.952   209.351     2.325    11.364    24.230
  113.05    46.357   224.000    48.382   302.378   218.126     2.347    10.908    22.790
  113.10    32.784   212.000    45.915   302.952   212.329     2.376    11.622    23.855
  113.15    25.028   235.000    48.382   302.952   212.642     2.342    11.301    23.019
  113.20    25.028   194.000    47.560   302.378   210.448     2.355    11.301    23.311
  113.25    28.906   198.000    46.738   302.952   210.605     2.356    11.147    23.671
  113.30    17.272   228.000    49.616   302.378   215.149     2.299    11.524    23.371
  113.35     7.577   235.000    48.382   302.952   214.836     2.275    11.208    23.252
  113.40    28.906   238.000    48.794   302.378   213.425     2.228    11.557    23.252
  113.45    32.784   246.000    48.794   301.805   211.075     2.217    11.557    23.194
  113.50    38.601   245.000    48.794   302.952   206.061     2.269    11.859    23.732
  113.55    25.028   265.000    47.971   301.805   211.388     2.340    11.656    23.252
  113.60    57.991   247.000    47.971   303.525   203.710     2.340    11.790    22.904
  113.65    52.174   230.000    47.560   302.952   216.246     2.332    11.239    22.904
  113.70    28.906   239.000    48.794   302.378   211.388     2.323    11.332    23.077
  113.75    56.052   227.000    47.149   302.378   204.023     2.314    10.708    23.732
  113.80    38.601   201.000    48.382   302.952   210.605     2.264    10.938    23.430
  113.85    42.479   235.000    47.560   302.952   210.762     2.279    11.116    23.371
  113.90    38.601   218.000    47.149   301.805   210.918     2.342    11.116    23.430
  113.95    38.601   190.000    45.093   302.378   208.254     2.346    11.116    23.135
  114.00    42.479   213.000    47.149   302.952   205.277     2.318    11.086    22.622
  114.05    28.906   215.000    47.560   301.231   209.978     2.338    10.967    23.490
  114.10    38.601   207.000    47.149   302.378   210.918     2.342    11.301    23.490
  114.15    38.601   228.000    46.738   302.952   208.254     2.317    11.177    22.962
  114.20    57.991   231.000    47.149   301.805   203.240     2.313    10.997    23.430
  114.25    36.662   235.000    47.149   303.525   203.240     2.312    11.427    23.135
  114.30    32.784   249.000    46.738   302.378   211.545     2.309    10.997    23.430
  114.35    46.357   225.000    45.504   301.231   206.374     2.293    11.086    23.252
  114.40    25.028   237.000    47.971   302.952   208.881     2.290    11.332    23.430
  114.45    25.028   216.000    46.326   302.378   206.844     2.297    11.332    23.550
  114.50    26.967   201.000    45.915   302.378   207.784     2.270    10.765    23.019
  114.55    28.906   245.000    48.382   302.952   206.374     2.274    10.765    23.135
  114.60    32.784   228.000    46.738   302.952   206.531     2.304    10.793    23.194
  114.65    28.906   242.000    48.382   303.525   203.240     2.317    10.850    23.194
  114.70    17.272   214.000    47.971   300.084   203.553     2.348    10.938    23.550
  114.75    28.906   220.000    47.149   302.378   211.232     2.304    10.765    22.622
  114.80    17.272   220.000    46.738   301.805   209.665     2.341    11.086    23.135
  114.85    44.418   215.000    46.326   303.525   208.724     2.304    10.597    23.252
  114.90    25.028   209.000    44.271   303.525   219.537     2.353    10.515    23.135
  114.95    36.662   230.000    47.560   302.952   217.186     2.323    10.515    22.622
  115.00    21.150   217.000    46.326   302.378   206.687     2.354    10.329    23.732
  115.05    30.845   212.000    47.149   302.378   201.986     2.301    10.488    22.455
  115.10    32.784   215.000    46.326   301.231   211.075     2.312    10.625    22.790
  115.15    40.540   225.000    45.504   302.952   202.143     2.290    10.765    22.790
  115.20    34.723   201.000    45.915   302.378   206.217     2.289    10.329    23.019
  115.25    42.479   222.000    45.504   301.805   209.665     2.311    10.542    22.566
  115.30    40.540   203.000    45.504   302.952   206.217     2.322    10.251    23.135
  115.35    34.723   206.000    46.326   302.952   205.747     2.270    10.277    22.236
  115.40    38.601   205.000    45.915   302.378   209.351     2.309    10.488    23.371
  115.45    32.784   203.000    46.326   302.378   207.157     2.309    10.355    22.847
  115.50    36.662   214.000    43.448   301.805   209.978     2.291    10.251    22.291
  115.55    34.723   229.000    44.271   302.378   208.254     2.327    10.488    23.135
  115.60    34.723   221.000    46.326   301.231   208.411     2.318    10.277    22.345
  115.65    32.784   220.000    45.915   302.952   202.770     2.291    10.099    22.622
  115.70    30.845   223.000    45.504   302.378   203.397     2.308    10.382    22.904
  115.75    38.601   199.000    46.738   302.378   202.456     2.297     9.879    22.455
  115.80    50.235   170.000    44.682   301.231   207.471     2.278    10.570    22.678
  115.85    40.540   205.000    45.915   302.952   211.545     2.278    10.277    22.734
  115.90    38.601   222.000    45.093   301.231   204.180     2.279    10.149    22.566
  115.95    21.150   238.000    46.738   302.378   207.784     2.294    10.488    22.678
  116.00    36.662   203.000    45.504   302.952   205.277     2.265    10.175    22.566
  116.05    30.845   218.000    44.682   300.658   202.927     2.282    10.226    23.550
  116.10    17.272   160.000    43.037   302.378   210.605     2.262    10.251    22.236
  116.15    25.028   201.000    44.682   302.952   202.927     2.264    10.074    23.135
  116.20    34.723   227.000    43.037   300.658   207.784     2.280    10.175    22.400
  116.25    25.028   235.000    43.859   303.525   198.852     2.297    10.175    22.734
  116.30    28.906   221.000    45.915   302.378   215.149     2.306    10.226    21.759
  116.35    32.784   206.000    44.271   302.952   206.531     2.269    10.542    22.904
  116.40    17.272   213.000    45.093   301.805   208.098     2.291    10.382    22.291
  116.45    28.906   227.000    45.093   302.378   210.605     2.257    10.025    23.019
  116.50    34.723   205.000    45.504   301.231   205.434     2.277    10.175    22.962
  116.55    30.845   203.000    45.915   301.805   204.494     2.234    10.099    22.236
  116.60    32.784   188.000    45.093   302.952   210.918     2.259    10.124    22.510
  116.65    13.394   216.000    43.037   300.658   206.061     2.306    10.382    23.135
  116.70    28.906   199.000    44.682   301.231   210.918     2.276    10.277    22.790
  116.75    34.723   190.000    40.570   302.952   214.679     2.282    10.175    23.371
  116.80    50.235   237.000    45.504   302.378   209.038     2.308    10.099    22.345
  116.85    34.723   190.000    44.682   301.805   205.277     2.293    10.099    22.566
  116.90    25.028   201.000    42.215   301.805   213.739     2.325     9.976    22.847
  116.95    40.540   222.000    45.915   303.525   206.687     2.325    10.074    23.077
  117.00    32.784   215.000    44.271   302.378   209.351     2.328     9.976    22.678
