~Version Information
VERS.    1.20:   CWLS log ASCII Standard - version 1.20
WRAP.      NO:   one line per depth step
~Well Information
#MNEM.UNIT     Data Type     Information
#_________     _________     ________________________
 STRT.M            0.000:
 STOP.M          245.550:
 STEP.M            0.050:
 NULL.              -0.0:
 COMP.           COMPANY: KANGARILLA DRILLING
 WELL.              WELL: PN103351
 FLD.              FIELD: OBSERVATION WELL
 LOC.           LOCATION:
 CNTY.            COUNTY:
 STAT.             STATE:
 CTRY.           COUNTRY:
 SRVC.   SERVICE COMPANY:    DEPARTMENT OF WATER, LAND/ and Biodiversity Conservation
 DATE.          LOG DATE: 15/12/2004
 UWI.     UNIQUE WELL ID: unknown
~Curve Information
#MNEM.UNIT       Curve  Information
#_________       _____  ___________________
 DEPT.M        :    1   DEPTH
 Gamm.API      :    2   Gamma
 Neut.CPS      :    3   Neutron
 SP  .MILLIVOLTS :    4   SP
 PR  .OHM      :    5   PR
 Cali.mm       :    6   Caliper
 Dens.g/cc     :    7   Density
 MED_.ohm/m    :    8   MED_INDU
 DEEP.ohm/m    :    9   DEEP_IND
~Parameter Information
#MNEM.UNIT       Value        Information
#_________     _________     ________________________
 LMF .       G.L. : Log Measured From
~Other Information
#MNEM.                 Description        Information
#_________            _____________     ________________________
 ENGI.                     Operator : V.Freschi
 LUN .                      Vehicle : T3362
 LATI.                     Latitude : 54H 0278156
 LONG.                    Longitude : 6142207
 TDD .                Depth Driller : 245M
 TDL .                 Depth Logger : 245.55
 BS  .                     Bit Size : 8" OPEN HOLE
 WITN.                      Witness : A FORBES
 COMM.                      comment : WINGFIELD
 JOBN.                     Job Name : 7086
#
 Azimuth degrees.                 relative to  : magnetic north
#
#
# conversion formula for CALIPER mm
#    where V = reading
#    -114.3909988403 + 0.1567000002*V
#
# conversion formula for DENSITY g/cc
#    where L = ln(reading)
#    19.1588001251 - 1.7809599638*L
#
# conversion formula for GAMMA API
#    where V = reading
#    -0.1789000034 + 1.9390000105*V
#
# conversion formula for  cps,ohm/m
#    where V = reading
#    0 + 1*V
#
# calculated values formula is :
#    1000/(V1*(V1*0.0000002+0.244)-412.12),1000/(V2*(V2*0.00002+0.067)-48.849)
#
# conversion formula for  cps,ohm/m
#    where V = reading
#    0 + 1*V
#
# calculated values formula is :
#    1000/(V1*(V1*0.0000002+0.244)-421.12),1000/(V2*(V2*0.00002+0.067)-48.849)
#
# conversion formula for NEUTRON CPS
#    where V = reading
#    1 + 1*V
#
# conversion formula for POINT-RESIS OHM
#    where V = reading
#    -141.5144042969 + 0.5735049844*V
#
# conversion formula for SPON-POT MILLIVOLTS
#    where V = reading
#    -817.1540527344 + 0.4111811817*V
#
~A Depth      Gamm      Neut      SP        PR        Cali      Dens      MED_      DEEP
# ...
  180.05    15.333   200.000    35.636   290.908   204.023     1.867    10.200    23.252
  180.10    17.272   190.000    33.991   290.335   208.568     1.857    10.277    23.252
  180.15    30.845   190.000    33.169   288.041   212.485     1.875    10.461    22.345
  180.20    15.333   198.000    35.225   290.908   215.306     1.909    10.382    23.194
  180.25    17.272   190.000    33.991   290.335   213.425     1.973    10.997    22.566
  180.30     7.577   214.000    32.346   289.761   207.157     2.001    10.850    23.252
  180.35    25.028   214.000    34.402   290.335   205.904     2.009    11.301    23.732
  180.40     7.577   230.000    33.991   292.055   210.135     1.984    11.116    23.550
  180.45    15.333   232.000    36.869   291.482   215.933     1.995    11.756    24.422
  180.50    26.967   271.000    36.458   290.335   211.545     2.107    11.756    24.104
  180.55    17.272   254.000    37.280   293.202   202.770     2.229    11.622    23.732
  180.60     7.577   281.000    36.047   291.482   210.291     2.328    11.622    23.979
  180.65    17.272   260.000    36.869   292.629   208.411     2.377    11.116    23.194
  180.70    17.272   234.000    34.402   290.908   200.263     2.371    11.427    23.671
  180.75    11.455   207.000    35.636   289.188   208.254     2.322    10.793    23.311
  180.80    11.455   227.000    34.402   291.482   209.038     2.238    10.597    23.311
  180.85    17.272   220.000    35.636   291.482   207.784     2.178    10.597    23.855
  180.90    21.150   183.000    33.169   290.908   206.844     2.142    10.175    22.455
  180.95    21.150   205.000    34.402   290.335   208.568     2.163    10.382    22.962
  181.00    13.394   183.000    33.169   290.335   204.180     2.153    10.488    23.077
  181.05    17.272   227.000    34.402   291.482   207.314     2.168    10.435    22.847
  181.10    17.272   240.000    34.402   290.335   209.038     2.151    10.542    22.622
  181.15    28.906   238.000    32.346   291.482   194.778     2.130    10.850    23.917
  181.20    13.394   248.000    32.757   288.614   205.434     2.147    10.765    23.019
  181.25    32.784   286.000    35.225   291.482   207.471     2.225    11.270    24.294
  181.30    28.906   328.000    36.047   292.629   207.157     2.314    10.938    24.358
  181.35    34.723   321.000    35.636   291.482   210.605     2.378    11.492    23.793
  181.40    11.455   303.000    35.636   293.202   213.582     2.434    11.147    24.358
  181.45    25.028   346.000    34.813   291.482   206.374     2.414    11.239    23.490
  181.50    25.028   260.000    35.636   292.629   211.075     2.388    10.765    23.732
  181.55     7.577   260.000    36.047   291.482   211.075     2.394    10.765    23.732
  181.60    17.272   241.000    35.225   289.188   207.628     2.332    10.435    22.790
  181.65    15.333   237.000    34.402   290.335   213.582     2.315    10.329    23.252
  181.70    -0.179   226.000    34.813   291.482   205.904     2.305    10.124    22.022
  181.75    13.394   220.000    35.225   292.055   212.955     2.258    10.435    22.566
  181.80    13.394   239.000    33.580   290.335   207.628     2.272    10.435    22.455
  181.85    28.906   183.000    35.636   289.188   215.463     2.215    10.226    22.734
  181.90     7.577   249.000    34.402   293.202   209.195     2.225    10.329    22.566
  181.95    13.394   224.000    34.813   289.188   209.821     2.192    10.277    23.371
  182.00    21.150   232.000    33.580   291.482   212.015     2.145     9.952    23.371
  182.05    17.272   217.000    34.813   292.629   207.941     2.188     9.976    22.790
  182.10    28.906   220.000    33.991   290.908   200.106     2.181     9.976    22.455
  182.15    25.028   235.000    33.580   291.482   204.337     2.195     9.952    21.811
  182.20    17.272   190.000    33.169   290.908   207.941     2.169     9.927    22.790
  182.25    28.906   213.000    33.169   290.908   206.687     2.190    10.124    22.022
  182.30    17.272   215.000    32.757   291.482   202.927     2.186     9.927    21.501
  182.35    28.906   210.000    31.935   291.482   209.195     2.197     9.808    21.501
  182.40    17.272   170.000    33.580   292.629   208.881     2.179     9.533    20.955
  182.45    15.333   198.000    33.580   288.614   207.471     2.122     9.601    21.400
  182.50    21.150   206.000    31.935   291.482   208.724     2.115     9.601    21.655
  182.55    13.394   192.000    32.346   291.482   211.388     2.135     9.692    21.151
  182.60    21.150   209.000    31.524   288.041   209.665     2.099     9.601    21.604
  182.65    25.028   207.000    31.524   289.761   211.232     2.137     9.785    21.400
  182.70    21.150   217.000    31.113   291.482   212.329     2.097     9.511    21.400
  182.75    11.455   201.000    31.113   292.629   205.904     2.159     9.467    21.916
  182.80     7.577   234.000    29.879   290.908   212.172     2.214     9.467    21.400
  182.85    21.150   199.000    30.290   291.482   210.135     2.261     9.337    21.300
  182.90    13.394   239.000    29.879   290.908   208.254     2.216     9.316    21.655
  182.95    15.333   218.000    29.057   292.055   209.038     2.198     9.337    20.955
  183.00    17.272   175.000    28.646   291.482   199.166     2.197     9.423    20.480
  183.05    13.394   183.000    28.234   290.908   206.374     2.202     9.423    20.810
  183.10    21.150   205.000    29.057   292.055   206.844     2.183     9.253    20.573
  183.15     7.577   205.000    24.123   291.482   208.411     2.146     9.253    21.151
  183.20     7.577   223.000    28.234   291.482   205.277     2.159     9.211    21.400
  183.25    13.394   211.000    26.590   290.908   203.553     2.168     9.108    20.341
  183.30    21.150   190.000    27.001   291.482   208.098     2.203     9.088    20.906
  183.35     7.577   227.000    27.823   290.335   207.941     2.187     9.129    20.906
  183.40    13.394   207.000    25.767   290.335   209.508     2.191     9.274    21.200
  183.45     7.577   220.000    26.590   290.908   202.770     2.177     9.402    20.858
  183.50    15.333   211.000    26.179   290.335   206.844     2.209     9.232    21.200
  183.55    17.272   222.000    28.234   290.335   207.314     2.187     9.253    21.400
  183.60     7.577   220.000    27.412   290.335   207.314     2.193     9.190    21.052
  183.65    17.272   214.000    24.945   290.335   207.784     2.173     9.232    21.151
  183.70    19.211   188.000    26.590   289.188   203.867     2.193     9.129    21.300
  183.75    13.394   190.000    26.590   291.482   207.314     2.182     9.108    21.604
  183.80    11.455   231.000    26.590   292.055   205.120     2.174     9.511    21.151
  183.85    13.394   199.000    26.179   291.482   200.263     2.157     9.578    21.811
  183.90    17.272   186.000    26.179   290.335   215.776     2.190     9.337    20.573
  183.95    17.272   224.000    27.823   290.335   203.710     2.138     9.316    20.955
  184.00    25.028   207.000    27.001   290.335   207.157     2.076     9.149    21.400
  184.05    25.028   227.000    26.179   290.908   203.553     2.078     9.295    20.906
  184.10     7.577   200.000    27.001   290.335   205.747     2.070     9.295    21.552
  184.15    11.455   241.000    26.590   292.055   203.240     2.106     9.316    21.604
  184.20     7.577   213.000    27.412   291.482   210.605     2.134     9.337    20.667
  184.25     7.577   227.000    26.590   291.482   213.896     2.179     9.467    21.969
  184.30     7.577   213.000    25.356   292.055   208.568     2.230     9.646    21.400
  184.35    25.028   212.000    26.179   290.908   207.471     2.255     9.467    21.350
  184.40    25.028   206.000    26.590   291.482   206.844     2.232     9.423    21.707
  184.45     7.577   207.000    25.356   291.482   203.397     2.219     9.232    21.200
  184.50    21.150   209.000    25.356   290.908   205.277     2.176     9.253    21.400
