~Version Information
VERS.    1.20:   CWLS log ASCII Standard - version 1.20
WRAP.      NO:   one line per depth step
~Well Information
#MNEM.UNIT     Data Type     Information
#_________     _________     ________________________
 STRT.M            0.000:
 STOP.M          245.550:
 STEP.M            0.050:
 NULL.              -0.0:
 COMP.           COMPANY: KANGARILLA DRILLING
 WELL.              WELL: PN103351
 FLD.              FIELD: OBSERVATION WELL
 LOC.           LOCATION:
 CNTY.            COUNTY:
 STAT.             STATE:
 CTRY.           COUNTRY:
 SRVC.   SERVICE COMPANY:    DEPARTMENT OF WATER, LAND/ and Biodiversity Conservation
 DATE.          LOG DATE: 15/12/2004
 UWI.     UNIQUE WELL ID: unknown
~Curve Information
#MNEM.UNIT       Curve  Information
#_________       _____  ___________________
 DEPT.M        :    1   DEPTH
 Gamm.API      :    2   Gamma
 Neut.CPS      :    3   Neutron
 SP  .MILLIVOLTS :    4   SP
 PR  .OHM      :    5   PR
 Cali.mm       :    6   Caliper
 Dens.g/cc     :    7   Density
 MED_.ohm/m    :    8   MED_INDU
 DEEP.ohm/m    :    9   DEEP_IND
~Parameter Information
#MNEM.UNIT       Value        Information
#_________     _________     ________________________
 LMF .       G.L. : Log Measured From
~Other Information
#MNEM.                 Description        Information
#_________            _____________     ________________________
 ENGI.                     Operator : V.Freschi
 LUN .                      Vehicle : T3362
 LATI.                     Latitude : 54H 0278156
 LONG.                    Longitude : 6142207
 TDD .                Depth Driller : 245M
 TDL .                 Depth Logger : 245.55
 BS  .                     Bit Size : 8" OPEN HOLE
 WITN.                      Witness : A FORBES
 COMM.                      comment : WINGFIELD
 JOBN.                     Job Name : 7086
#
 Azimuth degrees.                 relative to  : magnetic north
#
#
# conversion formula for CALIPER mm
#    where V = reading
#    -114.3909988403 + 0.1567000002*V
#
# conversion formula for DENSITY g/cc
#    where L = ln(reading)
#    19.1588001251 - 1.7809599638*L
#
# conversion formula for GAMMA API
#    where V = reading
#    -0.1789000034 + 1.9390000105*V
#
# conversion formula for  cps,ohm/m
#    where V = reading
#    0 + 1*V
#
# calculated values formula is :
#    1000/(V1*(V1*0.0000002+0.244)-412.12),1000/(V2*(V2*0.00002+0.067)-48.849)
#
# conversion formula for  cps,ohm/m
#    where V = reading
#    0 + 1*V
#
# calculated values formula is :
#    1000/(V1*(V1*0.0000002+0.244)-421.12),1000/(V2*(V2*0.00002+0.067)-48.849)
#
# conversion formula for NEUTRON CPS
#    where V = reading
#    1 + 1*V
#
# conversion formula for POINT-RESIS OHM
#    where V = reading
#    -141.5144042969 + 0.5735049844*V
#
# conversion formula for SPON-POT MILLIVOLTS
#    where V = reading
#    -817.1540527344 + 0.4111811817*V
#
~A Depth      Gamm      Neut      SP        PR        Cali      Dens      MED_      DEEP
# ...
  211.55    28.906   241.000    29.879   288.614   202.300     2.286     9.903    22.182
  211.60    21.150   244.000    27.412   286.320   204.807     2.265     9.976    22.678
  211.65    32.784   239.000    29.057   289.188   203.397     2.213     9.808    22.129
  211.70    48.296   229.000    29.057   288.614   203.083     2.199     9.952    21.969
  211.75    36.662   248.000    28.646   287.467   205.434     2.204    10.000    22.345
  211.80    25.028   235.000    26.179   286.320   203.867     2.222    10.074    21.916
  211.85    28.906   237.000    29.468   285.173   206.687     2.209    10.175    22.075
  211.90    28.906   192.000    27.823   288.614   203.397     2.212    10.175    22.734
  211.95    32.784   212.000    29.057   288.614   203.867     2.246     9.976    22.236
  212.00    15.333   239.000    29.057   287.467   207.628     2.230    10.124    23.019
  212.05    28.906   219.000    28.646   286.320   206.217     2.247    10.226    22.345
  212.10    28.906   235.000    29.468   288.614   212.172     2.289     9.927    22.345
  212.15    26.967   231.000    29.879   289.761   210.135     2.309    10.355    22.790
  212.20    28.906   234.000    29.879   289.188   204.650     2.328    10.382    22.236
  212.25    28.906   259.000    29.468   287.467   204.023     2.325    10.542    22.904
  212.30    28.906   258.000    30.702   287.467   203.867     2.344    10.382    22.847
  212.35    23.089   241.000    30.290   285.747   206.844     2.322    10.124    22.790
  212.40    15.333   248.000    29.879   288.614   206.687     2.300     9.976    23.135
  212.45    21.150   216.000    29.468   286.320   202.770     2.280    10.251    21.811
  212.50    32.784   270.000    29.057   287.467   208.568     2.316    10.329    23.430
  212.55    23.089   245.000    29.468   290.335   201.673     2.340    10.175    23.135
  212.60    11.455   212.000    29.468   289.761   202.300     2.321    10.355    21.811
  212.65    28.906   213.000    29.879   288.614   208.254     2.344    10.408    22.962
  212.70    23.089   219.000    29.057   286.320   200.576     2.302    10.277    22.291
  212.75    19.211   233.000    29.879   287.467   201.830     2.274     9.976    22.566
  212.80    25.028   241.000    30.290   287.467   207.628     2.278     9.976    22.566
  212.85    11.455   242.000    31.113   290.335   199.636     2.274    10.329    22.734
  212.90    26.967   243.000    31.113   289.188   204.964     2.271     9.976    22.510
  212.95    28.906   278.000    29.468   287.467   207.628     2.287    10.488    23.019
  213.00    25.028   282.000    30.702   286.320   204.180     2.304    10.277    22.510
  213.05    19.211   252.000    30.290   285.173   206.531     2.306    10.382    23.019
  213.10    23.089   219.000    31.113   286.320   206.687     2.324    10.382    22.400
  213.15    11.455   258.000    31.524   285.173   204.494     2.353    10.175    22.734
  213.20    32.784   238.000    30.290   288.041   206.061     2.316    10.025    22.678
  213.25    19.211   237.000    30.290   290.335   205.747     2.317    10.382    22.400
  213.30    25.028   226.000    31.113   287.467   210.605     2.332    10.175    22.400
  213.35    25.028   227.000    30.290   287.467   213.582     2.322    10.175    22.790
  213.40    19.211   206.000    30.290   286.320   211.232     2.315    10.277    21.655
  213.45    34.723   226.000    29.057   286.320   207.784     2.290    10.277    22.904
  213.50    32.784   242.000    28.646   285.173   205.747     2.308     9.976    22.678
  213.55    25.028   213.000    28.646   289.188   201.516     2.275     9.927    22.236
  213.60    36.662   217.000    29.879   288.614   206.217     2.287    10.099    22.510
  213.65    28.906   232.000    29.879   285.747   201.360     2.264    10.050    22.510
  213.70    15.333   204.000    29.468   285.173   204.180     2.262    10.025    22.904
  213.75    19.211   253.000    28.234   286.320   209.508     2.232    10.025    22.345
  213.80    32.784   270.000    27.823   288.041   204.807     2.235    10.736    22.400
  213.85    21.150   256.000    29.468   288.614   205.904     2.252    10.226    23.135
  213.90    25.028   215.000    29.468   289.188   205.590     2.213    10.124    22.236
  213.95    26.967   251.000    31.524   287.467   205.120     2.211    10.000    22.236
  214.00    21.150   245.000    28.646   286.320   210.605     2.217    10.277    22.847
  214.05    19.211   259.000    30.702   288.614   207.001     2.249    10.382    22.790
  214.10    15.333   244.000    31.113   289.761   206.061     2.287    10.329    23.077
  214.15    25.028   241.000    30.290   288.041   205.277     2.346    10.765    23.490
  214.20    32.784   266.000    30.290   286.320   205.747     2.352    10.736    22.734
  214.25    19.211   234.000    29.057   287.467   209.821     2.367    10.570    24.230
  214.30    25.028   235.000    30.702   289.761   207.001     2.353    10.542    23.019
  214.35    21.150   237.000    29.057   287.467   216.559     2.336    10.226    23.019
  214.40    19.211   221.000    29.468   286.320   209.351     2.316    10.303    23.490
  214.45    44.418   261.000    30.702   286.320   210.918     2.286    10.488    22.291
  214.50    11.455   244.000    29.468   287.467   207.001     2.255    10.488    22.345
  214.55    19.211   227.000    29.057   288.614   209.821     2.108    10.765    22.790
  214.60    25.028   257.000    30.290   286.320   215.933     2.062    10.765    22.566
  214.65    19.211   280.000    30.290   285.173   214.209     2.067    10.765    23.490
  214.70    11.455   243.000    29.879   288.614   202.613     2.106    10.515    22.678
  214.75    15.333   226.000    31.524   289.188   205.277     2.207    10.408    23.135
  214.80    32.784   246.000    31.524   286.320   201.516     2.296    10.435    22.678
  214.85    36.662   233.000    30.290   287.467   204.807     2.308    10.435    22.678
  214.90    26.967   198.000    31.935   290.335   202.300     2.337    10.329    23.194
  214.95    23.089   229.000    31.113   288.614   200.576     2.331    10.329    21.969
  215.00    25.028   236.000    31.524   286.320   210.448     2.277    10.329    22.075
  215.05    21.150   227.000    28.646   286.320   205.747     2.311     9.952    22.236
  215.10    23.089   202.000    28.234   286.894   210.448     2.294     9.976    22.022
  215.15    28.906   201.000    28.234   288.614   211.075     2.289     9.976    22.022
  215.20    13.394   236.000    29.879   289.761   199.949     2.296    10.099    22.182
  215.25    23.089   210.000    27.001   289.188   205.747     2.267    10.277    22.790
  215.30    32.784   226.000    29.057   288.614   208.098     2.281    10.277    22.291
  215.35    21.150   218.000    28.646   288.614   204.180     2.311    10.542    22.622
  215.40    19.211   223.000    29.468   286.320   207.157     2.323    10.251    22.790
  215.45    32.784   267.000    28.646   285.173   209.195     2.314    10.277    22.566
  215.50    15.333   209.000    29.057   285.173   200.106     2.309    10.025    22.566
  215.55    25.028   230.000    30.290   287.467   208.411     2.340    10.175    22.847
  215.60    32.784   235.000    29.468   287.467   207.157     2.300    10.461    22.904
  215.65    15.333   214.000    29.468   289.761   202.770     2.297    10.226    22.455
  215.70    42.479   213.000    30.290   287.467   207.628     2.312    10.515    23.430
  215.75    28.906   236.000    30.290   287.467   213.582     2.364    10.708    23.019
  215.80    32.784   232.000    30.290   287.467   209.821     2.370    10.382    22.847
  215.85    32.784   243.000    28.234   288.614   205.904     2.337    10.149    23.610
  215.90    17.272   265.000    29.879   288.614   206.374     2.322    10.329    22.734
  215.95    32.784   225.000    30.290   286.320   211.232     2.310    10.329    23.135
  216.00    30.845   222.000    29.057   287.467   208.254     2.303    10.200    23.135
