~Version Information
VERS.    1.20:   CWLS log ASCII Standard - version 1.20
WRAP.      NO:   one line per depth step
~Well Information
#MNEM.UNIT     Data Type     Information
#_________     _________     ________________________
 STRT.M            0.000:
 STOP.M          245.550:
 STEP.M            0.050:
 NULL.              -0.0:
 COMP.           COMPANY: KANGARILLA DRILLING
 WELL.              WELL: PN103351
 FLD.              FIELD: OBSERVATION WELL
 LOC.           LOCATION:
 CNTY.            COUNTY:
 STAT.             STATE:
 CTRY.           COUNTRY:
 SRVC.   SERVICE COMPANY:    DEPARTMENT OF WATER, LAND/ and Biodiversity Conservation
 DATE.          LOG DATE: 15/12/2004
 UWI.     UNIQUE WELL ID: unknown
~Curve Information
#MNEM.UNIT       Curve  Information
#_________       _____  ___________________
 DEPT.M        :    1   DEPTH
 Gamm.API      :    2   Gamma
 Neut.CPS      :    3   Neutron
 SP  .MILLIVOLTS :    4   SP
 PR  .OHM      :    5   PR
 Cali.mm       :    6   Caliper
 Dens.g/cc     :    7   Density
 MED_.ohm/m    :    8   MED_INDU
 DEEP.ohm/m    :    9   DEEP_IND
~Parameter Information
#MNEM.UNIT       Value        Information
#_________     _________     ________________________
 LMF .       G.L. : Log Measured From
~Other Information
#MNEM.                 Description        Information
#_________            _____________     ________________________
 ENGI.                     Operator : V.Freschi
 LUN .                      Vehicle : T3362
 LATI.                     Latitude : 54H 0278156
 LONG.                    Longitude : 6142207
 TDD .                Depth Driller : 245M
 TDL .                 Depth Logger : 245.55
 BS  .                     Bit Size : 8" OPEN HOLE
 WITN.                      Witness : A FORBES
 COMM.                      comment : WINGFIELD
 JOBN.                     Job Name : 7086
#
 Azimuth degrees.                 relative to  : magnetic north
#
#
# conversion formula for CALIPER mm
#    where V = reading
#    -114.3909988403 + 0.1567000002*V
#
# conversion formula for DENSITY g/cc
#    where L = ln(reading)
#    19.1588001251 - 1.7809599638*L
#
# conversion formula for GAMMA API
#    where V = reading
#    -0.1789000034 + 1.9390000105*V
#
# conversion formula for  cps,ohm/m
#    where V = reading
#    0 + 1*V
#
# calculated values formula is :
#    1000/(V1*(V1*0.0000002+0.244)-412.12),1000/(V2*(V2*0.00002+0.067)-48.849)
#
# conversion formula for  cps,ohm/m
#    where V = reading
#    0 + 1*V
#
# calculated values formula is :
#    1000/(V1*(V1*0.0000002+0.244)-421.12),1000/(V2*(V2*0.00002+0.067)-48.849)
#
# conversion formula for NEUTRON CPS
#    where V = reading
#    1 + 1*V
#
# conversion formula for POINT-RESIS OHM
#    where V = reading
#    -141.5144042969 + 0.5735049844*V
#
# conversion formula for SPON-POT MILLIVOLTS
#    where V = reading
#    -817.1540527344 + 0.4111811817*V
#
~A Depth      Gamm      Neut      SP        PR        Cali      Dens      MED_      DEEP
# ...
   49.55    69.625   170.000     6.853   301.231   218.910     2.225     5.789    10.887
   49.60    28.906   215.000     4.797   302.378   222.827     2.277     5.881    11.114
   49.65    32.784   192.000     5.619   301.805   219.223     2.293     5.881    11.561
   49.70    36.662   201.000     3.975   301.231   223.768     2.247     5.872    11.578
   49.75    38.601   209.000     6.442   301.231   223.298     2.284     6.082    11.695
   49.80    32.784   202.000     5.619   300.658   224.081     2.284     6.119    12.042
   49.85    40.540   203.000     6.031   302.378   217.343     2.277     6.119    11.918
   49.90    52.174   211.000     4.797   301.231   221.574     2.307     6.147    12.558
   49.95    38.601   190.000     3.152   302.378   219.537     2.277     6.231    12.407
   50.00    44.418   233.000     3.975   302.378   220.634     2.304     6.231    13.034
   50.05    42.479   216.000     6.853   301.231   223.768     2.304     6.289    13.034
   50.10    46.357   229.000     4.797   301.805   225.178     2.307     6.427    13.158
   50.15    54.113   211.000     4.797   302.378   223.924     2.269     6.468    13.477
   50.20    36.662   227.000     6.853   301.805   224.394     2.283     6.468    13.477
   50.25    42.479   200.000     5.619   302.952   224.394     2.331     6.658    13.833
   50.30    50.235   218.000     6.442   301.805   221.731     2.329     6.593    14.183
   50.35    32.784   207.000     2.741   301.231   221.260     2.305     6.530    14.112
   50.40    42.479   201.000     7.264   302.378   220.947     2.311     6.593    14.112
   50.45    32.784   223.000     7.675   302.378   222.044     2.318     6.551    14.159
   50.50    40.540   220.000     7.264   300.658   222.201     2.305     6.551    14.088
   50.55    36.662   231.000     6.853   301.805   224.551     2.307     6.735    14.327
   50.60    42.479   233.000     7.675   302.378   222.514     2.282     6.802    14.376
   50.65    50.235   221.000     7.264   300.084   217.186     2.291     6.691    14.376
   50.70    15.333   216.000     7.264   302.952   225.805     2.294     6.735    14.376
   50.75    34.723   230.000     6.442   301.231   222.671     2.296     6.658    14.624
   50.80    42.479   220.000     8.498   300.658   219.693     2.319     6.669    14.624
   50.85    36.662   215.000     7.675   302.952   227.372     2.317     6.658    14.352
   50.90    36.662   227.000     7.264   301.805   227.685     2.311     6.757    14.018
   50.95    38.601   246.000     7.675   302.952   224.394     2.318     6.735    14.088
   51.00    28.906   258.000     7.675   301.805   224.708     2.311     6.791    14.041
   51.05    32.784   217.000     7.675   302.952   229.252     2.316     6.757    13.720
   51.10    32.784   226.000     7.264   301.231   225.335     2.283     6.583    13.811
   51.15    50.235   171.000     6.853   302.952   220.477     2.307     6.530    14.112
   51.20    36.662   201.000     7.264   302.378   219.693     2.288     6.636    13.902
   51.25    50.235   205.000     7.264   300.084   223.611     2.291     6.625    13.902
   51.30    50.235   200.000     7.264   302.378   230.036     2.301     6.615    14.112
   51.35    42.479   177.000     8.087   300.084   222.044     2.298     6.757    13.788
   51.40    36.662   192.000     7.264   301.231   219.850     2.325     6.768    14.135
   51.45    42.479   194.000     9.320   301.805   224.394     2.282     6.746    13.948
   51.50    40.540   205.000     7.264   302.378   217.343     2.282     6.572    13.631
   51.55    50.235   198.000     8.498   301.231   223.611     2.312     6.509    13.856
   51.60    32.784   201.000     8.087   302.378   226.588     2.309     6.407    13.743
   51.65    44.418   190.000     7.675   302.378   228.469     2.301     6.572    13.765
   51.70    46.357   205.000     8.087   301.231   218.910     2.269     6.478    13.925
   51.75    28.906   215.000     9.320   302.378   225.491     2.298     6.615    13.811
   51.80    42.479   192.000    10.142   301.231   235.990     2.257     6.713    13.587
   51.85    48.296   232.000     9.320   301.231   233.326     2.261     6.713    13.902
   51.90    50.235   212.000     6.853   301.231   238.654     2.272     6.636    13.631
   51.95    25.028   190.000     9.731   302.378   241.005     2.250     6.625    13.948
   52.00    36.662   194.000     9.320   301.231   230.976     2.274     6.701    14.159
   52.05    36.662   192.000     9.731   302.378   233.953     2.248     6.680    13.995
   52.10    34.723   197.000    10.142   301.231   228.782     2.288     6.669    14.183
   52.15    40.540   179.000     8.498   300.084   222.357     2.272     6.658    14.303
   52.20    44.418   202.000    10.142   302.378   230.976     2.261     6.894    13.995
   52.25    40.540   216.000    10.554   301.231   220.007     2.262     6.691    14.231
   52.30    48.296   201.000    10.142   301.805   218.283     2.237     6.825    13.902
   52.35    44.418   188.000     9.320   302.378   225.961     2.258     6.680    13.948
   52.40    54.113   194.000     9.320   301.231   231.759     2.270     6.779    14.425
   52.45    25.028   206.000     8.498   301.231   225.335     2.268     6.802    14.474
   52.50    21.150   216.000     9.320   301.231   225.491     2.272     6.836    14.524
   52.55    44.418   190.000    10.142   302.378   230.192     2.272     6.929    14.776
   52.60    36.662   188.000    10.554   301.805   223.141     2.296     7.049    14.828
   52.65    42.479   179.000    10.554   302.378   226.588     2.305     7.036    14.906
   52.70    32.784   224.000     9.731   302.378   223.298     2.322     7.049    15.416
   52.75    40.540   209.000     8.087   301.231   221.574     2.321     7.073    15.416
   52.80    38.601   212.000     8.498   302.378   219.850     2.311     7.012    15.842
   52.85    36.662   218.000    10.965   302.952   217.656     2.308     7.049    16.078
   52.90    32.784   183.000    10.965   301.805   220.790     2.317     7.000    16.048
   52.95    36.662   203.000    10.142   301.805   218.910     2.317     7.147    16.665
   53.00    34.723   207.000    10.965   302.378   226.275     2.321     7.147    16.168
   53.05    46.357   222.000    10.554   302.378   221.417     2.291     7.262    16.413
   53.10    54.113   256.000    10.965   302.952   222.827     2.320     7.262    16.665
   53.15    46.357   190.000    10.965   302.378   217.970     2.335     7.236    16.729
   53.20    54.113   246.000    10.142   300.658   216.716     2.348     7.275    16.729
   53.25    40.540   226.000    10.142   302.378   226.432     2.352     7.210    16.924
   53.30    38.601   216.000    11.376   300.658   224.238     2.324     7.340    16.924
   53.35    21.150   228.000    11.376   300.084   225.178     2.335     7.301    17.292
   53.40    38.601   235.000    10.554   301.231   228.469     2.339     7.249    16.413
   53.45    32.784   227.000    10.965   301.231   218.753     2.346     7.434    16.665
   53.50    46.357   219.000    10.142   302.378   223.298     2.365     7.434    16.761
   53.55    28.906   248.000    10.554   300.658   221.731     2.372     7.366    16.476
   53.60    40.540   263.000    10.142   303.525   222.827     2.338     7.393    16.761
   53.65    34.723   266.000     8.498   300.658   222.044     2.359     7.210    16.957
   53.70    36.662   247.000     9.320   303.525   224.394     2.323     7.275    16.444
   53.75    46.357   268.000    10.554   302.378   221.887     2.312     7.147    16.351
   53.80    40.540   246.000    10.965   302.378   225.648     2.337     7.049    16.168
   53.85    42.479   239.000    11.376   302.952   221.574     2.315     7.024    15.416
   53.90    46.357   222.000     9.731   299.511   221.104     2.312     7.061    15.252
   53.95    36.662   267.000    10.142   303.525   222.044     2.284     6.871    14.725
   54.00    21.150   217.000    10.142   300.658   217.970     2.294     6.768    14.524
