~Version Information
VERS.    1.20:   CWLS log ASCII Standard - version 1.20
WRAP.      NO:   one line per depth step
~Well Information
#MNEM.UNIT     Data Type     Information
#_________     _________     ________________________
 STRT.M            0.000:
 STOP.M          245.550:
 STEP.M            0.050:
 NULL.              -0.0:
 COMP.           COMPANY: KANGARILLA DRILLING
 WELL.              WELL: PN103351
 FLD.              FIELD: OBSERVATION WELL
 LOC.           LOCATION:
 CNTY.            COUNTY:
 STAT.             STATE:
 CTRY.           COUNTRY:
 SRVC.   SERVICE COMPANY:    DEPARTMENT OF WATER, LAND/ and Biodiversity Conservation
 DATE.          LOG DATE: 15/12/2004
 UWI.     UNIQUE WELL ID: unknown
~Curve Information
#MNEM.UNIT       Curve  Information
#_________       _____  ___________________
 DEPT.M        :    1   DEPTH
 Gamm.API      :    2   Gamma
 Neut.CPS      :    3   Neutron
 SP  .MILLIVOLTS :    4   SP
 PR  .OHM      :    5   PR
 Cali.mm       :    6   Caliper
 Dens.g/cc     :    7   Density
 MED_.ohm/m    :    8   MED_INDU
 DEEP.ohm/m    :    9   DEEP_IND
~Parameter Information
#MNEM.UNIT       Value        Information
#_________     _________     ________________________
 LMF .       G.L. : Log Measured From
~Other Information
#MNEM.                 Description        Information
#_________            _____________     ________________________
 ENGI.                     Operator : V.Freschi
 LUN .                      Vehicle : T3362
 LATI.                     Latitude : 54H 0278156
 LONG.                    Longitude : 6142207
 TDD .                Depth Driller : 245M
 TDL .                 Depth Logger : 245.55
 BS  .                     Bit Size : 8" OPEN HOLE
 WITN.                      Witness : A FORBES
 COMM.                      comment : WINGFIELD
 JOBN.                     Job Name : 7086
#
 Azimuth degrees.                 relative to  : magnetic north
#
#
# conversion formula for CALIPER mm
#    where V = reading
#    -114.3909988403 + 0.1567000002*V
#
# conversion formula for DENSITY g/cc
#    where L = ln(reading)
#    19.1588001251 - 1.7809599638*L
#
# conversion formula for GAMMA API
#    where V = reading
#    -0.1789000034 + 1.9390000105*V
#
# conversion formula for  cps,ohm/m
#    where V = reading
#    0 + 1*V
#
# calculated values formula is :
#    1000/(V1*(V1*0.0000002+0.244)-412.12),1000/(V2*(V2*0.00002+0.067)-48.849)
#
# conversion formula for  cps,ohm/m
#    where V = reading
#    0 + 1*V
#
# calculated values formula is :
#    1000/(V1*(V1*0.0000002+0.244)-421.12),1000/(V2*(V2*0.00002+0.067)-48.849)
#
# conversion formula for NEUTRON CPS
#    where V = reading
#    1 + 1*V
#
# conversion formula for POINT-RESIS OHM
#    where V = reading
#    -141.5144042969 + 0.5735049844*V
#
# conversion formula for SPON-POT MILLIVOLTS
#    where V = reading
#    -817.1540527344 + 0.4111811817*V
#
~A Depth      Gamm      Neut      SP        PR        Cali      Dens      MED_      DEEP
# ...
  243.05    28.906   226.000     3.975   288.041   201.203     2.315     6.101    12.095
  243.10    30.845   248.000     6.031   285.747   204.494     2.305     6.174    11.936
  243.15    28.906   268.000      -0.0      -0.0   205.277     2.310     6.101    12.006
  243.20    13.394   279.000      -0.0      -0.0   203.710     2.322    -1.504    11.849
  243.25    21.150   301.000      -0.0      -0.0   201.986     2.328    -1.504    11.695
  243.30    23.089   254.000      -0.0      -0.0   198.539     2.329    -1.504    11.302
  243.35    25.028   276.000      -0.0      -0.0   197.442     2.337    -1.504    10.917
  243.40    32.784   290.000      -0.0      -0.0   200.419     2.353    -1.504   -10.433
  243.45    21.150   274.000      -0.0      -0.0   201.516     2.309    -1.504   -10.433
  243.50    15.333   278.000      -0.0      -0.0   200.263     2.357    -1.504   -10.433
  243.55      -0.0   248.000      -0.0      -0.0   201.046     2.334    -1.504   -10.433
  243.60      -0.0   250.000      -0.0      -0.0   201.830     2.325    -1.504   -10.433
  243.65      -0.0   275.000      -0.0      -0.0   199.793     2.309    -1.504   -10.433
  243.70      -0.0   248.000      -0.0      -0.0   199.479     2.328    -1.504   -10.433
  243.75      -0.0   264.000      -0.0      -0.0   197.442     2.304    -1.504   -10.433
  243.80      -0.0   266.000      -0.0      -0.0   199.949     2.294    -1.504   -10.433
  243.85      -0.0   304.000      -0.0      -0.0   199.636     2.333    -1.504   -10.433
  243.90      -0.0   250.000      -0.0      -0.0   210.291     2.347    -1.504   -10.433
  243.95      -0.0   253.000      -0.0      -0.0   183.496     2.345    -1.504   -10.433
  244.00      -0.0   248.000      -0.0      -0.0   141.187     2.343    -1.504   -10.433
  244.05      -0.0   255.000      -0.0      -0.0    69.261     2.354    -1.504   -10.433
  244.10      -0.0   316.000      -0.0      -0.0    60.956     2.379    -1.504   -10.433
  244.15      -0.0   297.000      -0.0      -0.0    53.435     2.361    -1.504   -10.433
  244.20      -0.0   368.000      -0.0      -0.0    49.204     2.379    -1.504   -10.433
  244.25      -0.0   324.000      -0.0      -0.0    48.264     2.403    -1.504   -10.433
  244.30      -0.0   359.000      -0.0      -0.0    54.532     2.346    -1.504   -10.433
  244.35      -0.0   368.000      -0.0      -0.0    52.024     2.371    -1.504   -10.433
  244.40      -0.0   351.000      -0.0      -0.0    51.868     2.364    -1.504   -10.433
  244.45      -0.0   323.000      -0.0      -0.0    52.024     2.388    -1.504   -10.433
  244.50      -0.0   318.000      -0.0      -0.0    52.965     2.361    -1.504   -10.433
  244.55      -0.0   328.000      -0.0      -0.0    56.099     2.376    -1.504   -10.433
  244.60      -0.0   318.000      -0.0      -0.0    52.338     2.353    -1.504   -10.433
  244.65      -0.0   366.000      -0.0      -0.0    52.495     2.308    -1.504   -10.433
  244.70      -0.0   349.000      -0.0      -0.0    49.204     2.291    -1.504   -10.433
  244.75      -0.0   304.000      -0.0      -0.0    52.808     2.302    -1.504   -10.433
  244.80      -0.0   323.000      -0.0      -0.0    54.532     2.281    -1.504   -10.433
  244.85      -0.0   327.000      -0.0      -0.0    55.942     2.270    -1.504   -10.433
  244.90      -0.0   318.000      -0.0      -0.0    53.121     2.250    -1.504   -10.433
  244.95      -0.0   294.000      -0.0      -0.0      -0.0     2.236    -1.504   -10.433
  245.00      -0.0   337.000      -0.0      -0.0      -0.0     2.240    -1.504   -10.433
  245.05      -0.0   304.000      -0.0      -0.0      -0.0     2.206    -1.504   -10.433
  245.10      -0.0   300.000      -0.0      -0.0      -0.0     2.169    -1.504   -10.433
  245.15      -0.0   264.000      -0.0      -0.0      -0.0     2.188    -1.504   -10.433
  245.20      -0.0   275.000      -0.0      -0.0      -0.0     2.107    -1.504   -10.433
  245.25      -0.0   272.000      -0.0      -0.0      -0.0     2.098    -1.504   -10.433
  245.30      -0.0   307.000      -0.0      -0.0      -0.0     2.085    -1.504   -10.433
  245.35      -0.0   317.000      -0.0      -0.0      -0.0     2.019    -1.504   -10.433
  245.40      -0.0   306.000      -0.0      -0.0      -0.0     2.037    -1.504   -10.433
  245.45      -0.0      -0.0      -0.0      -0.0      -0.0     1.995    -1.504   -10.433
  245.50      -0.0      -0.0      -0.0      -0.0      -0.0     2.032    -1.504   -10.433
