~Version Information
VERS.    1.20:   CWLS log ASCII Standard - version 1.20
WRAP.      NO:   one line per depth step
~Well Information
#MNEM.UNIT     Data Type     Information
#_________     _________     ________________________
 STRT.M            0.000:
 STOP.M          245.550:
 STEP.M            0.050:
 NULL.              -0.0:
 COMP.           COMPANY: KANGARILLA DRILLING
 WELL.              WELL: PN103351
 FLD.              FIELD: OBSERVATION WELL
 LOC.           LOCATION:
 CNTY.            COUNTY:
 STAT.             STATE:
 CTRY.           COUNTRY:
 SRVC.   SERVICE COMPANY:    DEPARTMENT OF WATER, LAND/ and Biodiversity Conservation
 DATE.          LOG DATE: 15/12/2004
 UWI.     UNIQUE WELL ID: unknown
~Curve Information
#MNEM.UNIT       Curve  Information
#_________       _____  ___________________
 DEPT.M        :    1   DEPTH
 Gamm.API      :    2   Gamma
 Neut.CPS      :    3   Neutron
 SP  .MILLIVOLTS :    4   SP
 PR  .OHM      :    5   PR
 Cali.mm       :    6   Caliper
 Dens.g/cc     :    7   Density
 MED_.ohm/m    :    8   MED_INDU
 DEEP.ohm/m    :    9   DEEP_IND
~Parameter Information
#MNEM.UNIT       Value        Information
#_________     _________     ________________________
 LMF .       G.L. : Log Measured From
~Other Information
#MNEM.                 Description        Information
#_________            _____________     ________________________
 ENGI.                     Operator : V.Freschi
 LUN .                      Vehicle : T3362
 LATI.                     Latitude : 54H 0278156
 LONG.                    Longitude : 6142207
 TDD .                Depth Driller : 245M
 TDL .                 Depth Logger : 245.55
 BS  .                     Bit Size : 8" OPEN HOLE
 WITN.                      Witness : A FORBES
 COMM.                      comment : WINGFIELD
 JOBN.                     Job Name : 7086
#
 Azimuth degrees.                 relative to  : magnetic north
#
#
# conversion formula for CALIPER mm
#    where V = reading
#    -114.3909988403 + 0.1567000002*V
#
# conversion formula for DENSITY g/cc
#    where L = ln(reading)
#    19.1588001251 - 1.7809599638*L
#
# conversion formula for GAMMA API
#    where V = reading
#    -0.1789000034 + 1.9390000105*V
#
# conversion formula for  cps,ohm/m
#    where V = reading
#    0 + 1*V
#
# calculated values formula is :
#    1000/(V1*(V1*0.0000002+0.244)-412.12),1000/(V2*(V2*0.00002+0.067)-48.849)
#
# conversion formula for  cps,ohm/m
#    where V = reading
#    0 + 1*V
#
# calculated values formula is :
#    1000/(V1*(V1*0.0000002+0.244)-421.12),1000/(V2*(V2*0.00002+0.067)-48.849)
#
# conversion formula for NEUTRON CPS
#    where V = reading
#    1 + 1*V
#
# conversion formula for POINT-RESIS OHM
#    where V = reading
#    -141.5144042969 + 0.5735049844*V
#
# conversion formula for SPON-POT MILLIVOLTS
#    where V = reading
#    -817.1540527344 + 0.4111811817*V
#
~A Depth      Gamm      Neut      SP        PR        Cali      Dens      MED_      DEEP
# ...
  144.05    25.028   208.000    39.336   295.496   209.978     2.280     9.578    22.566
  144.10    21.150   207.000    38.925   297.790   206.374     2.306     9.489    21.604
  144.15    11.455   205.000    38.103   295.496   209.351     2.308     9.578    22.790
  144.20    17.272   179.000    39.336   297.217   217.030     2.310     9.578    21.451
  144.25    17.272   212.000    38.514   296.643   214.679     2.270     9.646    21.501
  144.30    25.028   192.000    39.336   297.217   208.098     2.200     9.556    22.345
  144.35    21.150   183.000    35.636   297.217   208.568     2.186     9.489    21.707
  144.40    25.028   188.000    38.925   296.070   208.254     2.147     9.578    21.707
  144.45    21.150   188.000    39.336   297.790   210.918     2.192     9.601    21.501
  144.50    13.394   194.000    38.925   297.217   210.605     2.201     9.149    21.811
  144.55    21.150   201.000    38.514   296.070   212.485     2.219     9.211    21.863
  144.60    17.272   181.000    37.692   297.790   213.269     2.212     9.253    21.300
  144.65    21.150   188.000    39.336   297.217   211.388     2.253     9.578    21.707
  144.70    17.272   213.000    37.280   296.070   210.135     2.204     9.927    21.916
  144.75    13.394   177.000    38.514   295.496   211.545     2.222     9.489    21.501
  144.80    19.211   209.000    38.514   297.790   209.821     2.254     9.190    21.655
  144.85    21.150   211.000    37.692   296.070   208.098     2.188     9.423    21.350
  144.90    46.357   230.000    36.047   296.070   209.508     2.222     9.129    21.400
  144.95    17.272   172.000    38.925   296.643   209.351     2.212     9.170    21.552
  145.00     7.577   200.000    35.225   297.217   200.263     2.214     9.556    21.200
  145.05    21.150   200.000    38.103   296.070   206.374     2.193     9.601    21.759
  145.10    21.150   181.000    38.514   295.496   204.650     2.138     9.295    21.501
  145.15    11.455   181.000    37.280   296.070   204.807     2.151     9.556    21.604
  145.20    21.150   194.000    38.925   296.070   213.112     2.152     9.359    21.707
  145.25    11.455   179.000    38.925   296.070   207.784     2.133     9.359    21.604
  145.30    21.150   201.000    39.336   297.790   211.545     2.188     9.316    21.101
  145.35    28.906   194.000    37.692   295.496   206.374     2.219     9.274    22.182
  145.40    13.394   179.000    37.692   296.643   209.665     2.226     9.295    21.250
  145.45    17.272   173.000    38.925   294.923   209.821     2.222     9.467    21.250
  145.50    11.455   181.000    37.692   297.790   209.978     2.225     9.533    21.916
  145.55    21.150   196.000    38.103   296.643   209.665     2.210     9.533    21.400
  145.60    25.028   192.000    36.869   297.790   209.665     2.215     9.253    21.200
  145.65    25.028   181.000    35.225   297.217   218.440     2.189     9.295    21.552
  145.70    15.333   175.000    37.692   295.496   203.867     2.169     9.423    22.510
  145.75    28.906   227.000    38.103   296.643   202.770     2.177     9.556    22.510
  145.80    17.272   209.000    36.047   297.790   206.844     2.159     9.761    21.604
  145.85    28.906   196.000    36.458   296.643   211.388     2.124     9.785    22.847
  145.90    32.784   177.000    37.280   297.790   209.351     2.205     9.601    22.022
  145.95    25.028   219.000    36.869   294.349   209.821     2.245     9.927    21.811
  146.00    11.455   192.000    36.869   298.364   209.195     2.261     9.511    22.236
  146.05    28.906   194.000    38.103   296.643   205.590     2.267     9.511    21.604
  146.10    17.272   221.000    36.869   295.496   203.397     2.246     9.738    22.075
  146.15    30.845   183.000    37.692   297.790   210.605     2.233     9.467    22.455
  146.20    32.784   203.000    36.869   296.643   207.314     2.212     9.692    21.501
  146.25    11.455   170.000    35.636   297.790   208.881     2.212     9.927    21.501
  146.30    17.272   199.000    37.692   295.496   205.747     2.222     9.808    21.501
  146.35    11.455   194.000    37.280   297.217   209.508     2.246     9.761    21.916
  146.40    21.150   212.000    35.225   296.070   208.881     2.168     9.601    22.566
  146.45    21.150   179.000    34.813   295.496   212.329     2.192     9.785    22.022
  146.50    28.906   207.000    36.869   296.643   212.329     2.200     9.976    22.236
  146.55    21.150   179.000    36.869   297.790   211.232     2.224     9.952    22.182
  146.60    17.272   212.000    36.458   295.496   214.679     2.266     9.952    21.916
  146.65    25.028   225.000    37.280   297.790   211.388     2.235    10.200    23.194
  146.70    28.906   196.000    36.869   297.217   212.642     2.240    10.435    22.345
  146.75    21.150   222.000    36.869   297.217   207.314     2.208     9.952    22.904
  146.80    25.028   190.000    38.514   297.790   203.083     2.214    10.226    22.904
  146.85    32.784   196.000    38.103   297.790   204.650     2.208     9.976    22.566
  146.90    21.150   231.000    38.103   296.643   206.374     2.192    10.461    23.252
  146.95    17.272   168.000    38.925   296.643   206.844     2.184    10.329    23.135
  147.00    17.272   181.000    37.692   294.349   209.195     2.184    10.765    22.962
  147.05    25.028   213.000    38.103   297.217   202.927     2.175    10.765    23.671
  147.10    17.272   198.000    38.514   297.790   205.277     2.201    10.570    23.019
  147.15    34.723   203.000    38.514   296.643   202.300     2.184    10.570    22.622
  147.20    11.455   194.000    38.514   297.790   206.531     2.180    10.488    23.252
  147.25    21.150   207.000    38.925   297.217   204.180     2.149    10.597    23.194
  147.30    13.394   215.000    37.280   296.070   207.628     2.171    10.382    23.252
  147.35    17.272   205.000    37.692   296.070   205.747     2.122    10.908    23.019
  147.40    25.028   237.000    38.514   296.070   205.904     2.150    11.086    23.252
  147.45    17.272   226.000    38.514   297.217   202.456     2.148    11.557    23.490
  147.50    26.967   246.000    39.336   297.790   205.120     2.220    11.177    23.019
  147.55    21.150   247.000    39.336   298.364   216.873     2.304    11.270    24.230
  147.60    28.906   237.000    38.514   297.790   214.992     2.344    11.147    23.671
  147.65    25.028   258.000    40.981   298.937   218.126     2.376    11.459    23.610
  147.70    21.150   277.000    40.570   298.937   208.724     2.370    11.492    23.732
  147.75    15.333   266.000    41.803   297.217   208.411     2.353    11.524    23.550
  147.80    11.455   277.000    41.803   298.937   211.545     2.351    11.622    23.550
  147.85    17.272   256.000    42.626   297.217   211.388     2.369    11.722    24.422
  147.90    21.150   272.000    39.748   299.511   200.263     2.352    11.116    23.430
  147.95    25.028   284.000    40.981   297.790   206.374     2.343    10.908    24.230
  148.00    13.394   230.000    40.981   297.790   209.195     2.381    10.879    23.371
  148.05    13.394   242.000    40.981   297.790   206.687     2.345    10.822    22.904
  148.10    21.150   233.000    40.570   297.217   211.388     2.335    10.435    23.979
  148.15    25.028   205.000    41.392   297.790   206.217     2.309    10.879    22.904
  148.20    21.150   230.000    39.748   296.070   213.112     2.219    10.822    23.671
  148.25    21.150   264.000    40.570   297.790   208.098     2.205    11.116    23.490
  148.30    36.662   255.000    39.748   295.496   209.351     2.233    10.708    23.311
  148.35    21.150   278.000    38.514   296.643   212.015     2.259    10.708    24.422
  148.40    28.906   292.000    40.570   298.937   212.955     2.323    10.997    23.371
  148.45    21.150   335.000    43.448   298.937   206.374     2.346    10.908    23.490
  148.50    32.784   290.000    42.626   298.364   216.559     2.400    10.967    23.793
