~Version Information
VERS.    1.20:   CWLS log ASCII Standard - version 1.20
WRAP.      NO:   one line per depth step
~Well Information
#MNEM.UNIT     Data Type     Information
#_________     _________     ________________________
 STRT.M            0.000:
 STOP.M          245.550:
 STEP.M            0.050:
 NULL.              -0.0:
 COMP.           COMPANY: KANGARILLA DRILLING
 WELL.              WELL: PN103351
 FLD.              FIELD: OBSERVATION WELL
 LOC.           LOCATION:
 CNTY.            COUNTY:
 STAT.             STATE:
 CTRY.           COUNTRY:
 SRVC.   SERVICE COMPANY:    DEPARTMENT OF WATER, LAND/ and Biodiversity Conservation
 DATE.          LOG DATE: 15/12/2004
 UWI.     UNIQUE WELL ID: unknown
~Curve Information
#MNEM.UNIT       Curve  Information
#_________       _____  ___________________
 DEPT.M        :    1   DEPTH
 Gamm.API      :    2   Gamma
 Neut.CPS      :    3   Neutron
 SP  .MILLIVOLTS :    4   SP
 PR  .OHM      :    5   PR
 Cali.mm       :    6   Caliper
 Dens.g/cc     :    7   Density
 MED_.ohm/m    :    8   MED_INDU
 DEEP.ohm/m    :    9   DEEP_IND
~Parameter Information
#MNEM.UNIT       Value        Information
#_________     _________     ________________________
 LMF .       G.L. : Log Measured From
~Other Information
#MNEM.                 Description        Information
#_________            _____________     ________________________
 ENGI.                     Operator : V.Freschi
 LUN .                      Vehicle : T3362
 LATI.                     Latitude : 54H 0278156
 LONG.                    Longitude : 6142207
 TDD .                Depth Driller : 245M
 TDL .                 Depth Logger : 245.55
 BS  .                     Bit Size : 8" OPEN HOLE
 WITN.                      Witness : A FORBES
 COMM.                      comment : WINGFIELD
 JOBN.                     Job Name : 7086
#
 Azimuth degrees.                 relative to  : magnetic north
#
#
# conversion formula for CALIPER mm
#    where V = reading
#    -114.3909988403 + 0.1567000002*V
#
# conversion formula for DENSITY g/cc
#    where L = ln(reading)
#    19.1588001251 - 1.7809599638*L
#
# conversion formula for GAMMA API
#    where V = reading
#    -0.1789000034 + 1.9390000105*V
#
# conversion formula for  cps,ohm/m
#    where V = reading
#    0 + 1*V
#
# calculated values formula is :
#    1000/(V1*(V1*0.0000002+0.244)-412.12),1000/(V2*(V2*0.00002+0.067)-48.849)
#
# conversion formula for  cps,ohm/m
#    where V = reading
#    0 + 1*V
#
# calculated values formula is :
#    1000/(V1*(V1*0.0000002+0.244)-421.12),1000/(V2*(V2*0.00002+0.067)-48.849)
#
# conversion formula for NEUTRON CPS
#    where V = reading
#    1 + 1*V
#
# conversion formula for POINT-RESIS OHM
#    where V = reading
#    -141.5144042969 + 0.5735049844*V
#
# conversion formula for SPON-POT MILLIVOLTS
#    where V = reading
#    -817.1540527344 + 0.4111811817*V
#
~A Depth      Gamm      Neut      SP        PR        Cali      Dens      MED_      DEEP
# ...
  162.05    21.150   222.000    33.991   293.776   206.061     2.226     9.211    21.501
  162.10    21.150   202.000    33.580   294.923   211.232     2.258     9.533    22.022
  162.15    13.394   249.000    31.935   293.776   204.494     2.272     9.646    21.969
  162.20    17.272   234.000    33.169   292.629   216.873     2.275     9.423    21.300
  162.25    21.150   224.000    34.813   294.349   203.240     2.251     9.511    22.129
  162.30    11.455   245.000    34.402   294.349   201.830     2.255     9.445    21.604
  162.35    25.028   218.000    33.169   292.055   208.254     2.245     9.316    21.811
  162.40    17.272   218.000    32.346   293.776   208.724     2.269     9.316    21.916
  162.45    15.333   226.000    34.813   293.202   201.360     2.229     9.533    21.707
  162.50    17.272   201.000    34.813   293.776   209.038     2.204     9.601    21.707
  162.55    17.272   201.000    32.757   293.776   211.702     2.203     9.489    21.400
  162.60    25.028   222.000    33.991   292.055   202.143     2.199     9.467    21.151
  162.65    17.272   198.000    32.346   294.349   210.918     2.146     9.467    22.291
  162.70     3.699   192.000    33.991   293.202   203.553     2.130     9.359    21.552
  162.75    21.150   190.000    33.991   294.349   205.434     2.130     9.274    21.400
  162.80    15.333   196.000    35.225   293.202   205.904     2.077     9.467    21.501
  162.85    17.272   201.000    34.402   294.349   205.120     2.061     9.556    21.501
  162.90    17.272   218.000    33.991   292.629   208.411     2.115     9.556    22.022
  162.95    25.028   213.000    34.402   293.202   200.106     2.155     9.511    21.707
  163.00     7.577   209.000    34.402   292.055   203.240     2.189     9.601    21.200
  163.05    13.394   216.000    34.402   293.776   205.277     2.238     9.489    22.345
  163.10    17.272   222.000    35.225   294.349   206.374     2.246     9.211    22.345
  163.15    -0.179   207.000    35.225   292.629   209.038     2.249     9.232    21.707
  163.20    28.906   216.000    32.757   293.202   203.553     2.209     9.337    21.604
  163.25    25.028   227.000    32.757   293.776   209.038     2.202     9.556    21.400
  163.30    25.028   218.000    34.813   294.349   199.479     2.149     9.601    21.707
  163.35    21.150   218.000    34.813   292.629   212.799     2.181     9.489    21.451
  163.40    13.394   216.000    34.813   293.776   206.374     2.180     9.669    21.863
  163.45    21.150   214.000    35.225   294.349   201.360     2.175     9.232    22.075
  163.50    11.455   231.000    33.991   293.776   207.784     2.190     9.445    21.552
  163.55    21.150   238.000    35.225   293.202   209.978     2.225     9.511    22.022
  163.60    17.272   228.000    36.047   294.923   207.471     2.267     9.295    21.655
  163.65    13.394   223.000    33.991   294.349   208.881     2.284     9.646    21.451
  163.70    17.272   225.000    36.047   294.923   204.807     2.284     9.646    22.236
  163.75    17.272   255.000    33.580   294.349   206.061     2.302     9.445    21.400
  163.80     7.577   252.000    33.991   294.349   207.784     2.299     9.533    21.811
  163.85    28.906   218.000    35.636   293.776   202.770     2.287     9.402    22.022
  163.90    17.272   240.000    34.402   293.776   208.568     2.233     9.337    22.022
  163.95    21.150   230.000    35.225   293.202   204.494     2.217     9.253    21.300
  164.00     7.577   211.000    35.636   292.055   203.553     2.210     9.380    21.300
  164.05    32.784   206.000    33.580   293.776   210.605     2.177     9.511    20.620
  164.10    21.150   221.000    34.402   294.349   205.747     2.174     9.402    21.101
  164.15    21.150   239.000    34.402   294.349   206.217     2.200     9.316    21.101
  164.20    21.150   183.000    34.813   293.776   212.015     2.160     9.253    21.707
  164.25    13.394   240.000    30.702   294.349   203.240     2.142     9.149    20.715
  164.30    17.272   205.000    34.813   294.349   200.263     2.185     9.253    20.715
  164.35     7.577   220.000    33.580   292.629   205.747     2.197     9.068    21.400
  164.40    13.394   201.000    33.991   293.776   206.687     2.237     9.337    21.400
  164.45    17.272   204.000    32.757   292.629   202.770     2.202     9.316    21.501
  164.50    25.028   200.000    35.225   294.923   204.337     2.203     9.402    21.916
  164.55    13.394   188.000    35.225   293.776   203.867     2.222     9.274    21.451
  164.60    13.394   196.000    34.813   292.629   204.964     2.201     9.149    22.129
  164.65    15.333   223.000    33.991   294.349   210.605     2.224     9.170    21.101
  164.70    17.272   196.000    34.813   291.482   203.710     2.202     9.423    21.151
  164.75    13.394   192.000    34.402   293.776   211.232     2.211     9.337    21.604
  164.80    11.455   211.000    35.225   292.629   208.411     2.189     9.190    21.250
  164.85    21.150   205.000    34.813   294.349   206.844     2.198     9.337    21.400
  164.90    25.028   210.000    34.402   293.776   209.978     2.189     9.646    21.501
  164.95    13.394   214.000    34.813   293.776   206.061     2.212     9.402    21.552
  165.00    21.150   210.000    34.402   294.923   210.605     2.223     9.337    22.075
  165.05    11.455   177.000    35.225   290.335   206.687     2.247     9.295    21.501
  165.10     3.699   221.000    35.225   294.923   203.240     2.237     9.578    21.811
  165.15    21.150   233.000    36.047   294.349   205.277     2.228     9.337    22.129
  165.20    21.150   220.000    33.169   294.923   203.710     2.237     9.578    21.400
  165.25    17.272   236.000    34.813   295.496   206.687     2.224     9.601    22.022
  165.30    30.845   229.000    34.813   292.629   212.485     2.240     9.623    21.501
  165.35    21.150   241.000    33.169   294.923   206.687     2.266     9.467    21.300
  165.40    11.455   214.000    33.169   291.482   208.724     2.259     9.489    22.236
  165.45    30.845   227.000    33.580   294.923   206.061     2.232     9.489    21.052
  165.50    25.028   214.000    34.402   293.202   201.986     2.265     9.359    21.400
  165.55    25.028   228.000    34.402   294.923   207.157     2.284     9.511    21.501
  165.60     3.699   210.000    33.991   293.776   206.687     2.224     9.511    21.400
  165.65    17.272   222.000    33.169   294.923   210.291     2.230     9.556    21.300
  165.70    17.272   215.000    34.813   294.349   209.508     2.246     9.556    21.151
  165.75    21.150   227.000    33.991   293.776   208.881     2.263     9.337    21.707
  165.80    30.845   211.000    33.991   294.923   206.687     2.227     9.337    21.604
  165.85    28.906   225.000    35.225   295.496   205.434     2.281     9.489    21.052
  165.90    15.333   243.000    33.169   293.776   207.157     2.269     9.170    21.969
  165.95    17.272   209.000    33.991   292.629   209.508     2.283     9.578    21.400
  166.00    15.333   247.000    33.580   294.923   207.784     2.271     9.669    21.400
  166.05    28.906   233.000    35.225   294.349   202.456     2.267     9.855    22.236
  166.10    21.150   219.000    31.524   293.776   200.263     2.269     9.423    21.200
  166.15    17.272   213.000    33.580   294.349   205.120     2.245     9.646    22.022
  166.20    25.028   224.000    33.991   292.629   206.531     2.209     9.316    21.655
  166.25    11.455   192.000    35.636   294.349   208.568     2.251     9.489    20.906
  166.30    25.028   186.000    34.402   294.349   205.747     2.211     9.380    21.969
  166.35     7.577   211.000    35.636   294.349   210.135     2.219     9.402    21.200
  166.40    21.150   235.000    34.813   293.776   207.784     2.188     9.556    21.101
  166.45    32.784   232.000    33.991   292.629   199.479     2.224     9.646    21.811
  166.50    34.723   222.000    33.991   293.776   198.539     2.234     9.445    21.151
