~Version Information
VERS.    1.20:   CWLS log ASCII Standard - version 1.20
WRAP.      NO:   one line per depth step
~Well Information
#MNEM.UNIT     Data Type     Information
#_________     _________     ________________________
 STRT.M            0.000:
 STOP.M          245.550:
 STEP.M            0.050:
 NULL.              -0.0:
 COMP.           COMPANY: KANGARILLA DRILLING
 WELL.              WELL: PN103351
 FLD.              FIELD: OBSERVATION WELL
 LOC.           LOCATION:
 CNTY.            COUNTY:
 STAT.             STATE:
 CTRY.           COUNTRY:
 SRVC.   SERVICE COMPANY:    DEPARTMENT OF WATER, LAND/ and Biodiversity Conservation
 DATE.          LOG DATE: 15/12/2004
 UWI.     UNIQUE WELL ID: unknown
~Curve Information
#MNEM.UNIT       Curve  Information
#_________       _____  ___________________
 DEPT.M        :    1   DEPTH
 Gamm.API      :    2   Gamma
 Neut.CPS      :    3   Neutron
 SP  .MILLIVOLTS :    4   SP
 PR  .OHM      :    5   PR
 Cali.mm       :    6   Caliper
 Dens.g/cc     :    7   Density
 MED_.ohm/m    :    8   MED_INDU
 DEEP.ohm/m    :    9   DEEP_IND
~Parameter Information
#MNEM.UNIT       Value        Information
#_________     _________     ________________________
 LMF .       G.L. : Log Measured From
~Other Information
#MNEM.                 Description        Information
#_________            _____________     ________________________
 ENGI.                     Operator : V.Freschi
 LUN .                      Vehicle : T3362
 LATI.                     Latitude : 54H 0278156
 LONG.                    Longitude : 6142207
 TDD .                Depth Driller : 245M
 TDL .                 Depth Logger : 245.55
 BS  .                     Bit Size : 8" OPEN HOLE
 WITN.                      Witness : A FORBES
 COMM.                      comment : WINGFIELD
 JOBN.                     Job Name : 7086
#
 Azimuth degrees.                 relative to  : magnetic north
#
#
# conversion formula for CALIPER mm
#    where V = reading
#    -114.3909988403 + 0.1567000002*V
#
# conversion formula for DENSITY g/cc
#    where L = ln(reading)
#    19.1588001251 - 1.7809599638*L
#
# conversion formula for GAMMA API
#    where V = reading
#    -0.1789000034 + 1.9390000105*V
#
# conversion formula for  cps,ohm/m
#    where V = reading
#    0 + 1*V
#
# calculated values formula is :
#    1000/(V1*(V1*0.0000002+0.244)-412.12),1000/(V2*(V2*0.00002+0.067)-48.849)
#
# conversion formula for  cps,ohm/m
#    where V = reading
#    0 + 1*V
#
# calculated values formula is :
#    1000/(V1*(V1*0.0000002+0.244)-421.12),1000/(V2*(V2*0.00002+0.067)-48.849)
#
# conversion formula for NEUTRON CPS
#    where V = reading
#    1 + 1*V
#
# conversion formula for POINT-RESIS OHM
#    where V = reading
#    -141.5144042969 + 0.5735049844*V
#
# conversion formula for SPON-POT MILLIVOLTS
#    where V = reading
#    -817.1540527344 + 0.4111811817*V
#
~A Depth      Gamm      Neut      SP        PR        Cali      Dens      MED_      DEEP
# ...
  130.55    32.784   278.000    40.570   301.231   206.531     2.218    10.050    22.566
  130.60    17.272   311.000    41.392   299.511   209.978     2.273    10.074    22.345
  130.65    25.028   273.000    41.392   301.805   206.531     2.270    10.000    23.610
  130.70    23.089   264.000    40.570   299.511   199.636     2.273    10.329    22.022
  130.75    46.357   261.000    41.392   299.511   205.590     2.250    10.329    22.678
  130.80    36.662   299.000    42.215   300.084   200.263     2.281    10.461    22.678
  130.85    32.784   303.000    41.392   300.084   203.083     2.222    10.570    22.345
  130.90    25.028   252.000    41.803   300.084   201.830     2.214    10.226    22.904
  130.95    21.150   273.000    42.215   300.658   205.434     2.221    10.050    22.734
  131.00    32.784   282.000    41.803   298.937   203.867     2.235    10.329    22.734
  131.05    23.089   276.000    41.803   301.231   209.978     2.235    10.050    23.371
  131.10    28.906   294.000    42.215   299.511   205.747     2.256    10.200    23.135
  131.15    28.906   308.000    41.392   300.084   199.949     2.259    10.488    22.345
  131.20    32.784   270.000    41.392   298.937   207.471     2.250    10.277    22.904
  131.25    38.601   295.000    40.159   300.658   204.023     2.276    10.461    22.904
  131.30    25.028   261.000    40.981   298.364   208.881     2.280    10.329    23.077
  131.35    25.028   282.000    41.803   301.231   197.442     2.256    10.050    22.566
  131.40    32.784   285.000    42.215   299.511   205.120     2.273    10.329    22.566
  131.45    32.784   254.000    40.570   298.937   209.508     2.289    10.542    23.019
  131.50    15.333   246.000    40.981   301.231   204.964     2.322    10.124    22.904
  131.55    21.150   243.000    39.748   298.364   205.904     2.277    10.822    22.622
  131.60    28.906   271.000    42.626   298.937   206.217     2.264    10.200    23.019
  131.65    44.418   259.000    42.215   300.084   207.314     2.250    10.597    22.790
  131.70    40.540   274.000    40.981   300.658   210.918     2.267    10.597    23.019
  131.75    25.028   245.000    39.748   299.511   209.821     2.268    10.175    22.566
  131.80    36.662   246.000    40.981   300.084   202.456     2.294    10.226    22.622
  131.85    36.662   272.000    42.215   300.084   202.300     2.289    10.277    22.790
  131.90    40.540   253.000    40.570   298.937   204.650     2.250    10.515    22.790
  131.95    28.906   251.000    40.159   298.364   201.046     2.263    10.793    23.732
  132.00    36.662   276.000    39.748   299.511   209.038     2.233    10.435    22.622
  132.05    36.662   264.000    40.981   300.658   203.553     2.256    10.251    23.194
  132.10    38.601   273.000    41.392   298.937   199.479     2.270    10.226    22.622
  132.15    25.028   269.000    39.748   301.231   201.046     2.266    10.488    23.135
  132.20    32.784   240.000    42.215   300.084   202.143     2.273    10.329    22.790
  132.25    32.784   227.000    40.570   300.658   201.360     2.264    10.329    23.430
  132.30    21.150   260.000    42.215   301.231   209.038     2.281    10.570    22.790
  132.35    21.150   261.000    41.392   300.084   208.568     2.265    10.355    23.550
  132.40    28.906   236.000    41.392   298.364   204.494     2.302    10.488    22.904
  132.45    17.272   248.000    40.981   300.658   209.821     2.311    10.277    23.371
  132.50    25.028   241.000    42.215   300.658   207.001     2.292    10.822    23.311
  132.55    32.784   250.000    42.626   298.364   204.180     2.270    10.461    23.135
  132.60    28.906   233.000    42.215   301.231   203.083     2.291    10.329    23.135
  132.65    28.906   251.000    41.803   297.217   206.844     2.276    10.408    23.252
  132.70    23.089   256.000    42.626   301.231   206.061     2.286    10.822    22.904
  132.75    19.211   255.000    40.159   301.231   207.157     2.294    10.435    23.135
  132.80    32.784   265.000    40.981   300.658   213.582     2.288    10.277    23.077
  132.85    32.784   245.000    41.803   300.658   209.508     2.238    10.251    22.236
  132.90    15.333   268.000    42.215   300.084   201.516     2.285    10.025    22.904
  132.95    32.784   246.000    39.748   300.658   201.986     2.261    10.074    22.182
  133.00    52.174   245.000    42.626   298.937   206.687     2.244    10.074    22.847
  133.05    32.784   260.000    41.803   300.658   204.964     2.252    10.124    22.291
  133.10    25.028   238.000    39.336   298.937   210.448     2.234    10.000    22.236
  133.15    25.028   211.000    41.803   300.084   209.665     2.215     9.927    22.291
  133.20    32.784   234.000    39.748   298.937   207.314     2.230     9.879    21.501
  133.25    28.906   240.000    40.981   300.084   201.203     2.242     9.511    22.962
  133.30    30.845   254.000    41.803   298.937   202.770     2.226     9.601    22.075
  133.35    25.028   222.000    40.159   296.070   212.485     2.209     9.601    22.236
  133.40    38.601   198.000    40.570   299.511   210.605     2.224     9.692    22.345
  133.45    46.357   253.000    40.570   298.937   209.508     2.246     9.601    21.759
  133.50    25.028   234.000    41.392   300.084   207.001     2.234     9.879    21.916
  133.55    32.784   253.000    40.981   300.658   209.508     2.212     9.423    22.022
  133.60    32.784   250.000    39.336   298.937   203.867     2.201     9.402    21.707
  133.65    28.906   265.000    41.392   300.658   206.531     2.199     9.380    21.759
  133.70    28.906   246.000    41.392   299.511   204.180     2.227     9.467    22.022
  133.75    40.540   233.000    40.159   298.364   209.508     2.259     9.445    21.300
  133.80    15.333   254.000    41.392   299.511   207.157     2.239     9.337    22.075
  133.85    17.272   234.000    39.748   298.937   206.531     2.209     9.337    21.501
  133.90    21.150   243.000    40.159   298.364   203.240     2.183     9.556    21.350
  133.95    13.394   242.000    38.925   297.790   208.568     2.168     9.274    22.022
  134.00    21.150   217.000    39.748   298.937   209.508     2.169     9.445    21.400
  134.05    40.540   248.000    40.570   297.217   205.120     2.175     9.048    21.400
  134.10    21.150   250.000    40.570   297.217   205.120     2.197     9.048    21.969
  134.15    34.723   268.000    40.159   298.937   205.434     2.193     9.274    21.300
  134.20    28.906   245.000    41.392   300.084   203.083     2.191     9.253    21.969
  134.25    34.723   252.000    40.570   299.511   207.628     2.225     9.232    21.101
  134.30    25.028   214.000    40.570   298.364   208.411     2.254     9.578    21.101
  134.35    38.601   236.000    40.159   297.790   210.762     2.220     9.316    21.655
  134.40    25.028   258.000    40.981   298.364   214.366     2.244     9.048    21.350
  134.45    42.479   268.000    40.570   300.658   202.770     2.271     9.359    21.604
  134.50    34.723   235.000    41.803   300.084   204.964     2.248     9.511    21.916
  134.55    25.028   252.000    41.392   298.937   205.277     2.263     9.211    21.400
  134.60    17.272   244.000    41.803   300.084   203.083     2.230     9.489    21.759
  134.65    28.906   274.000    41.392   298.364   203.867     2.237     9.489    21.811
  134.70    25.028   279.000    40.570   300.084   200.733     2.261     9.601    21.863
  134.75    15.333   265.000    41.392   299.511   201.516     2.226     9.274    21.250
  134.80    32.784   255.000    41.803   298.937   211.858     2.244     9.211    21.759
  134.85    38.601   226.000    40.981   300.084   212.329     2.254     9.337    21.759
  134.90    28.906   276.000    40.159   297.217   201.360     2.241     9.170    21.200
  134.95    28.906   289.000    41.803   299.511   203.867     2.224     9.170    21.604
  135.00    32.784   259.000    41.392   298.364   204.650     2.256     9.445    22.734
