~Version Information
VERS.    1.20:   CWLS log ASCII Standard - version 1.20
WRAP.      NO:   one line per depth step
~Well Information
#MNEM.UNIT     Data Type     Information
#_________     _________     ________________________
 STRT.M            0.000:
 STOP.M          245.550:
 STEP.M            0.050:
 NULL.              -0.0:
 COMP.           COMPANY: KANGARILLA DRILLING
 WELL.              WELL: PN103351
 FLD.              FIELD: OBSERVATION WELL
 LOC.           LOCATION:
 CNTY.            COUNTY:
 STAT.             STATE:
 CTRY.           COUNTRY:
 SRVC.   SERVICE COMPANY:    DEPARTMENT OF WATER, LAND/ and Biodiversity Conservation
 DATE.          LOG DATE: 15/12/2004
 UWI.     UNIQUE WELL ID: unknown
~Curve Information
#MNEM.UNIT       Curve  Information
#_________       _____  ___________________
 DEPT.M        :    1   DEPTH
 Gamm.API      :    2   Gamma
 Neut.CPS      :    3   Neutron
 SP  .MILLIVOLTS :    4   SP
 PR  .OHM      :    5   PR
 Cali.mm       :    6   Caliper
 Dens.g/cc     :    7   Density
 MED_.ohm/m    :    8   MED_INDU
 DEEP.ohm/m    :    9   DEEP_IND
~Parameter Information
#MNEM.UNIT       Value        Information
#_________     _________     ________________________
 LMF .       G.L. : Log Measured From
~Other Information
#MNEM.                 Description        Information
#_________            _____________     ________________________
 ENGI.                     Operator : V.Freschi
 LUN .                      Vehicle : T3362
 LATI.                     Latitude : 54H 0278156
 LONG.                    Longitude : 6142207
 TDD .                Depth Driller : 245M
 TDL .                 Depth Logger : 245.55
 BS  .                     Bit Size : 8" OPEN HOLE
 WITN.                      Witness : A FORBES
 COMM.                      comment : WINGFIELD
 JOBN.                     Job Name : 7086
#
 Azimuth degrees.                 relative to  : magnetic north
#
#
# conversion formula for CALIPER mm
#    where V = reading
#    -114.3909988403 + 0.1567000002*V
#
# conversion formula for DENSITY g/cc
#    where L = ln(reading)
#    19.1588001251 - 1.7809599638*L
#
# conversion formula for GAMMA API
#    where V = reading
#    -0.1789000034 + 1.9390000105*V
#
# conversion formula for  cps,ohm/m
#    where V = reading
#    0 + 1*V
#
# calculated values formula is :
#    1000/(V1*(V1*0.0000002+0.244)-412.12),1000/(V2*(V2*0.00002+0.067)-48.849)
#
# conversion formula for  cps,ohm/m
#    where V = reading
#    0 + 1*V
#
# calculated values formula is :
#    1000/(V1*(V1*0.0000002+0.244)-421.12),1000/(V2*(V2*0.00002+0.067)-48.849)
#
# conversion formula for NEUTRON CPS
#    where V = reading
#    1 + 1*V
#
# conversion formula for POINT-RESIS OHM
#    where V = reading
#    -141.5144042969 + 0.5735049844*V
#
# conversion formula for SPON-POT MILLIVOLTS
#    where V = reading
#    -817.1540527344 + 0.4111811817*V
#
~A Depth      Gamm      Neut      SP        PR        Cali      Dens      MED_      DEEP
# ...
   81.05    28.906   280.000    29.468   302.378   214.522     2.268     8.719    20.387
   81.10    25.028   278.000    30.702   304.099   216.246     2.273     8.757    20.341
   81.15    32.784   255.000    30.702   302.952   216.089     2.255     9.088    20.341
   81.20    25.028   250.000    31.935   302.952   211.075     2.202     9.211    20.620
   81.25    21.150   290.000    31.113   303.525   212.015     2.214     9.211    20.667
   81.30    25.028   276.000    31.113   302.378   220.477     2.204     8.988    20.810
   81.35    17.272   248.000    32.346   302.378   217.970     2.161     8.929    21.101
   81.40    25.028   262.000    32.757   303.525   217.500     2.167     9.008    21.101
   81.45    25.028   246.000    34.402   304.099   211.075     2.183     9.008    21.200
   81.50    21.150   269.000    33.991   302.952   214.366     2.157     9.489    21.759
   81.55    17.272   268.000    36.047   302.952   213.112     2.145     9.316    21.300
   81.60    21.150   266.000    36.458   303.525   212.485     2.109     9.533    21.400
   81.65    34.723   241.000    36.458   305.246   218.753     2.102     9.623    21.400
   81.70    17.272   303.000    36.047   302.952   211.702     2.111     9.556    22.022
   81.75    28.906   280.000    37.280   304.099   215.619     2.075     9.623    22.129
   81.80    11.455   307.000    36.458   303.525   213.425     2.104     9.511    21.300
   81.85    13.394   278.000    38.103   302.952   210.918     2.127     9.646    22.345
   81.90    25.028   290.000    38.925   304.099   216.403     2.114     9.692    22.400
   81.95    13.394   307.000    39.336   302.378   214.522     2.148     9.692    22.345
   82.00    21.150   263.000    37.692   302.378   209.351     2.159    10.050    21.969
   82.05     3.699   266.000    39.336   304.099   215.149     2.212    10.000    21.604
   82.10    17.272   297.000    40.159   304.099   213.739     2.168     9.832    22.455
   82.15    13.394   274.000    40.570   301.805   217.656     2.212     9.879    22.455
   82.20     9.516   283.000    40.981   304.099   214.992     2.159     9.927    21.707
   82.25    11.455   270.000    38.925   303.525   206.374     2.169    10.124    22.734
   82.30     3.699   290.000    40.159   302.952   212.015     2.196    10.025    21.916
   82.35     3.699   305.000    40.159   304.099   216.873     2.205    10.226    22.129
   82.40     7.577   270.000    40.159   304.099   216.089     2.168    10.025    22.129
   82.45    25.028   298.000    40.570   303.525   207.941     2.139    10.461    22.400
   82.50    21.150   282.000    40.570   304.099   212.329     2.109     9.976    22.022
   82.55    21.150   305.000    38.925   303.525   212.329     2.064    10.329    22.904
   82.60    13.394   331.000    40.570   304.672   218.440     2.057     9.976    22.345
   82.65     7.577   273.000    40.981   304.099   215.149     2.051    10.277    22.455
   82.70     9.516   285.000    40.570   304.672   207.314     2.122    10.303    22.291
   82.75    17.272   279.000    41.392   304.099   214.522     2.161    10.461    22.129
   82.80     7.577   297.000    42.626   303.525   209.195     2.235    10.625    22.734
   82.85     7.577   319.000    41.803   303.525   208.568     2.289    10.625    22.182
   82.90    17.272   342.000    42.626   303.525   209.508     2.338    10.850    22.345
   82.95    28.906   329.000    42.626   303.525   212.799     2.350    10.461    22.400
   83.00    11.455   340.000    43.037   303.525   216.089     2.348    10.461    22.790
   83.05    17.272   323.000    42.215   304.099   213.739     2.349    10.765    22.291
   83.10    17.272   328.000    42.626   304.672   211.232     2.273    10.765    22.790
   83.15    21.150   337.000    40.570   304.099   210.762     2.310    11.147    22.455
   83.20    17.272   346.000    43.859   304.672   208.254     2.277    11.459    22.455
   83.25    13.394   348.000    43.037   302.952   210.291     2.235    11.177    23.019
   83.30     7.577   350.000    43.037   304.672   208.881     2.178    11.492    22.566
   83.35     7.577   366.000    43.037   306.393   198.852     2.140    10.938    23.371
   83.40    13.394   355.000    43.037   305.819   203.083     2.146    11.492    22.678
   83.45    21.150   337.000    44.682   304.672   207.157     2.183    11.492    22.678
   83.50     7.577   374.000    44.682   306.393   205.747     2.185    11.427    23.371
   83.55    17.272   417.000    43.859   305.246   209.351     2.235    11.928    22.734
   83.60     7.577   389.000    45.093   305.246   203.710     2.255    12.324    22.734
   83.65    17.272   381.000    46.326   304.672   204.964     2.289    11.893    22.734
   83.70    13.394   379.000    44.682   303.525   209.351     2.322    11.824    23.019
   83.75    17.272   411.000    43.859   305.819   210.605     2.315    11.963    22.790
   83.80    21.150   435.000    47.971   306.393   204.964     2.335    12.069    22.962
   83.85     3.699   446.000    45.915   303.525   214.836     2.386    12.250    23.019
   83.90    17.272   459.000    47.149   302.952   213.112     2.406    12.324    22.962
   83.95     3.699   456.000    48.794   305.819   209.351     2.405    12.436    22.904
   84.00    13.394   455.000    47.560   304.672   210.135     2.379    12.707    22.566
   84.05    13.394   418.000    46.738   305.246   212.955     2.385    12.628    23.252
   84.10     7.577   411.000    48.794   305.246   208.881     2.349    12.628    23.019
   84.15     3.699   392.000    49.205   306.393   208.568     2.321    12.324    23.490
   84.20     3.699   385.000    49.616   306.393   210.448     2.301    12.324    22.236
   84.25    13.394   338.000    48.794   305.819   206.374     2.312    12.213    22.455
   84.30     7.577   374.000    47.149   305.246   201.046     2.365    12.361    23.490
   84.35     7.577   374.000    49.205   305.246   208.411     2.355    12.512    22.566
   84.40     7.577   368.000    48.382   304.672   209.821     2.373    12.867    23.252
   84.45     7.577   314.000    48.382   304.099   209.665     2.360    12.551    22.904
   84.50     7.577   400.000    49.205   301.231   217.186     2.314    12.287    22.962
   84.55     7.577   339.000    49.205   304.099   213.425     2.283    12.474    23.194
   84.60    -0.179   377.000    46.326   305.246   210.291     2.234    12.287    23.430
   84.65    11.455   385.000    48.382   302.378   199.166     2.224    12.590    22.790
   84.70    13.394   349.000    48.794   302.952   210.448     2.173    12.551    23.371
   84.75    13.394   411.000    47.149   305.246   209.665     2.121    12.827    22.566
   84.80     7.577   422.000    48.794   305.246   205.120     2.124    12.949    22.962
   84.85    21.150   421.000    48.382   305.246   208.411     2.122    12.949    23.019
   84.90    25.028   437.000    49.205   306.393   206.217     2.153    12.628    23.311
   84.95    13.394   483.000    48.794   304.672   198.696     2.246    12.867    23.135
   85.00    17.272   492.000    48.382   306.393   209.195     2.245    12.324    22.847
   85.05    17.272   484.000    48.794   304.672   204.807     2.317    12.398    23.194
   85.10    13.394   460.000    48.794   305.819   213.112     2.313    12.250    23.855
   85.15     7.577   440.000    50.027   304.099   210.448     2.309    12.551    22.790
   85.20     7.577   404.000    50.438   305.246   205.434     2.294    12.474    23.252
   85.25    21.150   357.000    47.560   302.952   207.001     2.299    12.324    22.622
   85.30    17.272   364.000    47.971   303.525   218.910     2.326    12.213    23.371
   85.35    21.150   320.000    48.794   302.378   207.157     2.294    12.105    22.678
   85.40    17.272   302.000    46.326   303.525   215.933     2.279    12.141    22.847
   85.45    17.272   319.000    48.382   302.952   214.679     2.256    11.859    22.510
   85.50    21.150   322.000    47.971   304.099   214.366     2.211    11.689    22.790
