~Version Information
VERS.    1.20:   CWLS log ASCII Standard - version 1.20
WRAP.      NO:   one line per depth step
~Well Information
#MNEM.UNIT     Data Type     Information
#_________     _________     ________________________
 STRT.M            0.000:
 STOP.M          245.550:
 STEP.M            0.050:
 NULL.              -0.0:
 COMP.           COMPANY: KANGARILLA DRILLING
 WELL.              WELL: PN103351
 FLD.              FIELD: OBSERVATION WELL
 LOC.           LOCATION:
 CNTY.            COUNTY:
 STAT.             STATE:
 CTRY.           COUNTRY:
 SRVC.   SERVICE COMPANY:    DEPARTMENT OF WATER, LAND/ and Biodiversity Conservation
 DATE.          LOG DATE: 15/12/2004
 UWI.     UNIQUE WELL ID: unknown
~Curve Information
#MNEM.UNIT       Curve  Information
#_________       _____  ___________________
 DEPT.M        :    1   DEPTH
 Gamm.API      :    2   Gamma
 Neut.CPS      :    3   Neutron
 SP  .MILLIVOLTS :    4   SP
 PR  .OHM      :    5   PR
 Cali.mm       :    6   Caliper
 Dens.g/cc     :    7   Density
 MED_.ohm/m    :    8   MED_INDU
 DEEP.ohm/m    :    9   DEEP_IND
~Parameter Information
#MNEM.UNIT       Value        Information
#_________     _________     ________________________
 LMF .       G.L. : Log Measured From
~Other Information
#MNEM.                 Description        Information
#_________            _____________     ________________________
 ENGI.                     Operator : V.Freschi
 LUN .                      Vehicle : T3362
 LATI.                     Latitude : 54H 0278156
 LONG.                    Longitude : 6142207
 TDD .                Depth Driller : 245M
 TDL .                 Depth Logger : 245.55
 BS  .                     Bit Size : 8" OPEN HOLE
 WITN.                      Witness : A FORBES
 COMM.                      comment : WINGFIELD
 JOBN.                     Job Name : 7086
#
 Azimuth degrees.                 relative to  : magnetic north
#
#
# conversion formula for CALIPER mm
#    where V = reading
#    -114.3909988403 + 0.1567000002*V
#
# conversion formula for DENSITY g/cc
#    where L = ln(reading)
#    19.1588001251 - 1.7809599638*L
#
# conversion formula for GAMMA API
#    where V = reading
#    -0.1789000034 + 1.9390000105*V
#
# conversion formula for  cps,ohm/m
#    where V = reading
#    0 + 1*V
#
# calculated values formula is :
#    1000/(V1*(V1*0.0000002+0.244)-412.12),1000/(V2*(V2*0.00002+0.067)-48.849)
#
# conversion formula for  cps,ohm/m
#    where V = reading
#    0 + 1*V
#
# calculated values formula is :
#    1000/(V1*(V1*0.0000002+0.244)-421.12),1000/(V2*(V2*0.00002+0.067)-48.849)
#
# conversion formula for NEUTRON CPS
#    where V = reading
#    1 + 1*V
#
# conversion formula for POINT-RESIS OHM
#    where V = reading
#    -141.5144042969 + 0.5735049844*V
#
# conversion formula for SPON-POT MILLIVOLTS
#    where V = reading
#    -817.1540527344 + 0.4111811817*V
#
~A Depth      Gamm      Neut      SP        PR        Cali      Dens      MED_      DEEP
# ...
   99.05    38.601   234.000    40.981   302.378   222.827     2.025    10.175    22.962
   99.10    25.028   244.000    42.626   300.084   214.052     2.004    10.408    22.962
   99.15    34.723   233.000    42.215   301.805   209.038     2.046    10.680    22.790
   99.20    32.784   221.000    43.037   302.378   215.933     2.144    10.488    22.734
   99.25    25.028   264.000    41.803   301.231   217.656     2.200    11.116    22.734
   99.30    13.394   272.000    42.626   300.084   209.038     2.247    10.765    22.904
   99.35    15.333   261.000    42.626   301.231   211.702     2.216    10.822    23.252
   99.40    32.784   246.000    45.093   302.378   214.679     2.228    10.822    22.790
   99.45    25.028   271.000    44.682   301.231   212.485     2.269    10.570    23.135
   99.50    17.272   271.000    45.915   302.952   216.716     2.266    10.652    23.135
   99.55    36.662   276.000    45.915   301.805   215.306     2.272    10.879    23.135
   99.60    17.272   244.000    44.682   302.952   216.403     2.256    10.570    23.135
   99.65    30.845   258.000    46.326   302.378   209.665     2.227    10.570    22.622
   99.70    32.784   260.000    45.915   302.378   211.702     2.228    10.736    22.904
   99.75    36.662   253.000    45.504   302.952   215.463     2.228    10.461    23.610
   99.80    21.150   264.000    43.859   302.378   216.246     2.196    10.822    22.790
   99.85    21.150   270.000    44.271   302.952   209.195     2.235    10.303    22.790
   99.90    28.906   251.000    47.149   304.099   212.485     2.252    10.277    22.847
   99.95    28.906   264.000    45.915   303.525   214.209     2.251    10.303    22.566
  100.00    17.272   262.000    46.326   302.378   216.246     2.288    10.303    22.455
  100.05    17.272   226.000    44.271   303.525   213.582     2.265    10.408    22.790
  100.10    28.906   246.000    44.682   304.099   214.209     2.250    10.488    21.759
  100.15    34.723   227.000    45.093   303.525   218.910     2.238    10.382    22.962
  100.20    32.784   225.000    45.504   303.525   208.881     2.215     9.927    22.129
  100.25    25.028   220.000    45.915   304.099   216.246     2.179    10.074    22.291
  100.30    25.028   221.000    45.093   300.084   210.135     2.176    10.050    22.510
  100.35    34.723   268.000    43.859   303.525   212.172     2.187    10.025    22.566
  100.40    28.906   231.000    45.093   303.525   207.001     2.169    10.099    22.291
  100.45    32.784   271.000    43.448   302.952   212.642     2.168    10.226    23.252
  100.50    34.723   220.000    44.271   303.525   208.098     2.152    10.277    22.022
  100.55    28.906   203.000    42.215   303.525   210.605     2.153     9.927    22.455
  100.60    32.784   228.000    43.448   302.952   216.403     2.177     9.927    22.236
  100.65    34.723   216.000    42.215   302.952   214.366     2.137    10.175    22.236
  100.70    32.784   209.000    43.859   304.099   219.223     2.218     9.879    22.790
  100.75    32.784   205.000    42.215   302.378   211.388     2.200    10.175    22.182
  100.80    36.662   212.000    43.859   302.952   217.030     2.215     9.903    22.455
  100.85    56.052   194.000    41.803   303.525   217.186     2.192    10.461    22.847
  100.90    59.930   207.000    42.215   303.525   218.597     2.209    10.355    22.291
  100.95    32.784   210.000    42.626   302.952   219.693     2.227    10.597    22.790
  101.00    63.808   201.000    43.859   302.952   212.799     2.185    10.074    22.345
  101.05    50.235   196.000    43.037   302.952   215.306     2.206    10.074    22.236
  101.10    42.479   181.000    40.981   302.378   221.417     2.191     9.927    22.400
  101.15    54.113   199.000    42.215   301.231   217.970     2.207    10.303    22.790
  101.20    25.028   207.000    43.037   302.952   218.753     2.190    10.277    22.236
  101.25    50.235   205.000    41.392   302.952   214.052     2.226    10.461    23.671
  101.30    38.601   226.000    41.803   302.378   217.970     2.193    10.461    22.236
  101.35    46.357   220.000    42.626   302.378   213.425     2.182    10.708    23.019
  101.40    34.723   254.000    43.448   303.525   222.357     2.169    10.542    22.510
  101.45    42.479   242.000    43.448   302.378   216.089     2.201    10.515    22.566
  101.50    42.479   234.000    43.037   303.525   214.052     2.179    10.793    22.566
  101.55    57.991   263.000    41.392   304.099   217.186     2.200    10.680    22.790
  101.60    57.991   241.000    44.271   303.525   220.477     2.155    10.822    22.678
  101.65    42.479   261.000    39.336   305.819   210.135     2.181    10.680    22.904
  101.70    38.601   275.000    45.093   304.099   221.104     2.162    10.938    22.345
  101.75    54.113   244.000    45.093   304.099   217.186     2.182    10.765    23.732
  101.80    28.906   227.000    44.682   303.525   223.298     2.164    10.488    23.135
  101.85    56.052   251.000    45.093   304.099   217.186     2.185    10.597    22.622
  101.90    28.906   239.000    44.271   302.952   220.634     2.222    10.765    22.904
  101.95    28.906   269.000    44.682   304.099   219.537     2.245    10.435    22.962
  102.00    28.906   281.000    45.093   302.378   221.260     2.295    11.998    22.345
  102.05    21.150   253.000    45.915   304.099   223.611     2.306    10.736    23.490
  102.10    25.028   280.000    47.149   303.525   220.477     2.270    10.967    22.904
  102.15    28.906   273.000    45.504   304.099   225.961     2.256    10.938    22.904
  102.20    26.967   265.000    46.326   304.099   221.260     2.219    10.570    23.371
  102.25    36.662   257.000    45.915   301.231   218.597     2.196    10.765    22.904
  102.30    28.906   269.000    45.093   302.952   210.605     2.123    10.765    22.904
  102.35    28.906   233.000    44.682   304.672   220.790     2.108    10.625    22.847
  102.40    34.723   268.000    45.915   301.805   213.896     2.171    10.680    22.566
  102.45    21.150   263.000    46.738   303.525   214.052     2.146    10.938    23.019
  102.50    32.784   271.000    43.037   300.084   215.306     2.181    11.026    23.019
  102.55    34.723   303.000    44.682   303.525   217.030     2.174    10.435    22.847
  102.60    40.540   259.000    45.504   303.525   211.232     2.190    10.355    23.135
  102.65    36.662   274.000    45.093   302.952   225.961     2.199    10.408    22.566
  102.70    13.394   285.000    45.915   301.231   227.685     2.232    10.277    23.019
  102.75    32.784   236.000    45.504   302.378   221.731     2.173    10.488    22.734
  102.80    25.028   241.000    44.271   301.231   218.597     2.223    10.488    22.734
  102.85    32.784   232.000    46.326   302.952   214.052     2.202    10.652    23.077
  102.90    21.150   271.000    45.504   302.952   219.693     2.268    10.879    22.962
  102.95    38.601   264.000    45.915   302.378   221.104     2.271    10.765    22.678
  103.00    28.906   231.000    45.504   303.525   219.850     2.256    10.625    23.135
  103.05    34.723   279.000    44.271   301.805   216.089     2.272    10.435    22.236
  103.10    25.028   246.000    45.093   303.525   213.425     2.223    10.793    23.194
  103.15    25.028   254.000    46.326   301.231   214.052     2.168    10.570    23.135
  103.20    21.150   252.000    45.504   301.805   215.619     2.157    10.408    23.135
  103.25    17.272   273.000    45.504   301.231   212.955     2.111    10.680    22.962
  103.30    25.028   286.000    45.093   301.805   217.343     2.124    10.879    23.135
  103.35    38.601   258.000    45.504   301.231   214.366     2.103    10.488    22.678
  103.40    25.028   275.000    45.504   302.378   217.970     2.180    10.597    23.671
  103.45    21.150   220.000    45.504   302.952   213.739     2.225    10.226    23.194
  103.50    28.906   261.000    45.915   301.805   208.254     2.221    10.625    22.678
