~Version Information
VERS.    1.20:   CWLS log ASCII Standard - version 1.20
WRAP.      NO:   one line per depth step
~Well Information
#MNEM.UNIT     Data Type     Information
#_________     _________     ________________________
 STRT.M            0.000:
 STOP.M          245.550:
 STEP.M            0.050:
 NULL.              -0.0:
 COMP.           COMPANY: KANGARILLA DRILLING
 WELL.              WELL: PN103351
 FLD.              FIELD: OBSERVATION WELL
 LOC.           LOCATION:
 CNTY.            COUNTY:
 STAT.             STATE:
 CTRY.           COUNTRY:
 SRVC.   SERVICE COMPANY:    DEPARTMENT OF WATER, LAND/ and Biodiversity Conservation
 DATE.          LOG DATE: 15/12/2004
 UWI.     UNIQUE WELL ID: unknown
~Curve Information
#MNEM.UNIT       Curve  Information
#_________       _____  ___________________
 DEPT.M        :    1   DEPTH
 Gamm.API      :    2   Gamma
 Neut.CPS      :    3   Neutron
 SP  .MILLIVOLTS :    4   SP
 PR  .OHM      :    5   PR
 Cali.mm       :    6   Caliper
 Dens.g/cc     :    7   Density
 MED_.ohm/m    :    8   MED_INDU
 DEEP.ohm/m    :    9   DEEP_IND
~Parameter Information
#MNEM.UNIT       Value        Information
#_________     _________     ________________________
 LMF .       G.L. : Log Measured From
~Other Information
#MNEM.                 Description        Information
#_________            _____________     ________________________
 ENGI.                     Operator : V.Freschi
 LUN .                      Vehicle : T3362
 LATI.                     Latitude : 54H 0278156
 LONG.                    Longitude : 6142207
 TDD .                Depth Driller : 245M
 TDL .                 Depth Logger : 245.55
 BS  .                     Bit Size : 8" OPEN HOLE
 WITN.                      Witness : A FORBES
 COMM.                      comment : WINGFIELD
 JOBN.                     Job Name : 7086
#
 Azimuth degrees.                 relative to  : magnetic north
#
#
# conversion formula for CALIPER mm
#    where V = reading
#    -114.3909988403 + 0.1567000002*V
#
# conversion formula for DENSITY g/cc
#    where L = ln(reading)
#    19.1588001251 - 1.7809599638*L
#
# conversion formula for GAMMA API
#    where V = reading
#    -0.1789000034 + 1.9390000105*V
#
# conversion formula for  cps,ohm/m
#    where V = reading
#    0 + 1*V
#
# calculated values formula is :
#    1000/(V1*(V1*0.0000002+0.244)-412.12),1000/(V2*(V2*0.00002+0.067)-48.849)
#
# conversion formula for  cps,ohm/m
#    where V = reading
#    0 + 1*V
#
# calculated values formula is :
#    1000/(V1*(V1*0.0000002+0.244)-421.12),1000/(V2*(V2*0.00002+0.067)-48.849)
#
# conversion formula for NEUTRON CPS
#    where V = reading
#    1 + 1*V
#
# conversion formula for POINT-RESIS OHM
#    where V = reading
#    -141.5144042969 + 0.5735049844*V
#
# conversion formula for SPON-POT MILLIVOLTS
#    where V = reading
#    -817.1540527344 + 0.4111811817*V
#
~A Depth      Gamm      Neut      SP        PR        Cali      Dens      MED_      DEEP
# ...
  225.05    25.028   270.000    29.057   286.320   208.724     2.301    10.879    23.252
  225.10    63.808   255.000    28.646   286.320   213.112     2.277    11.026    23.430
  225.15    44.418   281.000    28.234   285.173   210.291     2.326    10.488    22.904
  225.20    40.540   248.000    27.823   286.320   210.448     2.325    10.382    23.019
  225.25    40.540   254.000    27.412   287.467   200.576     2.336    10.149    23.019
  225.30    50.235   229.000    27.001   286.320   209.351     2.341    10.074    21.916
  225.35    44.418   219.000    25.356   285.747   207.001     2.323    10.099    22.566
  225.40    44.418   256.000    26.179   286.320   210.605     2.273     9.669    21.655
  225.45    57.991   255.000    24.123   283.453   205.747     2.275     9.952    21.916
  225.50    59.930   244.000    25.767   285.173   204.807     2.268     9.976    21.969
  225.55    36.662   243.000    26.179   286.320   206.217     2.258     9.738    21.707
  225.60    32.784   254.000    25.356   285.173   203.397     2.221     9.646    21.969
  225.65    28.906   242.000    26.590   285.173   204.807     2.213     9.646    21.863
  225.70    52.174   256.000    26.179   286.894   204.494     2.229     9.467    21.863
  225.75    38.601   281.000    25.767   286.320   198.539     2.299     9.489    21.655
  225.80    21.150   236.000    25.767   285.747   208.411     2.312     9.337    20.526
  225.85    40.540   242.000    24.945   287.467   202.927     2.359     9.149    20.526
  225.90    48.296   253.000    24.123   284.026   206.531     2.361     9.253    20.526
  225.95    50.235   216.000    22.478   285.173   206.844     2.326     8.909    19.544
  226.00    32.784   187.000    22.889   285.173   206.531     2.277     8.738    19.935
  226.05    32.784   219.000    21.656   286.320   201.986     2.220     8.501    18.762
  226.10    36.662   213.000    21.244   285.173   201.203     2.238     8.362    18.489
  226.15    21.150   188.000    22.067   285.173   202.613     2.188     8.261    18.684
  226.20    52.174   185.000    20.833   286.320   205.120     2.184     8.345    18.298
  226.25    38.601   238.000    19.188   285.173   201.830     2.197     8.397    18.684
  226.30    48.296   170.000    19.188   285.173   201.360     2.167     8.397    18.644
  226.35    25.028   225.000    20.833   285.173   206.061     2.155     8.311    18.336
  226.40    19.211   202.000    18.366   286.320   204.807     2.160     8.345    19.003
  226.45    38.601   202.000    19.188   284.026   204.494     2.187     8.113    18.450
  226.50    36.662   223.000    20.422   284.026   211.075     2.232     8.311    18.412
  226.55    57.991   219.000    16.721   286.320   207.314     2.236     8.211    18.298
  226.60    32.784   190.000    20.011   285.173   207.628     2.251     8.311    18.000
  226.65    36.662   210.000    18.777   286.320   198.852     2.255     8.311    18.412
  226.70    36.662   222.000    20.011   284.026   203.867     2.250     8.362    18.000
  226.75    32.784   187.000    18.366   286.320   209.978     2.201     8.294    18.336
  226.80    36.662   213.000    19.188   285.173   204.180     2.156     8.145    18.762
  226.85    23.089   220.000    18.366   286.320   200.889     2.144     8.002    18.260
  226.90    23.089   204.000    19.600   284.026   204.494     2.159     8.145    18.260
  226.95    23.089   205.000    19.188   284.026   204.807     2.168     8.261    18.412
  227.00    40.540   212.000    19.600   285.173   200.889     2.126     8.277    18.566
  227.05    23.089   204.000    17.133   285.173   205.434     2.161     8.362    19.291
  227.10    32.784   194.000    17.544   286.320   201.986     2.171     8.397    19.084
  227.15    25.028   192.000    18.777   285.173   205.590     2.209     8.591    19.629
  227.20    26.967   208.000    17.544   286.320   206.531     2.245     8.431    19.587
  227.25    30.845   240.000    17.544   286.320   208.098     2.254     8.311    18.723
  227.30    32.784   218.000    20.011   284.600   214.052     2.276     8.244    19.208
  227.35    40.540   231.000    19.600   284.026   205.277     2.270     8.379    19.332
  227.40    26.967   227.000    18.777   284.026   206.217     2.229     8.664    19.044
  227.45    40.540   237.000    17.955   285.747   210.918     2.210     8.664    19.716
  227.50    25.028   227.000    20.422   286.320   207.157     2.193     8.832    19.291
  227.55    42.479   229.000    18.777   285.173   206.687     2.242     8.519    19.332
  227.60    19.211   181.000    17.955   282.879   208.098     2.245     8.501    19.673
  227.65    36.662   231.000    17.955   282.306   199.793     2.246     8.519    19.673
  227.70    21.150   196.000    17.544   285.173   209.508     2.270     8.519    19.291
  227.75    30.845   239.000    19.188   285.747   207.784     2.276     8.362    19.044
  227.80    19.211   215.000    18.777   287.467   210.605     2.270     8.328    18.762
  227.85    25.028   187.000    18.777   286.320   206.531     2.214     8.519    18.762
  227.90    34.723   221.000    17.544   286.320   214.209     2.179     8.519    18.566
  227.95    38.601   169.000    18.366   285.173   204.337     2.139     8.519    18.962
  228.00    25.028   166.000    17.544   283.453   214.052     2.172     8.414    19.125
  228.05    25.028   229.000    18.366   282.879   207.471     2.188     8.328    18.922
  228.10    34.723   220.000    17.133   286.320   203.083     2.179     8.397    19.125
  228.15    36.662   217.000    17.544   287.467   211.075     2.176     8.244    18.644
  228.20    25.028   188.000    17.544   283.453   211.075     2.207     8.162    18.566
  228.25    19.211   204.000    18.366   284.026   205.434     2.133     8.414    19.166
  228.30    30.845   177.000    17.544   283.453   217.656     2.093     8.414    18.802
  228.35    32.784   183.000    17.544   285.173   205.904     2.094     8.537    19.125
  228.40    28.906   209.000    16.721   285.173   208.881     2.059     8.345    19.459
  228.45    34.723   196.000    17.955   284.026   207.314     2.029     8.194    18.922
  228.50    23.089   213.000    19.600   285.173   193.995     2.076     8.345    18.962
  228.55    21.150   194.000    18.366   286.320   204.337     2.078     8.328    18.962
  228.60    19.211   219.000    17.955   286.320   206.531     2.129     8.466    18.566
  228.65    38.601   206.000    18.777   285.173   198.069     2.141     8.484    18.684
  228.70    36.662   192.000    17.955   282.879   206.687     2.185     8.311    18.412
  228.75    23.089   173.000    17.133   286.320   203.553     2.212     8.645    18.723
  228.80    23.089   198.000    17.544   284.026   208.098     2.240     8.519    18.762
  228.85    28.906   225.000    17.544   286.320   208.568     2.242     8.591    18.723
  228.90    26.967   187.000    16.721   285.747   201.360     2.260     8.591    19.208
  228.95    28.906   198.000    17.544   284.026   205.747     2.267     8.627    19.084
  229.00    26.967   211.000    15.899   286.320   201.986     2.253     8.627    19.044
  229.05    32.784   177.000    16.721   285.173   203.083     2.277     8.519    19.459
  229.10    23.089   187.000    15.899   284.026   207.314     2.234     8.627    18.566
  229.15    32.784   208.000    17.544   284.600   200.733     2.272     8.701    19.803
  229.20    28.906   213.000    16.310   285.173   205.434     2.226     8.627    19.803
  229.25    15.333   185.000    17.133   282.306   199.166     2.225     8.627    19.332
  229.30    25.028   227.000    16.721   285.173   202.927     2.214     8.627    20.114
  229.35    30.845   264.000    18.366   287.467   199.793     2.241     8.664    19.629
  229.40    17.272   246.000    18.366   285.173   205.590     2.220     8.852    19.935
  229.45     7.577   260.000    17.955   284.026   206.061     2.212     9.008    20.341
  229.50    26.967   264.000    17.133   286.320   206.061     2.212     8.890    20.249
