~Version Information
VERS.    1.20:   CWLS log ASCII Standard - version 1.20
WRAP.      NO:   one line per depth step
~Well Information
#MNEM.UNIT     Data Type     Information
#_________     _________     ________________________
 STRT.M            0.000:
 STOP.M          245.550:
 STEP.M            0.050:
 NULL.              -0.0:
 COMP.           COMPANY: KANGARILLA DRILLING
 WELL.              WELL: PN103351
 FLD.              FIELD: OBSERVATION WELL
 LOC.           LOCATION:
 CNTY.            COUNTY:
 STAT.             STATE:
 CTRY.           COUNTRY:
 SRVC.   SERVICE COMPANY:    DEPARTMENT OF WATER, LAND/ and Biodiversity Conservation
 DATE.          LOG DATE: 15/12/2004
 UWI.     UNIQUE WELL ID: unknown
~Curve Information
#MNEM.UNIT       Curve  Information
#_________       _____  ___________________
 DEPT.M        :    1   DEPTH
 Gamm.API      :    2   Gamma
 Neut.CPS      :    3   Neutron
 SP  .MILLIVOLTS :    4   SP
 PR  .OHM      :    5   PR
 Cali.mm       :    6   Caliper
 Dens.g/cc     :    7   Density
 MED_.ohm/m    :    8   MED_INDU
 DEEP.ohm/m    :    9   DEEP_IND
~Parameter Information
#MNEM.UNIT       Value        Information
#_________     _________     ________________________
 LMF .       G.L. : Log Measured From
~Other Information
#MNEM.                 Description        Information
#_________            _____________     ________________________
 ENGI.                     Operator : V.Freschi
 LUN .                      Vehicle : T3362
 LATI.                     Latitude : 54H 0278156
 LONG.                    Longitude : 6142207
 TDD .                Depth Driller : 245M
 TDL .                 Depth Logger : 245.55
 BS  .                     Bit Size : 8" OPEN HOLE
 WITN.                      Witness : A FORBES
 COMM.                      comment : WINGFIELD
 JOBN.                     Job Name : 7086
#
 Azimuth degrees.                 relative to  : magnetic north
#
#
# conversion formula for CALIPER mm
#    where V = reading
#    -114.3909988403 + 0.1567000002*V
#
# conversion formula for DENSITY g/cc
#    where L = ln(reading)
#    19.1588001251 - 1.7809599638*L
#
# conversion formula for GAMMA API
#    where V = reading
#    -0.1789000034 + 1.9390000105*V
#
# conversion formula for  cps,ohm/m
#    where V = reading
#    0 + 1*V
#
# calculated values formula is :
#    1000/(V1*(V1*0.0000002+0.244)-412.12),1000/(V2*(V2*0.00002+0.067)-48.849)
#
# conversion formula for  cps,ohm/m
#    where V = reading
#    0 + 1*V
#
# calculated values formula is :
#    1000/(V1*(V1*0.0000002+0.244)-421.12),1000/(V2*(V2*0.00002+0.067)-48.849)
#
# conversion formula for NEUTRON CPS
#    where V = reading
#    1 + 1*V
#
# conversion formula for POINT-RESIS OHM
#    where V = reading
#    -141.5144042969 + 0.5735049844*V
#
# conversion formula for SPON-POT MILLIVOLTS
#    where V = reading
#    -817.1540527344 + 0.4111811817*V
#
~A Depth      Gamm      Neut      SP        PR        Cali      Dens      MED_      DEEP
# ...
   63.05    40.540   202.000    18.777   304.672   210.762     2.242     7.262    16.413
   63.10    52.174   196.000    17.133   304.672   211.545     2.280     7.353    15.989
   63.15    44.418   215.000    18.366   302.378   212.799     2.301     7.098    16.413
   63.20    40.540   215.000    17.544   303.525   214.209     2.294     7.135    15.698
   63.25    28.906   179.000    16.721   304.099   212.172     2.277     7.185    15.755
   63.30    56.052   204.000    15.488   304.672   213.112     2.275     7.160    15.871
   63.35    44.418   177.000    17.133   304.672   212.172     2.266     7.147    15.416
   63.40    65.747   173.000    15.899   303.525   217.813     2.276     7.122    15.584
   63.45    40.540   198.000    17.133   302.378   219.850     2.274     7.223    15.698
   63.50    48.296   173.000    17.133   301.805   215.619     2.267     7.147    15.444
   63.55    54.113   190.000    17.955   302.378   217.970     2.276     6.988    15.784
   63.60    48.296   186.000    16.310   301.805   221.417     2.254     6.953    15.198
   63.65    48.296   162.000    17.544   304.672   225.178     2.258     6.988    15.472
   63.70    48.296   177.000    17.133   302.952   230.662     2.273     7.098    15.556
   63.75    48.296   165.000    17.133   302.952   225.648     2.278     7.122    15.472
   63.80    40.540   165.000    17.133   303.525   222.984     2.253     7.135    15.813
   63.85    40.540   187.000    16.721   303.525   226.588     2.252     7.172    15.556
   63.90    54.113   162.000    15.899   302.952   230.819     2.239     7.172    15.727
   63.95    48.296   194.000    16.310   303.525   227.842     2.218     7.249    15.784
   64.00    65.747   167.000    15.488   302.378   230.036     2.267     7.049    15.584
   64.05    59.930   188.000    16.310   302.952   233.013     2.240     7.024    15.989
   64.10    57.991   177.000    16.310   301.805   215.463     2.248     7.049    15.930
   64.15    52.174   177.000    15.077   301.805   217.186     2.192     7.275    15.755
   64.20    48.296   185.000    17.133   302.952   230.976     2.230     7.223    16.290
   64.25    69.625   181.000    16.721   302.952   234.267     2.238     7.340    16.078
   64.30    75.442   179.000    17.544   302.952   222.201     2.275     7.314    16.351
   64.35    40.540   181.000    16.310   302.952   237.714     2.298     7.275    16.570
   64.40    56.052   177.000    17.133   302.952   230.662     2.306     7.407    16.538
   64.45    40.540   179.000    15.899   304.099   246.332     2.284     7.223    16.538
   64.50    52.174   177.000    17.544   304.099   241.475     2.289     7.380    16.826
   64.55    36.662   160.000    15.899   302.952   227.372     2.265     7.198    16.351
   64.60    50.235   198.000    17.133   304.099   230.976     2.263     7.380    16.761
   64.65    40.540   160.000    16.310   302.952   218.753     2.230     7.301    16.413
   64.70    48.296   177.000    17.133   302.952   210.918     2.205     7.380    16.351
   64.75    54.113   181.000    15.899   301.805   214.679     2.161     7.366    16.538
   64.80    48.296   185.000    16.721   302.952   212.485     2.173     7.380    16.538
   64.85    32.784   196.000    16.310   302.952   216.873     2.126     7.198    16.990
   64.90    56.052   168.000    16.721   301.805   222.357     2.134     7.340    16.601
   64.95    42.479   202.000    15.077   302.952   212.329     2.196     7.288    16.924
   65.00    40.540   210.000    16.310   300.084   216.246     2.246     7.407    17.395
   65.05    52.174   200.000    15.899   301.805   216.403     2.300     7.642    17.056
   65.10    32.784   192.000    15.077   304.099   219.067     2.307     7.657    17.258
   65.15    65.747   215.000    11.787   302.952   220.320     2.316     7.516    17.604
   65.20    36.662   218.000     8.909   302.952   221.417     2.323     7.516    17.224
   65.25    44.418   222.000    10.965   303.525   224.081     2.331     7.474    17.258
   65.30    46.357   255.000    11.787   303.525   222.984     2.342     7.516    17.156
   65.35    48.296   234.000    10.965   304.672   219.537     2.290     7.407    17.326
   65.40    44.418   196.000    16.310   304.672   215.463     2.333     7.461    17.326
   65.45    46.357   238.000    16.310   304.099   218.283     2.329     7.488    16.633
   65.50    25.028   224.000    17.133   305.246   223.768     2.312     7.353    16.538
   65.55    52.174   225.000    17.133   304.672   214.836     2.310     7.447    16.476
   65.60    44.418   209.000    18.777   304.672   217.970     2.316     7.420    16.229
   65.65    50.235   196.000    16.721   304.099   223.611     2.317     7.340    16.229
   65.70    40.540   218.000    16.310   302.378   218.283     2.252     7.288    16.413
   65.75    44.418   220.000    17.133   303.525   220.790     2.318     7.288    15.871
   65.80    40.540   223.000    16.721   304.099   213.582     2.301     7.098    16.290
   65.85    36.662   188.000    16.310   302.378   220.320     2.268     7.122    15.871
   65.90    40.540   229.000    16.310   304.672   216.089     2.276     7.135    15.930
   65.95    40.540   196.000    17.133   301.805   211.388     2.283     7.236    15.930
   66.00    61.869   214.000    16.721   304.099   214.366     2.290     7.223    15.472
   66.05    44.418   204.000    17.133   303.525   214.522     2.285     7.147    15.813
   66.10    63.808   194.000    16.310   304.672   213.896     2.263     7.085    15.784
   66.15    40.540   214.000    17.544   302.952   205.120     2.278     7.073    15.472
   66.20    57.991   204.000    17.133   302.952   219.380     2.245     7.049    16.078
   66.25    59.930   198.000    17.544   302.952   212.799     2.288     7.049    15.556
   66.30    54.113   171.000    17.133   302.378   215.149     2.261     7.135    15.472
   66.35    48.296   171.000    14.665   303.525   218.910     2.252     7.262    15.842
   66.40    44.418   173.000    13.432   302.952   220.320     2.238     7.236    15.698
   66.45    75.442   166.000    12.198   302.378   226.588     2.279     7.327    15.698
   66.50    36.662   167.000    14.254   301.805   221.417     2.261     7.073    15.755
   66.55    40.540   163.000    16.310   302.952   222.357     2.248     7.327    15.959
   66.60    44.418   149.000    15.077   301.805   225.021     2.256     7.160    16.229
   66.65    75.442   169.000    16.310   300.658   231.133     2.241     7.353    16.351
   66.70    52.174   165.000    17.133   302.952   232.700     2.302     7.223    16.351
   66.75    57.991   179.000    17.544   302.952   228.939     2.279     7.223    16.793
   66.80    50.235   162.000    18.366   302.378   222.827     2.263     7.529    16.413
   66.85    44.418   177.000    18.366   302.378   218.753     2.266     7.543    17.190
   66.90    32.784   175.000    15.899   301.231   222.827     2.256     7.571    17.156
   66.95    73.503   190.000    17.955   302.952   220.634     2.263     7.600    17.156
   67.00    57.991   148.000    15.899   301.805   229.566     2.276     7.516    17.326
   67.05    56.052   196.000    17.955   302.378   226.118     2.325     7.571    17.710
   67.10    69.625   167.000    17.544   302.952   220.947     2.295     7.773    18.298
   67.15    38.601   172.000    15.077   302.952   222.357     2.301     7.878    18.644
   67.20    36.662   200.000    13.432   302.952   222.514     2.328     7.924    17.963
   67.25    52.174   233.000    14.665   302.952   223.298     2.318     8.081    18.336
   67.30    59.930   173.000    13.432   301.805   209.821     2.295     8.081    18.723
   67.35    54.113   223.000    17.544   302.952   216.559     2.310     7.955    18.336
   67.40    48.296   206.000    17.544   304.099   214.679     2.304     7.939    19.166
   67.45    48.296   185.000    18.366   304.099   217.813     2.287     8.049    18.684
   67.50    50.235   237.000    17.544   302.378   210.918     2.280     8.244    18.684
