~Version Information
VERS.    1.20:   CWLS log ASCII Standard - version 1.20
WRAP.      NO:   one line per depth step
~Well Information
#MNEM.UNIT     Data Type     Information
#_________     _________     ________________________
 STRT.M            0.000:
 STOP.M          245.550:
 STEP.M            0.050:
 NULL.              -0.0:
 COMP.           COMPANY: KANGARILLA DRILLING
 WELL.              WELL: PN103351
 FLD.              FIELD: OBSERVATION WELL
 LOC.           LOCATION:
 CNTY.            COUNTY:
 STAT.             STATE:
 CTRY.           COUNTRY:
 SRVC.   SERVICE COMPANY:    DEPARTMENT OF WATER, LAND/ and Biodiversity Conservation
 DATE.          LOG DATE: 15/12/2004
 UWI.     UNIQUE WELL ID: unknown
~Curve Information
#MNEM.UNIT       Curve  Information
#_________       _____  ___________________
 DEPT.M        :    1   DEPTH
 Gamm.API      :    2   Gamma
 Neut.CPS      :    3   Neutron
 SP  .MILLIVOLTS :    4   SP
 PR  .OHM      :    5   PR
 Cali.mm       :    6   Caliper
 Dens.g/cc     :    7   Density
 MED_.ohm/m    :    8   MED_INDU
 DEEP.ohm/m    :    9   DEEP_IND
~Parameter Information
#MNEM.UNIT       Value        Information
#_________     _________     ________________________
 LMF .       G.L. : Log Measured From
~Other Information
#MNEM.                 Description        Information
#_________            _____________     ________________________
 ENGI.                     Operator : V.Freschi
 LUN .                      Vehicle : T3362
 LATI.                     Latitude : 54H 0278156
 LONG.                    Longitude : 6142207
 TDD .                Depth Driller : 245M
 TDL .                 Depth Logger : 245.55
 BS  .                     Bit Size : 8" OPEN HOLE
 WITN.                      Witness : A FORBES
 COMM.                      comment : WINGFIELD
 JOBN.                     Job Name : 7086
#
 Azimuth degrees.                 relative to  : magnetic north
#
#
# conversion formula for CALIPER mm
#    where V = reading
#    -114.3909988403 + 0.1567000002*V
#
# conversion formula for DENSITY g/cc
#    where L = ln(reading)
#    19.1588001251 - 1.7809599638*L
#
# conversion formula for GAMMA API
#    where V = reading
#    -0.1789000034 + 1.9390000105*V
#
# conversion formula for  cps,ohm/m
#    where V = reading
#    0 + 1*V
#
# calculated values formula is :
#    1000/(V1*(V1*0.0000002+0.244)-412.12),1000/(V2*(V2*0.00002+0.067)-48.849)
#
# conversion formula for  cps,ohm/m
#    where V = reading
#    0 + 1*V
#
# calculated values formula is :
#    1000/(V1*(V1*0.0000002+0.244)-421.12),1000/(V2*(V2*0.00002+0.067)-48.849)
#
# conversion formula for NEUTRON CPS
#    where V = reading
#    1 + 1*V
#
# conversion formula for POINT-RESIS OHM
#    where V = reading
#    -141.5144042969 + 0.5735049844*V
#
# conversion formula for SPON-POT MILLIVOLTS
#    where V = reading
#    -817.1540527344 + 0.4111811817*V
#
~A Depth      Gamm      Neut      SP        PR        Cali      Dens      MED_      DEEP
    0.05      -0.0      -0.0      -0.0      -0.0      -0.0      -0.0    -1.504   -10.433
    0.10      -0.0      -0.0      -0.0      -0.0      -0.0      -0.0    -1.504   -10.433
    0.15      -0.0      -0.0      -0.0      -0.0      -0.0      -0.0    -1.504   -10.433
    0.20      -0.0      -0.0      -0.0      -0.0      -0.0      -0.0    -1.504   -10.433
    0.25      -0.0      -0.0      -0.0      -0.0      -0.0      -0.0    -1.504   -10.433
    0.30      -0.0      -0.0      -0.0      -0.0      -0.0      -0.0    -1.504   -10.433
    0.35      -0.0      -0.0  -817.154  -141.514      -0.0      -0.0    -1.504   -10.433
    0.40      -0.0      -0.0  -193.392   691.215      -0.0      -0.0    -1.504   -10.433
    0.45      -0.0      -0.0  -204.083   717.023      -0.0      -0.0    -1.504   -10.433
    0.50      -0.0      -0.0  -202.027   735.948      -0.0      -0.0    -1.504   -10.433
    0.55      -0.0      -0.0  -192.981   735.948      -0.0      -0.0    -1.504   -10.433
    0.60      -0.0      -0.0  -173.244   743.404      -0.0      -0.0    -1.504   -10.433
    0.65      -0.0      -0.0  -162.965   762.329      -0.0      -0.0    -1.504   -10.433
    0.70      -0.0      -0.0  -154.741   772.079      -0.0      -0.0    -1.504   -10.433
    0.75    -0.179      -0.0  -158.031   792.152      -0.0      -0.0    -1.504   -10.433
    0.80    -0.179      -0.0  -166.665   816.239      -0.0      -0.0    -1.504   -10.433
    0.85    -0.179      -0.0  -177.767   825.989      -0.0      -0.0    -1.504   -10.433
    0.90    36.662      -0.0  -171.188   825.989      -0.0      -0.0    -1.504   -10.433
    0.95    40.540      -0.0  -169.544   823.694      -0.0      -0.0    -1.504   -10.433
    1.00    40.540      -0.0  -169.544   819.680      -0.0      -0.0    -1.504   -10.433
    1.05    23.089      -0.0  -166.254   807.063      -0.0      -0.0    -1.504   -10.433
    1.10    32.784      -0.0  -181.057   778.961      -0.0      -0.0    -1.504   -10.433
    1.15    32.784      -0.0  -190.103   765.197      -0.0      -0.0    -1.504   -10.433
    1.20    32.784      -0.0  -192.570   761.756      -0.0      -0.0    -1.504   -10.433
    1.25    28.906      -0.0  -195.037   757.741  -114.391      -0.0    -2.375   -10.433
    1.30    25.028      -0.0  -200.793   751.433   210.605      -0.0    -2.375   -10.433
    1.35    21.150      -0.0  -199.560   743.404   206.531      -0.0     0.460   -10.433
    1.40    15.333      -0.0  -192.570   735.948   209.195      -0.0     0.463   -10.433
    1.45    40.540      -0.0  -178.590   743.977   207.628      -0.0     0.467   -20.471
    1.50    21.150      -0.0  -162.965   754.300   214.836      -0.0     0.468   -20.471
    1.55    32.784      -0.0  -158.853   763.476   208.568      -0.0     0.472     0.012
    1.60    15.333      -0.0  -144.050   752.580   211.702      -0.0     0.475     0.012
    1.65    15.333      -0.0  -133.360   753.727   206.844      -0.0     0.479     0.012
    1.70    21.150      -0.0  -142.406   763.476   204.337      -0.0     0.480     0.012
    1.75    30.845      -0.0  -150.629   754.874   207.471      -0.0     0.482     0.012
    1.80    19.211      -0.0  -171.600   760.035   204.807      -0.0     0.485     0.012
    1.85    21.150      -0.0  -180.234   799.034   211.075     0.000     0.484     0.012
    1.90    30.845      -0.0  -183.935   813.945   205.277     0.000     0.484     0.012
    1.95     3.699      -0.0  -181.879   817.959   209.821     0.000     0.482     0.012
    2.00    28.906      -0.0  -173.656   812.224   208.568     2.558     0.486     0.012
    2.05    38.601      -0.0  -173.244   788.711   208.724     2.462     0.486     0.012
    2.10    26.967      -0.0  -172.833   752.006   204.807     2.518     0.486     0.012
    2.15    44.418      -0.0  -171.600   746.271   208.254     2.556     0.484     0.012
    2.20    17.272      -0.0  -176.123   742.830   205.434     2.599     0.485     0.012
    2.25    40.540      -0.0  -179.823   734.228   204.807     2.658     0.485     0.012
    2.30    44.418      -0.0  -182.701   716.449   201.830     2.672     0.485     0.012
    2.35    32.784      -0.0  -175.711   692.362   209.665     2.674     0.483     0.012
    2.40    32.784      -0.0  -175.711   680.892   210.135     2.650     0.483     0.012
    2.45    56.052      -0.0  -175.300   668.848   204.337     2.663     0.483     0.012
    2.50    44.418      -0.0  -176.123   669.422   209.978     2.647     0.483     0.012
    2.55    28.906      -0.0  -180.646   661.966   205.904     2.591     0.476     0.012
    2.60    36.662      -0.0  -183.935   638.452   207.941     2.594     0.481     0.012
    2.65    52.174     1.000  -187.224   578.234   206.217     2.518     0.481     0.012
    2.70    36.662     1.000  -198.326   532.927   208.411     2.544     0.481     0.012
    2.75    59.930  1233.000  -195.037   498.517   207.628     2.548     0.481     0.012
    2.80    32.784   395.000  -165.843   430.844   206.531     2.535     0.481     0.012
    2.85    44.418   253.000   -68.393   322.451   208.411     2.520     0.482     0.012
    2.90    28.906   165.000   -22.752   292.055   208.411     2.514     0.482     0.012
    2.95    40.540   123.000   -20.285   290.335   209.351     2.502     0.482     0.012
    3.00    40.540    82.000   -23.574   289.761   211.388     2.473     0.482     0.012
    3.05    25.028   107.000   -21.107   289.761   209.978     2.525     0.482     0.012
    3.10    32.784    91.000   -20.696   291.482   206.061     2.501     0.482     0.012
    3.15    19.211   100.000   -18.640   290.908   209.038     2.473     0.482     0.012
    3.20    23.089   105.000   -16.995   288.614   207.157     2.513     0.482     0.012
    3.25    36.662   116.000   -14.117   291.482   208.724     2.532     0.482     0.012
    3.30    32.784    97.000   -12.884   288.614   206.061     2.593     0.483     0.012
    3.35    36.662    93.000   -13.295   290.908   202.456     2.606     0.484     0.012
    3.40    25.028   109.000   -12.061   290.335   206.687     2.600     0.485     0.012
    3.45    25.028   107.000   -10.828   289.188   205.904     2.667     0.484     0.012
    3.50    36.662    94.000    -8.361   291.482   207.941     2.586     0.485     0.012
    3.55    40.540    73.000    -8.361   290.335   206.061     2.595     0.487     0.012
    3.60    30.845   103.000    -3.838   289.188   209.038     2.653     0.485     0.012
    3.65    25.028    84.000    -3.838   289.188   206.061     2.675     0.477     0.012
    3.70    28.906    90.000    -3.838   290.335   206.531     2.660     0.478     0.012
    3.75    52.174   101.000    -4.249   290.335   206.687     2.637     0.485     0.012
    3.80    19.211    86.000    -5.482   290.908   207.157     2.625     0.482     0.012
    3.85    46.357   112.000    -4.660   291.482   207.471     2.578     0.473     0.012
    3.90    21.150   107.000    -3.015   290.335   209.508     2.606     0.476     0.012
    3.95    46.357    99.000     0.274   290.335   202.613     2.583     0.482     0.012
    4.00    28.906   106.000    -0.548   292.055   203.553     2.616     0.480     0.012
    4.05    28.906    96.000     0.274   290.335   208.098     2.623     0.483     0.012
    4.10    38.601    98.000     1.919   290.908   204.337     2.654     0.485     0.012
    4.15    11.455    96.000     1.096   290.908   208.098     2.651     0.479     0.012
    4.20    46.357    97.000    -1.371   290.335   205.434     2.685     0.452     0.012
    4.25    38.601   101.000     2.330   290.335   206.061     2.687     0.434     0.012
    4.30    36.662   124.000     1.919   290.908   208.098     2.740     0.725     0.012
    4.35    21.150   132.000     1.508   291.482   207.784     2.676     1.252     0.012
    4.40    28.906   115.000     3.975   290.335   209.351     2.713     1.477     0.012
    4.45    34.723   117.000     6.442   291.482   201.046     2.717     1.474     0.012
    4.50    32.784   155.000     8.498   290.908   202.927     2.717     1.200     0.014
