~Version Information
 VERS.           2.0     :   CWLS log ASCII Standard -VERSION 2.0
 WRAP.           NO      :   One line per depth step
~Well Information
#MNEM.UNIT      VALUE/NAME              DESCRIPTION
#--------     --------------            ---------------------
 STRT.M           555.0000              :START DEPTH
 STOP.M          4683.0000              :STOP DEPTH
 STEP.M             0.5000              :STEP
 NULL.             -999.25              :NULL VALUE
 COMP.    Woodside                      :COMPANY
 WELL.    Torosa 1                      :WELL
 FLD .    Exploration                   :FIELD
 LOC .                                  :LOCATION
 PROV.                                  :PROVINCE
 SRVC.    Sperry/Schlumberger /Occam    :SERVICE COMPANY
 CTRY.                                  :COUNTRY
 DATE.    15/12/2006 / 2009             :LOG DATE
 UWI .                                  :UNIQUE WELL ID
 LATI.DEG -13/52/02.03                   : Latitude
 LONG.DEG 122/04/09.59                  : Longitude
 GDAT.                                  : Geodetic Datum
~PARAMETER INFORMATION
~CURVE INFORMATION
#MNEM    .UNIT     API CODE             Curve Description
 DEPT    .M                             :   Along hole depth
 GR      .API                           :   Gamma Ray combined
 RS      .OHMM                          :   Shallow Resistivity composite curve
 RD      .OHMM                          :   Deep Resistivity composite curve
 RHOZ    .g/cm3                         :   Formation Density
 HTNP    .PU                            :   Thermal Neutron Porosity
 HDAR    .IN                            :   Hole Diameter from Area
 BATC    .USEC/F                        :   Compressional Sonic
 DTS     .US/FT                         :   Shear Slowness 1
#
# Curve              Start        Stop     Minimum     Maximum
# ------------------------------------------------------------
#
# GR              555.0000   4683.0000      7.5740    694.8002
# RS              555.0000   4681.0000      0.0736   2298.5820
# RD              555.0000   4681.0000      0.3113 100000.0000
# RHOZ           3577.0000   4666.0000      1.9503      2.9209
# HTNP           3460.5000   4665.0000      1.8357     62.5261
# HDAR           3525.0000   4674.5000      5.2666     12.4949
# BATC            641.0000   4654.0000     48.8589    170.6566
# DTS            2485.5000   4645.5000     90.6426    183.8240
# ******************************
# 
# ************************************************************
#
# #
# LOCN 	LAT:	13o 52' 02.03" S			WELL NAME: 	Torosa 1
# 	LONG:	122o 04' 09.59" E
# 	EASTING: 	399434.9m E	NORTHING: 	8466761.6m N	ZONE:	51	GDA 94
# SEISMIC REF:	Torosa 3D	INLINE:  1583	XLINE:  3768	STATUS:	P & A (gas)	
# ELEVN SF:	- 476.3m LAT 	DATUM KB:	22.9m	OPERATOR:	Woodside
# BASIN :		Browse	TOTAL D:	4685m	PARTNERS:	BP, BHPB, Shell
# 						Chevron
# SPUD DATE:	05/11/2006	COMPLN DATE:	29/12/2006	LEASE:	WA-30-R
# TARGET:	Field appraisal			DRILLER:  	Maersk
# DATA SOURCE:	WCR, logs			RIG:	Nan Hai VI
# #
# HOLE AND CASING DATA:
# 	Hole 	Hole	Casing	Casing 	Weight	Grade	Joints	Cement 	TOC
# 	Size	Depth	Size	Depth	lb/ft
# 	36”	557.5m	30”	555.8m	310	X-52	3	1342 sx G at SG 1.9 	Seafloor
# 	12.25”	3533m	9 5/8”	3526.7m	47	L-80	242	325 sx HTB at SG 1.9	
# 	8.5”	4685m
# #
# TEMPERATURES:	See also temperatures reported on MDT sampling
# 	Logger's Depth	Temp	Log Type	Time since circ	Circ Time
# 	4680m	129 deg C	PEX-HRLA	16 hrs 45 mins	4.5 hrs
# 		130 deg C	HNGS	34 hrs 40 mins
# 		140.7 deg C	MDT-GR	73 hrs 9 mins	
# 		144.5 deg C	MDT-GR	116 hrs 50 mins
# #
# MUD PROPERTIES:
# Depth (L)	Fluid Type	SG	Vis.	pH	Fl cc	Rm	Rmf	Rmc
# 4685m	Aquadrill WBM	1.21	58	8.1	4.2	0.354 at 31.3 deg C	0.272 at 31.2 deg C	0.52 at 31.3 deg C
# 		KCl	8%		Barite	5.53%
# #
#DEVIATION SURVEY:	(Sperry LWD)
#	Depth	Dev (deg)	Azimuth (deg)	Depth	Dev (deg)	Azimuth (deg)
#	499.2m	0.00	0.00	579.8m	0.33	190.34
#	635.7m	0.45	196.81	663.9m	0.43	200.92
#	720.8m	0.45	184.80	749.3m	0.40	178.37
#	778.1m	0.48	213.43	806.7m	0.37	217.84
#	835.4m	0.41	220.39	864.1m	0.50	207.37
#	892.8m	0.55	191.29	921.5m	0.43	210.49
#	950.4m	0.37	216.12	978.9m	0.67	192.70
#	1007.2m	0.44	157.04	1035.3m	0.26	179.50
#	1091.2m	0.72	160.83	1119.0m	0.99	167.96
#	1146.6m	1.24	165.45	1174.5m	0.92	173.68
#	1202.3m	1.17	163.94	1230.4m	1.22	171.50
#	1286.4m	1.11	175.97	1314.8m	1.13	176.31
#	1343.1m	1.05	177.72	1371.5m	1.33	175.92
#	1399.9m	1.60	188.03	1428.5m	1.63	191.10
#	1457.4m	1.49	184.45	1486.5m	1.51	186.17
#	1515.2m	1.48	194.93	1543.7m	1.54	207.86
#	1571.7m	1.56	210.90	1599.2m	1.68	210.91
#	1627.6m	1.86	212.17	1655.0m	1.42	215.91
#	1681.6m	0.91	225.99	1710.6m	0.82	242.55
#	1768.8m	0.55	275.33	1797.8m	0.45	242.11
#	1826.3m	0.12	234.81	1883.0m	0.25	216.30
#	1910.7m	0.14	218.29	1938.5m	0.47	261.92
#	1965.7m	0.47	265.81	1992.9m	0.44	269.76
#	2022.3m	0.91	352.01	2051.5m	1.39	10.16
#	2079.1m	1.76	17.08	2105.4m	1.56	12.11
#	2134.4m	1.71	15.62	2164.0m	1.74	16.08
#	2193.3m	1.77	20.50	2220.5m	1.87	18.52
#	2247.3m	1.92	16.38	2275.8m	1.74	8.65
#	2304.7m	1.20	357.09	2333.8m	1.15	351.73
#	2362.0m	1.14	351.42	2389.8m	1.36	346.44
#	2417.5m	1.45	350.69	2445.0m	1.06	339.39
#	2473.4m	1.20	352.35	2503.5m	1.36	353.01
#	2531.6m	1.24	342.88	2554.7m	1.10	345.87
#	2587.3m	1.16	359.05	2616.2m	1.10	348.58
#	2643.7m	0.86	342.80	2672.0m	1.00	350.98
#	2700.6m	0.69	341.90	2728.5m	0.81	348.53
#	2757.0m	0.80	353.78	2784.7m	0.90	352.41
#	2813.0m	0.83	331.28	2841.2m	0.75	337.02
#	2870.0m	0.79	327.68	2900.7m	1.00	328.04
#	2955.7m	0.96	351.55	2985.0m	0.92	347.16
#	3012.4m	0.86	0.75	3039.7m	0.66	348.87
#	3068.2m	1.06	356.49	3098.6m	0.81	355.08
#	3124.7m	0.97	10.60	3154.7m	0.83	358.70
#	3181.3m	1.02	353.15	3209.6m	0.94	12.08
#	3239.2m	1.32	4.55	3267.3m	1.27	2.33
#	3293.3m	0.94	15.02	3323.7m	1.23	3.43
#	3351.7m	0.88	6.02	3383.7m	1.08	4.83
#	3410.2m	0.75	3.07	3439.4m	0.66	19.95
#	3466.4m	0.87	11.07	3495.6m	1.02	16.73
#	3599.4m	1.47	12.38	3599.4m	1.47	12.38
#	3629.3m	1.60	16.10	3685.7m	1.54	6.45
#	3712.9m	1.62	13.25	3770.8m	1.62	356.79
#	3779.4m	1.72	359.60	3881.6m	1.92	1.29
#	3910.5m	2.29	349.77	3941.5m	2.60	349.42
#	3996.8m	2.80	344.29	4023.5m	2.77	345.16
#	4081.2m	2.45	341.88	4110.3m	2.43	341.51
#	4138.6m	2.21	342.63	4166.0m	2.08	352.68
#	4193.1m	1.68	353.00	4220.6m	1.80	345.27
#	4250.2m	1.83	335.86	4277.6m	1.87	343.08
#	4304.8m	1.91	339.15	4333.1m	1.80	342.44
#	4361.4m	1.89	335.11	4389.5m	1.78	332.23
#	4417.7m	1.70	337.15	4446.0m	1.97	336.90
#	4474.8m	2.80	325.02	4503.4m	4.53	320.41
#	4531.2m	5.96	316.69	4559.1m	7.72	317.69
#	4644.7m	12.78	313.86	4671.9m	13.97	313.85
#
##VELOCITY SURVEY:	(Schlumberger and Read Well Services)	OWT, vertically corrected rel to MSL
#	Depth	TVD SS	OWT(sec)	Depth	TVD SS	OWT(sec)
#	2870.7m	2849.5m	1.0773	2885.8m	2864.6m	1.0802
#	2900.9m	2879.7m	1.0832	2916.0m	2894.8m	1.0858
#	2931.2m	2909.9m	1.0885	2946.3m	2925.1m	1.0912
#	2961.4m	2940.2m	1.0943	2976.5m	2955.3m	1.0977
#	2991.7m	2970.4m	1.1014	3006.8m	2985.6m	1.1048
#	3021.9m	3000.7m	1.1086	3037.0m	3015.8m	1.1123
#	3052.2m	3030.9m	1.1157	3067.3m	3046.1m	1.1185
#	3082.4m	3061.2m	1.1216	3097.5m	3076.3m	1.1250
#	3112.6m	3091.4m	1.1292	3127.8m	3106.5m	1.1332
#	3142.9m	3121.6m	1.1370	3158.0m	3136.8m	1.1399
#	3173.0m	3151.8m	1.1429	3188.1m	3166.9m	1.1458
#	3203.2m	3182.0m	1.1489	3218.4m	3197.1m	1.1520
#	3233.5m	3212.3m	1.1550	3248.6m	3227.4m	1.1579
#	3263.8m	3242.5m	1.1608	3278.9m	3257.6m	1.1637
#	3294.0m	3272.8m	1.1665	3309.2m	3287.9m	1.1694
#	3324.3m	3303.0m	1.1723	3339.4m	3318.1m	1.1752
#	3355.0m	3333.7m	1.1781	3370.1m	3348.9m	1.1811
#	3385.3m	3364.0m	1.1841	3400.4m	3379.1m	1.1872
#	3415.0m	3393.7m	1.1901	3430.1m	3408.8m	1.1931
#	3445.2m	3423.9m	1.1962	3460.4m	3439.1m	1.1993
#	3475.5m	3454.3m	1.2025	3490.7m	3469.4m	1.2058
#	3505.8m	3484.5m	1.2093	3520.9m	3499.6m	1.2129
#	3535.9m	3514.6m	1.2165	3551.1m	3529.8m	1.2203
#	3566.2m	3544.9m	1.2243	3581.3m	3560.0m	1.2283
#	3596.4m	3575.1m	1.2324	3611.5m	3590.2m	1.2366
#	3626.6m	3605.3m	1.2408	3641.8m	3620.4m	1.2446
#	3656.9m	3635.6m	1.2482	3672.0m	3650.7m	1.2517
#	3687.1m	3665.8m	1.2555	3702.3m	3680.9m	1.2592
#	3717.4m	3696.0m	1.2630	3732.5m	3711.1m	1.2670
#	3747.6m	3726.3m	1.2712	3762.8m	3741.4m	1.2755
#	3777.8m	3756.4m	1.2799	3792.9m	3771.5m	1.2842
#	3808.0m	3786.6m	1.2884	3823.1m	3801.7m	1.2926
#	3838.4m	3817.0m	1.2968	3853.5m	3832.1m	1.3009
#	3868.7m	3847.2m	1.3050	3883.8m	3862.3m	1.3092
#	3898.8m	3877.3m	1.3132	3913.9m	3892.4m	1.3172
#	3929.0m	3907.5m	1.3211	3944.1m	3922.6m	1.3248
#	3959.3m	3937.8m	1.3283	3974.4m	3952.9m	1.3317
#	3989.5m	3968.0m	1.3352	4004.6m	3983.1m	1.3393
#	4019.8m	3998.3m	1.3439	4035.0m	4013.4m	1.3490
#	4050.1m	4028.5m	1.3540	4065.2m	4043.6m	1.3589
#	4080.3m	4058.7m	1.3637	4095.4m	4073.8m	1.3685
#	4110.6m	4088.9m	1.3732	4125.7m	4104.0m	1.3778
#	4140.8m	4119.1m	1.3822	4155.9m	4134.2m	1.3865
#	4171.0m	4149.3m	1.3909	4186.1m	4164.4m	1.3952
#	4201.2m	4179.5m	1.3996	4216.4m	4194.6m	1.4039
#	4231.5m	4209.7m	1.4083	4246.6m	4224.8m	1.4124
#	4261.7m	4240.0m	1.4163	4276.9m	4255.1m	1.4199
#	4292.0m	4270.2m	1.4235	4307.1m	4285.3m	1.4271
#	4322.2m	4300.4m	1.4305	4337.3m	4315.5m	1.4338
#	4352.4m	4330.6m	1.4372	4367.6m	4345.8m	1.4405
#	4382.7m	4360.9m	1.4438	4397.8m	4376.0m	1.4470
#	4413.0m	4391.1m	1.4503	4428.1m	4406.2m	1.4535
#	4443.2m	4421.4m	1.4565	4458.4m	4436.5m	1.4594
#	4473.5m	4451.6m	1.4621	4488.6m	4466.7m	1.4647
#	4503.6m	4481.7m	1.4674	4518.8m	4496.8m	1.4701
#	4533.9m	4511.8m	1.4730	4549.0m	4526.8m	1.4759
#	4564.2m	4541.8m	1.4790	4579.3m	4556.7m	1.4821
#	4594.4m	4571.5m	1.4851	4609.5m	4586.4m	1.4880
#	4618.9m	4595.7m	1.4900	4634.1m	4610.5m	1.4933
#	4649.2m	4625.3m	1.4966	4664.3m	4640.1m	1.4999
#
# ************************************************************
#    This LAS file was created by Occam Technology Pty. Ltd. 
# from a desampled subset of the full well log data. 
# The header data is extracted from a more detailed digital text  
# summary whicc accompanies the full log dataset.
#    We supply the data on a 'best effort' basis.  We cannot
# control either the original data acquisition or the application
# of the data, and therefore we cannot be held responsible for
# the consequences of any interpretations based on the data.  We
# urge purchasers to apply normal quality control procedures to
# the data before use for any quantitative interpretative
# procedures.
# ************************************************************
~A      DEPT          GR          RS          RD        RHOZ        HTNP        HDAR        BATC         DTS
# ...
   4403.0000     72.9428     35.6841     77.9942      2.5669      6.1479      8.5209     75.0525    121.3534
   4403.5000     53.5906     17.5863     47.0024      2.3620     11.6930      8.4396     77.0043    123.5514
   4404.0000     49.6442     35.0337     71.4114      2.3756     12.5023      8.4239     74.2800    117.9786
   4404.5000     49.3262     17.3039     43.4642      2.3530     11.3360      8.4158     65.0219    103.3388
   4405.0000     98.4376     37.2040     74.9428      2.5597      9.1640      8.5899     64.3878    105.8699
   4405.5000    129.6662     51.0306     64.6066      2.6767     12.6296      8.6494     68.8671    120.3884
   4406.0000     78.9151     14.9519     14.9849      2.6339     25.8323      8.5899     70.3098    113.1672
   4406.5000     73.3579     24.3415     28.2458      2.6075      8.1808      8.3677     72.2373    119.1661
   4407.0000     46.0016     36.3128    109.6840      2.3803      8.0449      8.2997     73.8545    115.7248
   4407.5000     42.5126     24.2524     44.1574      2.3307      9.7757      8.2902     72.4586    112.7423
   4408.0000     48.5288     47.2875    150.1358      2.4167      7.6614      8.3036     70.2956    109.7657
   4408.5000     39.4286     28.7830     55.2456      2.4649      4.6785      8.4556     72.1452    113.0473
   4409.0000     62.1061     28.8927     46.3397      2.5462      6.4167      8.5899     69.6653    114.5664
   4409.5000     75.8565     15.8990     20.0206      2.4933     10.2471      8.5899     60.2556     97.3910
   4410.0000     57.4040     72.4607    151.1542      2.6094      7.0035      8.5899     58.9442    100.7318
   4410.5000     48.4538    104.6698    268.5497      2.6290      4.0025      8.5899     64.8221    109.5174
   4411.0000     64.9132     47.3366    120.7654      2.6351      5.2913      8.5425     71.2025    118.3972
   4411.5000     47.7023     19.9144     39.2552      2.4969     10.5673      8.4239     72.7934    113.9303
   4412.0000     66.6435     17.8629     27.9861      2.4831     10.0905      8.5899     70.2609    112.7102
   4412.5000    100.9917     31.3298     78.6930      2.5807     11.9426      8.5899     70.9940    116.3911
   4413.0000     75.7410     12.3674     22.4346      2.5458     13.7492      8.4714     75.1689    116.3377
   4413.5000     52.7208      7.3148     10.4328      2.4435     11.0181      8.4275     77.4446    123.8505
   4414.0000     93.1672      2.5851      3.3879      2.5048     15.0764      8.4227     76.4334    123.4442
   4414.5000     49.0539      6.9212     13.6808      2.3997     10.8302      8.4355     75.0386    121.1390
   4415.0000     42.1356      6.8215     19.3064      2.4092     10.0546      8.4235     76.3697    122.6044
   4415.5000     70.6901      8.1636     28.5489      2.4460     10.8672      8.3490     78.0309    124.8102
   4416.0000     62.3201     10.3825     77.9015      2.3252     11.3453      8.3389     77.9716    127.4757
   4416.5000     51.3048     13.1866     55.5911      2.2985     11.8600      8.4475     75.5668    122.8397
   4417.0000     52.0253     10.2184     34.3018      2.2815     11.5627      8.4553     74.2919    118.2785
   4417.5000     50.4328     12.9427     44.4578      2.5038      7.8265      8.6311     73.8814    120.1363
   4418.0000     91.7424     24.7497     58.7886      2.5216     11.4440      8.9083     71.0865    117.9193
   4418.5000     76.2761     17.6524     43.0392      2.5048      8.7971      8.4712     71.6258    115.7471
   4419.0000     76.2954      9.0427     18.7687      2.4251     13.5603      8.4207     76.0439    123.1198
   4419.5000     48.3661      8.1996     15.0720      2.4138      9.1194      8.4475     77.0459    123.9789
   4420.0000     46.3021     14.4262     67.8058      2.3787      8.1596      8.4475     77.9357    124.4040
   4420.5000     40.2861     13.9193     49.8136      2.2983      8.5410      8.4475     74.1479    122.1234
   4421.0000     40.8968     33.7469    175.4827      2.3100      7.6678      8.5266     67.4058     98.1568
   4421.5000     42.5981    122.4112   1326.1443      2.6804      3.5138      8.5684     62.1792     99.1546
   4422.0000     79.6588     20.2531     22.5892      2.6695     10.3182      8.5899     61.0378    103.3852
   4422.5000    124.6698     79.3102    101.8288      2.6926      8.2503      8.5780     57.8316     99.6127
   4423.0000     62.8036     36.5953     45.8988      2.6745      7.4161      8.5884     60.4416    102.5497
   4423.5000    101.1289     23.7954     27.7445      2.6712     16.3168      8.6464     72.6502    126.2792
   4424.0000    112.3665     21.4351     22.9300      2.6926     24.4014      8.6614     72.1789    134.8506
   4424.5000    120.1006      9.5369      9.4804      2.8857     35.9288      8.6243     68.1652    121.4622
   4425.0000    105.2962     23.1722     23.3969      2.8597     24.8733      8.6377     61.1863    103.3137
   4425.5000     91.4080     15.3234     17.8440      2.7123     17.8370      8.5899     55.0275     90.6426
   4426.0000     87.0237    131.4576    274.2001      2.6907      4.2962      8.5899     56.1901     91.0465
   4426.5000     54.8264    148.3248    441.0197      2.6916      2.5705      8.5703     57.4972     92.5954
   4427.0000     40.2540    130.4283    340.5027      2.6782      3.7500      8.5664     59.7385     96.0243
   4427.5000     51.9553     80.4709    137.6243      2.7161      5.3630      8.5845     64.9686    104.0028
   4428.0000     63.0211     48.4688     60.5216      2.7446     10.1335      8.6139     66.4158    107.7217
   4428.5000     67.1101     21.6521     21.6498      2.6482      9.9308      8.5648     65.2564    107.6839
   4429.0000    108.3683     17.3402     17.7473      2.6928     14.3677      8.5305     67.2281    108.0953
   4429.5000     70.3850     45.0083     59.6070      2.7090     17.2908      8.5294     68.7088    108.5735
   4430.0000     41.6847     17.3165     21.1582      2.5384      7.7986      8.5792     68.7107    111.6529
   4430.5000     84.4059     12.4587     13.5799      2.6125     11.2497      8.6677     68.2455    114.7978
   4431.0000     98.1019     24.1789     30.2682      2.7070     30.3265      8.6213     68.9548    110.3609
   4431.5000     59.2026     13.6602     18.3354      2.5517      6.5123      8.6614     67.8350    112.2712
   4432.0000     60.8376     15.9119     22.1653      2.5740      9.0162      8.6479     69.6219   -999.2500
   4432.5000     48.1264      6.3338      8.4122      2.5000      8.1111      8.3251     71.3612   -999.2500
   4433.0000     72.5074      7.8911     10.9419      2.4935     12.9317      8.6479     71.7255   -999.2500
   4433.5000     80.2591     10.4596     16.8217      2.7197     57.7303      8.6597     70.0519   -999.2500
   4434.0000     59.8179      8.6064     13.8923      2.8082     57.7549      8.6479     70.0589   -999.2500
   4434.5000     57.5239      8.1078     12.6412      2.9141     60.5487      8.7673     75.3759   -999.2500
   4435.0000     62.9534      5.1455      7.3754      2.8839     57.2050      8.7084     81.2999   -999.2500
   4435.5000     69.7320      3.8445      5.0725      2.8140     60.7424      8.6790     81.5349   -999.2500
   4436.0000     74.5249      3.3448      4.1313      2.7863     62.5261      8.7045     80.8219   -999.2500
   4436.5000     67.6278      3.7928      4.5093      2.8259     57.8865      8.7444     76.2222   -999.2500
   4437.0000     68.2028      4.0044      4.8350      2.8670     59.4668      8.5978     66.2443   -999.2500
   4437.5000     99.7270      7.7776     10.0490      2.7847     50.2073      8.5700     65.2721    110.0264
   4438.0000    123.9105     23.6617     34.5388      2.6100     14.1376      8.3857     70.6987    113.1725
   4438.5000     76.6854      8.7263     13.7187      2.4993     11.1398      8.4219     75.2704    114.9374
   4439.0000     72.1619     23.8412     46.3187      2.4803     10.5989      8.4235     75.5973    117.5205
   4439.5000     52.3596     11.3693     31.4488      2.3314     11.6565      8.4235     75.2196    116.3917
