~Version Information
 VERS.           2.0     :   CWLS log ASCII Standard -VERSION 2.0
 WRAP.           NO      :   One line per depth step
~Well Information
#MNEM.UNIT      VALUE/NAME              DESCRIPTION
#--------     --------------            ---------------------
 STRT.M           555.0000              :START DEPTH
 STOP.M          4683.0000              :STOP DEPTH
 STEP.M             0.5000              :STEP
 NULL.             -999.25              :NULL VALUE
 COMP.    Woodside                      :COMPANY
 WELL.    Torosa 1                      :WELL
 FLD .    Exploration                   :FIELD
 LOC .                                  :LOCATION
 PROV.                                  :PROVINCE
 SRVC.    Sperry/Schlumberger /Occam    :SERVICE COMPANY
 CTRY.                                  :COUNTRY
 DATE.    15/12/2006 / 2009             :LOG DATE
 UWI .                                  :UNIQUE WELL ID
 LATI.DEG -13/52/02.03                   : Latitude
 LONG.DEG 122/04/09.59                  : Longitude
 GDAT.                                  : Geodetic Datum
~PARAMETER INFORMATION
~CURVE INFORMATION
#MNEM    .UNIT     API CODE             Curve Description
 DEPT    .M                             :   Along hole depth
 GR      .API                           :   Gamma Ray combined
 RS      .OHMM                          :   Shallow Resistivity composite curve
 RD      .OHMM                          :   Deep Resistivity composite curve
 RHOZ    .g/cm3                         :   Formation Density
 HTNP    .PU                            :   Thermal Neutron Porosity
 HDAR    .IN                            :   Hole Diameter from Area
 BATC    .USEC/F                        :   Compressional Sonic
 DTS     .US/FT                         :   Shear Slowness 1
#
# Curve              Start        Stop     Minimum     Maximum
# ------------------------------------------------------------
#
# GR              555.0000   4683.0000      7.5740    694.8002
# RS              555.0000   4681.0000      0.0736   2298.5820
# RD              555.0000   4681.0000      0.3113 100000.0000
# RHOZ           3577.0000   4666.0000      1.9503      2.9209
# HTNP           3460.5000   4665.0000      1.8357     62.5261
# HDAR           3525.0000   4674.5000      5.2666     12.4949
# BATC            641.0000   4654.0000     48.8589    170.6566
# DTS            2485.5000   4645.5000     90.6426    183.8240
# ******************************
# 
# ************************************************************
#
# #
# LOCN 	LAT:	13o 52' 02.03" S			WELL NAME: 	Torosa 1
# 	LONG:	122o 04' 09.59" E
# 	EASTING: 	399434.9m E	NORTHING: 	8466761.6m N	ZONE:	51	GDA 94
# SEISMIC REF:	Torosa 3D	INLINE:  1583	XLINE:  3768	STATUS:	P & A (gas)	
# ELEVN SF:	- 476.3m LAT 	DATUM KB:	22.9m	OPERATOR:	Woodside
# BASIN :		Browse	TOTAL D:	4685m	PARTNERS:	BP, BHPB, Shell
# 						Chevron
# SPUD DATE:	05/11/2006	COMPLN DATE:	29/12/2006	LEASE:	WA-30-R
# TARGET:	Field appraisal			DRILLER:  	Maersk
# DATA SOURCE:	WCR, logs			RIG:	Nan Hai VI
# #
# HOLE AND CASING DATA:
# 	Hole 	Hole	Casing	Casing 	Weight	Grade	Joints	Cement 	TOC
# 	Size	Depth	Size	Depth	lb/ft
# 	36”	557.5m	30”	555.8m	310	X-52	3	1342 sx G at SG 1.9 	Seafloor
# 	12.25”	3533m	9 5/8”	3526.7m	47	L-80	242	325 sx HTB at SG 1.9	
# 	8.5”	4685m
# #
# TEMPERATURES:	See also temperatures reported on MDT sampling
# 	Logger's Depth	Temp	Log Type	Time since circ	Circ Time
# 	4680m	129 deg C	PEX-HRLA	16 hrs 45 mins	4.5 hrs
# 		130 deg C	HNGS	34 hrs 40 mins
# 		140.7 deg C	MDT-GR	73 hrs 9 mins	
# 		144.5 deg C	MDT-GR	116 hrs 50 mins
# #
# MUD PROPERTIES:
# Depth (L)	Fluid Type	SG	Vis.	pH	Fl cc	Rm	Rmf	Rmc
# 4685m	Aquadrill WBM	1.21	58	8.1	4.2	0.354 at 31.3 deg C	0.272 at 31.2 deg C	0.52 at 31.3 deg C
# 		KCl	8%		Barite	5.53%
# #
#DEVIATION SURVEY:	(Sperry LWD)
#	Depth	Dev (deg)	Azimuth (deg)	Depth	Dev (deg)	Azimuth (deg)
#	499.2m	0.00	0.00	579.8m	0.33	190.34
#	635.7m	0.45	196.81	663.9m	0.43	200.92
#	720.8m	0.45	184.80	749.3m	0.40	178.37
#	778.1m	0.48	213.43	806.7m	0.37	217.84
#	835.4m	0.41	220.39	864.1m	0.50	207.37
#	892.8m	0.55	191.29	921.5m	0.43	210.49
#	950.4m	0.37	216.12	978.9m	0.67	192.70
#	1007.2m	0.44	157.04	1035.3m	0.26	179.50
#	1091.2m	0.72	160.83	1119.0m	0.99	167.96
#	1146.6m	1.24	165.45	1174.5m	0.92	173.68
#	1202.3m	1.17	163.94	1230.4m	1.22	171.50
#	1286.4m	1.11	175.97	1314.8m	1.13	176.31
#	1343.1m	1.05	177.72	1371.5m	1.33	175.92
#	1399.9m	1.60	188.03	1428.5m	1.63	191.10
#	1457.4m	1.49	184.45	1486.5m	1.51	186.17
#	1515.2m	1.48	194.93	1543.7m	1.54	207.86
#	1571.7m	1.56	210.90	1599.2m	1.68	210.91
#	1627.6m	1.86	212.17	1655.0m	1.42	215.91
#	1681.6m	0.91	225.99	1710.6m	0.82	242.55
#	1768.8m	0.55	275.33	1797.8m	0.45	242.11
#	1826.3m	0.12	234.81	1883.0m	0.25	216.30
#	1910.7m	0.14	218.29	1938.5m	0.47	261.92
#	1965.7m	0.47	265.81	1992.9m	0.44	269.76
#	2022.3m	0.91	352.01	2051.5m	1.39	10.16
#	2079.1m	1.76	17.08	2105.4m	1.56	12.11
#	2134.4m	1.71	15.62	2164.0m	1.74	16.08
#	2193.3m	1.77	20.50	2220.5m	1.87	18.52
#	2247.3m	1.92	16.38	2275.8m	1.74	8.65
#	2304.7m	1.20	357.09	2333.8m	1.15	351.73
#	2362.0m	1.14	351.42	2389.8m	1.36	346.44
#	2417.5m	1.45	350.69	2445.0m	1.06	339.39
#	2473.4m	1.20	352.35	2503.5m	1.36	353.01
#	2531.6m	1.24	342.88	2554.7m	1.10	345.87
#	2587.3m	1.16	359.05	2616.2m	1.10	348.58
#	2643.7m	0.86	342.80	2672.0m	1.00	350.98
#	2700.6m	0.69	341.90	2728.5m	0.81	348.53
#	2757.0m	0.80	353.78	2784.7m	0.90	352.41
#	2813.0m	0.83	331.28	2841.2m	0.75	337.02
#	2870.0m	0.79	327.68	2900.7m	1.00	328.04
#	2955.7m	0.96	351.55	2985.0m	0.92	347.16
#	3012.4m	0.86	0.75	3039.7m	0.66	348.87
#	3068.2m	1.06	356.49	3098.6m	0.81	355.08
#	3124.7m	0.97	10.60	3154.7m	0.83	358.70
#	3181.3m	1.02	353.15	3209.6m	0.94	12.08
#	3239.2m	1.32	4.55	3267.3m	1.27	2.33
#	3293.3m	0.94	15.02	3323.7m	1.23	3.43
#	3351.7m	0.88	6.02	3383.7m	1.08	4.83
#	3410.2m	0.75	3.07	3439.4m	0.66	19.95
#	3466.4m	0.87	11.07	3495.6m	1.02	16.73
#	3599.4m	1.47	12.38	3599.4m	1.47	12.38
#	3629.3m	1.60	16.10	3685.7m	1.54	6.45
#	3712.9m	1.62	13.25	3770.8m	1.62	356.79
#	3779.4m	1.72	359.60	3881.6m	1.92	1.29
#	3910.5m	2.29	349.77	3941.5m	2.60	349.42
#	3996.8m	2.80	344.29	4023.5m	2.77	345.16
#	4081.2m	2.45	341.88	4110.3m	2.43	341.51
#	4138.6m	2.21	342.63	4166.0m	2.08	352.68
#	4193.1m	1.68	353.00	4220.6m	1.80	345.27
#	4250.2m	1.83	335.86	4277.6m	1.87	343.08
#	4304.8m	1.91	339.15	4333.1m	1.80	342.44
#	4361.4m	1.89	335.11	4389.5m	1.78	332.23
#	4417.7m	1.70	337.15	4446.0m	1.97	336.90
#	4474.8m	2.80	325.02	4503.4m	4.53	320.41
#	4531.2m	5.96	316.69	4559.1m	7.72	317.69
#	4644.7m	12.78	313.86	4671.9m	13.97	313.85
#
##VELOCITY SURVEY:	(Schlumberger and Read Well Services)	OWT, vertically corrected rel to MSL
#	Depth	TVD SS	OWT(sec)	Depth	TVD SS	OWT(sec)
#	2870.7m	2849.5m	1.0773	2885.8m	2864.6m	1.0802
#	2900.9m	2879.7m	1.0832	2916.0m	2894.8m	1.0858
#	2931.2m	2909.9m	1.0885	2946.3m	2925.1m	1.0912
#	2961.4m	2940.2m	1.0943	2976.5m	2955.3m	1.0977
#	2991.7m	2970.4m	1.1014	3006.8m	2985.6m	1.1048
#	3021.9m	3000.7m	1.1086	3037.0m	3015.8m	1.1123
#	3052.2m	3030.9m	1.1157	3067.3m	3046.1m	1.1185
#	3082.4m	3061.2m	1.1216	3097.5m	3076.3m	1.1250
#	3112.6m	3091.4m	1.1292	3127.8m	3106.5m	1.1332
#	3142.9m	3121.6m	1.1370	3158.0m	3136.8m	1.1399
#	3173.0m	3151.8m	1.1429	3188.1m	3166.9m	1.1458
#	3203.2m	3182.0m	1.1489	3218.4m	3197.1m	1.1520
#	3233.5m	3212.3m	1.1550	3248.6m	3227.4m	1.1579
#	3263.8m	3242.5m	1.1608	3278.9m	3257.6m	1.1637
#	3294.0m	3272.8m	1.1665	3309.2m	3287.9m	1.1694
#	3324.3m	3303.0m	1.1723	3339.4m	3318.1m	1.1752
#	3355.0m	3333.7m	1.1781	3370.1m	3348.9m	1.1811
#	3385.3m	3364.0m	1.1841	3400.4m	3379.1m	1.1872
#	3415.0m	3393.7m	1.1901	3430.1m	3408.8m	1.1931
#	3445.2m	3423.9m	1.1962	3460.4m	3439.1m	1.1993
#	3475.5m	3454.3m	1.2025	3490.7m	3469.4m	1.2058
#	3505.8m	3484.5m	1.2093	3520.9m	3499.6m	1.2129
#	3535.9m	3514.6m	1.2165	3551.1m	3529.8m	1.2203
#	3566.2m	3544.9m	1.2243	3581.3m	3560.0m	1.2283
#	3596.4m	3575.1m	1.2324	3611.5m	3590.2m	1.2366
#	3626.6m	3605.3m	1.2408	3641.8m	3620.4m	1.2446
#	3656.9m	3635.6m	1.2482	3672.0m	3650.7m	1.2517
#	3687.1m	3665.8m	1.2555	3702.3m	3680.9m	1.2592
#	3717.4m	3696.0m	1.2630	3732.5m	3711.1m	1.2670
#	3747.6m	3726.3m	1.2712	3762.8m	3741.4m	1.2755
#	3777.8m	3756.4m	1.2799	3792.9m	3771.5m	1.2842
#	3808.0m	3786.6m	1.2884	3823.1m	3801.7m	1.2926
#	3838.4m	3817.0m	1.2968	3853.5m	3832.1m	1.3009
#	3868.7m	3847.2m	1.3050	3883.8m	3862.3m	1.3092
#	3898.8m	3877.3m	1.3132	3913.9m	3892.4m	1.3172
#	3929.0m	3907.5m	1.3211	3944.1m	3922.6m	1.3248
#	3959.3m	3937.8m	1.3283	3974.4m	3952.9m	1.3317
#	3989.5m	3968.0m	1.3352	4004.6m	3983.1m	1.3393
#	4019.8m	3998.3m	1.3439	4035.0m	4013.4m	1.3490
#	4050.1m	4028.5m	1.3540	4065.2m	4043.6m	1.3589
#	4080.3m	4058.7m	1.3637	4095.4m	4073.8m	1.3685
#	4110.6m	4088.9m	1.3732	4125.7m	4104.0m	1.3778
#	4140.8m	4119.1m	1.3822	4155.9m	4134.2m	1.3865
#	4171.0m	4149.3m	1.3909	4186.1m	4164.4m	1.3952
#	4201.2m	4179.5m	1.3996	4216.4m	4194.6m	1.4039
#	4231.5m	4209.7m	1.4083	4246.6m	4224.8m	1.4124
#	4261.7m	4240.0m	1.4163	4276.9m	4255.1m	1.4199
#	4292.0m	4270.2m	1.4235	4307.1m	4285.3m	1.4271
#	4322.2m	4300.4m	1.4305	4337.3m	4315.5m	1.4338
#	4352.4m	4330.6m	1.4372	4367.6m	4345.8m	1.4405
#	4382.7m	4360.9m	1.4438	4397.8m	4376.0m	1.4470
#	4413.0m	4391.1m	1.4503	4428.1m	4406.2m	1.4535
#	4443.2m	4421.4m	1.4565	4458.4m	4436.5m	1.4594
#	4473.5m	4451.6m	1.4621	4488.6m	4466.7m	1.4647
#	4503.6m	4481.7m	1.4674	4518.8m	4496.8m	1.4701
#	4533.9m	4511.8m	1.4730	4549.0m	4526.8m	1.4759
#	4564.2m	4541.8m	1.4790	4579.3m	4556.7m	1.4821
#	4594.4m	4571.5m	1.4851	4609.5m	4586.4m	1.4880
#	4618.9m	4595.7m	1.4900	4634.1m	4610.5m	1.4933
#	4649.2m	4625.3m	1.4966	4664.3m	4640.1m	1.4999
#
# ************************************************************
#    This LAS file was created by Occam Technology Pty. Ltd. 
# from a desampled subset of the full well log data. 
# The header data is extracted from a more detailed digital text  
# summary whicc accompanies the full log dataset.
#    We supply the data on a 'best effort' basis.  We cannot
# control either the original data acquisition or the application
# of the data, and therefore we cannot be held responsible for
# the consequences of any interpretations based on the data.  We
# urge purchasers to apply normal quality control procedures to
# the data before use for any quantitative interpretative
# procedures.
# ************************************************************
~A      DEPT          GR          RS          RD        RHOZ        HTNP        HDAR        BATC         DTS
# ...
   2812.0000     13.7408      1.5420   -999.2500   -999.2500   -999.2500   -999.2500     78.4805    167.0802
   2812.5000     14.6384      1.7237   -999.2500   -999.2500   -999.2500   -999.2500     73.6994    168.3373
   2813.0000     17.1044      2.5411   -999.2500   -999.2500   -999.2500   -999.2500     72.5816    166.0079
   2813.5000     14.3366      2.6396   -999.2500   -999.2500   -999.2500   -999.2500     71.8040    159.5693
   2814.0000     13.4329      2.6492   -999.2500   -999.2500   -999.2500   -999.2500     75.7365    163.3773
   2814.5000     11.9785      1.9523   -999.2500   -999.2500   -999.2500   -999.2500     76.6720    162.2848
   2815.0000     13.3523      1.7477   -999.2500   -999.2500   -999.2500   -999.2500     77.3541    159.9248
   2815.5000     16.8060      2.1601   -999.2500   -999.2500   -999.2500   -999.2500     73.2075    158.0567
   2816.0000     19.1799      2.6435   -999.2500   -999.2500   -999.2500   -999.2500     75.1967    163.4920
   2816.5000     13.3715      2.4664   -999.2500   -999.2500   -999.2500   -999.2500     72.6244    162.6674
   2817.0000     14.6063      1.8247   -999.2500   -999.2500   -999.2500   -999.2500     71.1232    162.4531
   2817.5000     12.2667      2.0394   -999.2500   -999.2500   -999.2500   -999.2500     72.0476    161.6363
   2818.0000     13.3547      1.7938   -999.2500   -999.2500   -999.2500   -999.2500     73.0257    159.1206
   2818.5000     10.2072      1.6041   -999.2500   -999.2500   -999.2500   -999.2500     73.0830    157.2775
   2819.0000     12.8302      1.4947   -999.2500   -999.2500   -999.2500   -999.2500     72.7027    161.0659
   2819.5000     12.7352      1.8724   -999.2500   -999.2500   -999.2500   -999.2500     73.6518    164.0310
   2820.0000     10.9895      2.2608   -999.2500   -999.2500   -999.2500   -999.2500     71.5982    162.1854
   2820.5000     12.9349      2.3450   -999.2500   -999.2500   -999.2500   -999.2500     71.8783    163.6590
   2821.0000     14.9295      1.8090   -999.2500   -999.2500   -999.2500   -999.2500     67.9373    162.0193
   2821.5000     12.8250      1.3358   -999.2500   -999.2500   -999.2500   -999.2500     76.2908    160.9079
   2822.0000     13.3757      1.5880   -999.2500   -999.2500   -999.2500   -999.2500     73.5149    161.6306
   2822.5000     14.8478      1.5800   -999.2500   -999.2500   -999.2500   -999.2500     72.2050    158.5547
   2823.0000     14.6558      1.6157   -999.2500   -999.2500   -999.2500   -999.2500     71.1132    159.3694
   2823.5000     12.4448      1.6445   -999.2500   -999.2500   -999.2500   -999.2500     72.1597    159.8916
   2824.0000     16.9401      1.6681   -999.2500   -999.2500   -999.2500   -999.2500     70.7650    161.2029
   2824.5000     17.4040      2.0514   -999.2500   -999.2500   -999.2500   -999.2500     70.8901    160.3546
   2825.0000     14.3119      2.2005   -999.2500   -999.2500   -999.2500   -999.2500     70.8435    162.3103
   2825.5000     13.1736      1.9310   -999.2500   -999.2500   -999.2500   -999.2500     75.6844    163.0891
   2826.0000     11.1620      1.6591   -999.2500   -999.2500   -999.2500   -999.2500     72.9504    162.2046
   2826.5000     10.6840      1.7057   -999.2500   -999.2500   -999.2500   -999.2500     71.6062    165.5027
   2827.0000     11.3953      1.7711   -999.2500   -999.2500   -999.2500   -999.2500     75.2942    168.7615
   2827.5000     13.9085      1.4307   -999.2500   -999.2500   -999.2500   -999.2500     75.1173    167.4021
   2828.0000     14.6931      1.4942   -999.2500   -999.2500   -999.2500   -999.2500     73.9268    165.9698
   2828.5000     12.1304      1.5606   -999.2500   -999.2500   -999.2500   -999.2500     76.7218    165.1923
   2829.0000     12.5270      1.2851   -999.2500   -999.2500   -999.2500   -999.2500     78.3273    167.6626
   2829.5000     12.3820      1.1515   -999.2500   -999.2500   -999.2500   -999.2500     73.0011    168.8914
   2830.0000     14.5273      1.4136   -999.2500   -999.2500   -999.2500   -999.2500     74.1118    168.7588
   2830.5000     15.8167      1.6407   -999.2500   -999.2500   -999.2500   -999.2500     75.1180    169.3795
   2831.0000     11.7662      1.5360   -999.2500   -999.2500   -999.2500   -999.2500     75.7207    170.0370
   2831.5000     15.4434      1.4212   -999.2500   -999.2500   -999.2500   -999.2500     77.5214    171.5044
   2832.0000     12.5882      1.4685   -999.2500   -999.2500   -999.2500   -999.2500     75.4130    172.1262
   2832.5000     14.4434      1.5809   -999.2500   -999.2500   -999.2500   -999.2500     74.9676    172.7346
   2833.0000     11.6089      1.4239   -999.2500   -999.2500   -999.2500   -999.2500     75.7089    172.0006
   2833.5000     12.9116      1.3603   -999.2500   -999.2500   -999.2500   -999.2500     75.1117    172.9378
   2834.0000     12.1814      1.3372   -999.2500   -999.2500   -999.2500   -999.2500     78.7707    173.0091
   2834.5000     13.9194      1.2722   -999.2500   -999.2500   -999.2500   -999.2500     78.9109    173.8422
   2835.0000     14.9119      1.5846   -999.2500   -999.2500   -999.2500   -999.2500     78.5014    171.5396
   2835.5000     14.1022      1.3534   -999.2500   -999.2500   -999.2500   -999.2500     76.5200    170.8266
   2836.0000     12.9402      1.4461   -999.2500   -999.2500   -999.2500   -999.2500     78.4063    169.7921
   2836.5000     11.3162      1.4692   -999.2500   -999.2500   -999.2500   -999.2500     75.4637    168.2063
   2837.0000     11.7154      1.4829   -999.2500   -999.2500   -999.2500   -999.2500     77.6965    171.5982
   2837.5000     13.4208      1.4413   -999.2500   -999.2500   -999.2500   -999.2500     77.5693    174.5132
   2838.0000     14.6119      1.4028   -999.2500   -999.2500   -999.2500   -999.2500     77.1502    172.6367
   2838.5000     12.5966      1.5532   -999.2500   -999.2500   -999.2500   -999.2500     74.8657    171.1649
   2839.0000     15.2504      1.8169   -999.2500   -999.2500   -999.2500   -999.2500     71.9586    172.6481
   2839.5000     15.1776      1.2450   -999.2500   -999.2500   -999.2500   -999.2500     77.6879    174.7839
   2840.0000     13.3817      1.1842   -999.2500   -999.2500   -999.2500   -999.2500     75.6255    176.2392
   2840.5000     12.7609      1.3225   -999.2500   -999.2500   -999.2500   -999.2500     76.3004    175.5609
   2841.0000     15.1095      1.5987   -999.2500   -999.2500   -999.2500   -999.2500     74.3521    175.3454
   2841.5000     12.2250      1.7655   -999.2500   -999.2500   -999.2500   -999.2500     70.8040    176.4968
   2842.0000     12.3049      1.2502   -999.2500   -999.2500   -999.2500   -999.2500     73.3160    175.8371
   2842.5000     13.3988      1.0243   -999.2500   -999.2500   -999.2500   -999.2500     81.5834    176.4446
   2843.0000     10.4876      0.9922   -999.2500   -999.2500   -999.2500   -999.2500     76.9322    175.2813
   2843.5000     13.9825      1.0491   -999.2500   -999.2500   -999.2500   -999.2500     79.1346    174.8102
   2844.0000     13.0447      0.9843   -999.2500   -999.2500   -999.2500   -999.2500     81.4407    174.1885
   2844.5000     11.7664      1.1718   -999.2500   -999.2500   -999.2500   -999.2500     80.9504    176.4171
   2845.0000     13.6745      1.1855   -999.2500   -999.2500   -999.2500   -999.2500     78.3228    178.9834
   2845.5000     13.5588      1.1805   -999.2500   -999.2500   -999.2500   -999.2500     80.4960    178.3624
   2846.0000      9.5585      1.2331   -999.2500   -999.2500   -999.2500   -999.2500     75.1091    175.6530
   2846.5000     12.1598      1.0809   -999.2500   -999.2500   -999.2500   -999.2500     77.0275    176.2524
   2847.0000      9.1631      0.8231   -999.2500   -999.2500   -999.2500   -999.2500     80.7745    173.5112
   2847.5000     11.6209      1.3905   -999.2500   -999.2500   -999.2500   -999.2500     80.6441    172.7121
   2848.0000     12.8465      1.2409   -999.2500   -999.2500   -999.2500   -999.2500     76.6200    174.0978
   2848.5000     13.0152      1.2967   -999.2500   -999.2500   -999.2500   -999.2500     77.4115    176.6583
