~Version Information
 VERS.           2.0     :   CWLS log ASCII Standard -VERSION 2.0
 WRAP.           NO      :   One line per depth step
~Well Information
#MNEM.UNIT      VALUE/NAME              DESCRIPTION
#--------     --------------            ---------------------
 STRT.M           555.0000              :START DEPTH
 STOP.M          4683.0000              :STOP DEPTH
 STEP.M             0.5000              :STEP
 NULL.             -999.25              :NULL VALUE
 COMP.    Woodside                      :COMPANY
 WELL.    Torosa 1                      :WELL
 FLD .    Exploration                   :FIELD
 LOC .                                  :LOCATION
 PROV.                                  :PROVINCE
 SRVC.    Sperry/Schlumberger /Occam    :SERVICE COMPANY
 CTRY.                                  :COUNTRY
 DATE.    15/12/2006 / 2009             :LOG DATE
 UWI .                                  :UNIQUE WELL ID
 LATI.DEG -13/52/02.03                   : Latitude
 LONG.DEG 122/04/09.59                  : Longitude
 GDAT.                                  : Geodetic Datum
~PARAMETER INFORMATION
~CURVE INFORMATION
#MNEM    .UNIT     API CODE             Curve Description
 DEPT    .M                             :   Along hole depth
 GR      .API                           :   Gamma Ray combined
 RS      .OHMM                          :   Shallow Resistivity composite curve
 RD      .OHMM                          :   Deep Resistivity composite curve
 RHOZ    .g/cm3                         :   Formation Density
 HTNP    .PU                            :   Thermal Neutron Porosity
 HDAR    .IN                            :   Hole Diameter from Area
 BATC    .USEC/F                        :   Compressional Sonic
 DTS     .US/FT                         :   Shear Slowness 1
#
# Curve              Start        Stop     Minimum     Maximum
# ------------------------------------------------------------
#
# GR              555.0000   4683.0000      7.5740    694.8002
# RS              555.0000   4681.0000      0.0736   2298.5820
# RD              555.0000   4681.0000      0.3113 100000.0000
# RHOZ           3577.0000   4666.0000      1.9503      2.9209
# HTNP           3460.5000   4665.0000      1.8357     62.5261
# HDAR           3525.0000   4674.5000      5.2666     12.4949
# BATC            641.0000   4654.0000     48.8589    170.6566
# DTS            2485.5000   4645.5000     90.6426    183.8240
# ******************************
# 
# ************************************************************
#
# #
# LOCN 	LAT:	13o 52' 02.03" S			WELL NAME: 	Torosa 1
# 	LONG:	122o 04' 09.59" E
# 	EASTING: 	399434.9m E	NORTHING: 	8466761.6m N	ZONE:	51	GDA 94
# SEISMIC REF:	Torosa 3D	INLINE:  1583	XLINE:  3768	STATUS:	P & A (gas)	
# ELEVN SF:	- 476.3m LAT 	DATUM KB:	22.9m	OPERATOR:	Woodside
# BASIN :		Browse	TOTAL D:	4685m	PARTNERS:	BP, BHPB, Shell
# 						Chevron
# SPUD DATE:	05/11/2006	COMPLN DATE:	29/12/2006	LEASE:	WA-30-R
# TARGET:	Field appraisal			DRILLER:  	Maersk
# DATA SOURCE:	WCR, logs			RIG:	Nan Hai VI
# #
# HOLE AND CASING DATA:
# 	Hole 	Hole	Casing	Casing 	Weight	Grade	Joints	Cement 	TOC
# 	Size	Depth	Size	Depth	lb/ft
# 	36”	557.5m	30”	555.8m	310	X-52	3	1342 sx G at SG 1.9 	Seafloor
# 	12.25”	3533m	9 5/8”	3526.7m	47	L-80	242	325 sx HTB at SG 1.9	
# 	8.5”	4685m
# #
# TEMPERATURES:	See also temperatures reported on MDT sampling
# 	Logger's Depth	Temp	Log Type	Time since circ	Circ Time
# 	4680m	129 deg C	PEX-HRLA	16 hrs 45 mins	4.5 hrs
# 		130 deg C	HNGS	34 hrs 40 mins
# 		140.7 deg C	MDT-GR	73 hrs 9 mins	
# 		144.5 deg C	MDT-GR	116 hrs 50 mins
# #
# MUD PROPERTIES:
# Depth (L)	Fluid Type	SG	Vis.	pH	Fl cc	Rm	Rmf	Rmc
# 4685m	Aquadrill WBM	1.21	58	8.1	4.2	0.354 at 31.3 deg C	0.272 at 31.2 deg C	0.52 at 31.3 deg C
# 		KCl	8%		Barite	5.53%
# #
#DEVIATION SURVEY:	(Sperry LWD)
#	Depth	Dev (deg)	Azimuth (deg)	Depth	Dev (deg)	Azimuth (deg)
#	499.2m	0.00	0.00	579.8m	0.33	190.34
#	635.7m	0.45	196.81	663.9m	0.43	200.92
#	720.8m	0.45	184.80	749.3m	0.40	178.37
#	778.1m	0.48	213.43	806.7m	0.37	217.84
#	835.4m	0.41	220.39	864.1m	0.50	207.37
#	892.8m	0.55	191.29	921.5m	0.43	210.49
#	950.4m	0.37	216.12	978.9m	0.67	192.70
#	1007.2m	0.44	157.04	1035.3m	0.26	179.50
#	1091.2m	0.72	160.83	1119.0m	0.99	167.96
#	1146.6m	1.24	165.45	1174.5m	0.92	173.68
#	1202.3m	1.17	163.94	1230.4m	1.22	171.50
#	1286.4m	1.11	175.97	1314.8m	1.13	176.31
#	1343.1m	1.05	177.72	1371.5m	1.33	175.92
#	1399.9m	1.60	188.03	1428.5m	1.63	191.10
#	1457.4m	1.49	184.45	1486.5m	1.51	186.17
#	1515.2m	1.48	194.93	1543.7m	1.54	207.86
#	1571.7m	1.56	210.90	1599.2m	1.68	210.91
#	1627.6m	1.86	212.17	1655.0m	1.42	215.91
#	1681.6m	0.91	225.99	1710.6m	0.82	242.55
#	1768.8m	0.55	275.33	1797.8m	0.45	242.11
#	1826.3m	0.12	234.81	1883.0m	0.25	216.30
#	1910.7m	0.14	218.29	1938.5m	0.47	261.92
#	1965.7m	0.47	265.81	1992.9m	0.44	269.76
#	2022.3m	0.91	352.01	2051.5m	1.39	10.16
#	2079.1m	1.76	17.08	2105.4m	1.56	12.11
#	2134.4m	1.71	15.62	2164.0m	1.74	16.08
#	2193.3m	1.77	20.50	2220.5m	1.87	18.52
#	2247.3m	1.92	16.38	2275.8m	1.74	8.65
#	2304.7m	1.20	357.09	2333.8m	1.15	351.73
#	2362.0m	1.14	351.42	2389.8m	1.36	346.44
#	2417.5m	1.45	350.69	2445.0m	1.06	339.39
#	2473.4m	1.20	352.35	2503.5m	1.36	353.01
#	2531.6m	1.24	342.88	2554.7m	1.10	345.87
#	2587.3m	1.16	359.05	2616.2m	1.10	348.58
#	2643.7m	0.86	342.80	2672.0m	1.00	350.98
#	2700.6m	0.69	341.90	2728.5m	0.81	348.53
#	2757.0m	0.80	353.78	2784.7m	0.90	352.41
#	2813.0m	0.83	331.28	2841.2m	0.75	337.02
#	2870.0m	0.79	327.68	2900.7m	1.00	328.04
#	2955.7m	0.96	351.55	2985.0m	0.92	347.16
#	3012.4m	0.86	0.75	3039.7m	0.66	348.87
#	3068.2m	1.06	356.49	3098.6m	0.81	355.08
#	3124.7m	0.97	10.60	3154.7m	0.83	358.70
#	3181.3m	1.02	353.15	3209.6m	0.94	12.08
#	3239.2m	1.32	4.55	3267.3m	1.27	2.33
#	3293.3m	0.94	15.02	3323.7m	1.23	3.43
#	3351.7m	0.88	6.02	3383.7m	1.08	4.83
#	3410.2m	0.75	3.07	3439.4m	0.66	19.95
#	3466.4m	0.87	11.07	3495.6m	1.02	16.73
#	3599.4m	1.47	12.38	3599.4m	1.47	12.38
#	3629.3m	1.60	16.10	3685.7m	1.54	6.45
#	3712.9m	1.62	13.25	3770.8m	1.62	356.79
#	3779.4m	1.72	359.60	3881.6m	1.92	1.29
#	3910.5m	2.29	349.77	3941.5m	2.60	349.42
#	3996.8m	2.80	344.29	4023.5m	2.77	345.16
#	4081.2m	2.45	341.88	4110.3m	2.43	341.51
#	4138.6m	2.21	342.63	4166.0m	2.08	352.68
#	4193.1m	1.68	353.00	4220.6m	1.80	345.27
#	4250.2m	1.83	335.86	4277.6m	1.87	343.08
#	4304.8m	1.91	339.15	4333.1m	1.80	342.44
#	4361.4m	1.89	335.11	4389.5m	1.78	332.23
#	4417.7m	1.70	337.15	4446.0m	1.97	336.90
#	4474.8m	2.80	325.02	4503.4m	4.53	320.41
#	4531.2m	5.96	316.69	4559.1m	7.72	317.69
#	4644.7m	12.78	313.86	4671.9m	13.97	313.85
#
##VELOCITY SURVEY:	(Schlumberger and Read Well Services)	OWT, vertically corrected rel to MSL
#	Depth	TVD SS	OWT(sec)	Depth	TVD SS	OWT(sec)
#	2870.7m	2849.5m	1.0773	2885.8m	2864.6m	1.0802
#	2900.9m	2879.7m	1.0832	2916.0m	2894.8m	1.0858
#	2931.2m	2909.9m	1.0885	2946.3m	2925.1m	1.0912
#	2961.4m	2940.2m	1.0943	2976.5m	2955.3m	1.0977
#	2991.7m	2970.4m	1.1014	3006.8m	2985.6m	1.1048
#	3021.9m	3000.7m	1.1086	3037.0m	3015.8m	1.1123
#	3052.2m	3030.9m	1.1157	3067.3m	3046.1m	1.1185
#	3082.4m	3061.2m	1.1216	3097.5m	3076.3m	1.1250
#	3112.6m	3091.4m	1.1292	3127.8m	3106.5m	1.1332
#	3142.9m	3121.6m	1.1370	3158.0m	3136.8m	1.1399
#	3173.0m	3151.8m	1.1429	3188.1m	3166.9m	1.1458
#	3203.2m	3182.0m	1.1489	3218.4m	3197.1m	1.1520
#	3233.5m	3212.3m	1.1550	3248.6m	3227.4m	1.1579
#	3263.8m	3242.5m	1.1608	3278.9m	3257.6m	1.1637
#	3294.0m	3272.8m	1.1665	3309.2m	3287.9m	1.1694
#	3324.3m	3303.0m	1.1723	3339.4m	3318.1m	1.1752
#	3355.0m	3333.7m	1.1781	3370.1m	3348.9m	1.1811
#	3385.3m	3364.0m	1.1841	3400.4m	3379.1m	1.1872
#	3415.0m	3393.7m	1.1901	3430.1m	3408.8m	1.1931
#	3445.2m	3423.9m	1.1962	3460.4m	3439.1m	1.1993
#	3475.5m	3454.3m	1.2025	3490.7m	3469.4m	1.2058
#	3505.8m	3484.5m	1.2093	3520.9m	3499.6m	1.2129
#	3535.9m	3514.6m	1.2165	3551.1m	3529.8m	1.2203
#	3566.2m	3544.9m	1.2243	3581.3m	3560.0m	1.2283
#	3596.4m	3575.1m	1.2324	3611.5m	3590.2m	1.2366
#	3626.6m	3605.3m	1.2408	3641.8m	3620.4m	1.2446
#	3656.9m	3635.6m	1.2482	3672.0m	3650.7m	1.2517
#	3687.1m	3665.8m	1.2555	3702.3m	3680.9m	1.2592
#	3717.4m	3696.0m	1.2630	3732.5m	3711.1m	1.2670
#	3747.6m	3726.3m	1.2712	3762.8m	3741.4m	1.2755
#	3777.8m	3756.4m	1.2799	3792.9m	3771.5m	1.2842
#	3808.0m	3786.6m	1.2884	3823.1m	3801.7m	1.2926
#	3838.4m	3817.0m	1.2968	3853.5m	3832.1m	1.3009
#	3868.7m	3847.2m	1.3050	3883.8m	3862.3m	1.3092
#	3898.8m	3877.3m	1.3132	3913.9m	3892.4m	1.3172
#	3929.0m	3907.5m	1.3211	3944.1m	3922.6m	1.3248
#	3959.3m	3937.8m	1.3283	3974.4m	3952.9m	1.3317
#	3989.5m	3968.0m	1.3352	4004.6m	3983.1m	1.3393
#	4019.8m	3998.3m	1.3439	4035.0m	4013.4m	1.3490
#	4050.1m	4028.5m	1.3540	4065.2m	4043.6m	1.3589
#	4080.3m	4058.7m	1.3637	4095.4m	4073.8m	1.3685
#	4110.6m	4088.9m	1.3732	4125.7m	4104.0m	1.3778
#	4140.8m	4119.1m	1.3822	4155.9m	4134.2m	1.3865
#	4171.0m	4149.3m	1.3909	4186.1m	4164.4m	1.3952
#	4201.2m	4179.5m	1.3996	4216.4m	4194.6m	1.4039
#	4231.5m	4209.7m	1.4083	4246.6m	4224.8m	1.4124
#	4261.7m	4240.0m	1.4163	4276.9m	4255.1m	1.4199
#	4292.0m	4270.2m	1.4235	4307.1m	4285.3m	1.4271
#	4322.2m	4300.4m	1.4305	4337.3m	4315.5m	1.4338
#	4352.4m	4330.6m	1.4372	4367.6m	4345.8m	1.4405
#	4382.7m	4360.9m	1.4438	4397.8m	4376.0m	1.4470
#	4413.0m	4391.1m	1.4503	4428.1m	4406.2m	1.4535
#	4443.2m	4421.4m	1.4565	4458.4m	4436.5m	1.4594
#	4473.5m	4451.6m	1.4621	4488.6m	4466.7m	1.4647
#	4503.6m	4481.7m	1.4674	4518.8m	4496.8m	1.4701
#	4533.9m	4511.8m	1.4730	4549.0m	4526.8m	1.4759
#	4564.2m	4541.8m	1.4790	4579.3m	4556.7m	1.4821
#	4594.4m	4571.5m	1.4851	4609.5m	4586.4m	1.4880
#	4618.9m	4595.7m	1.4900	4634.1m	4610.5m	1.4933
#	4649.2m	4625.3m	1.4966	4664.3m	4640.1m	1.4999
#
# ************************************************************
#    This LAS file was created by Occam Technology Pty. Ltd. 
# from a desampled subset of the full well log data. 
# The header data is extracted from a more detailed digital text  
# summary whicc accompanies the full log dataset.
#    We supply the data on a 'best effort' basis.  We cannot
# control either the original data acquisition or the application
# of the data, and therefore we cannot be held responsible for
# the consequences of any interpretations based on the data.  We
# urge purchasers to apply normal quality control procedures to
# the data before use for any quantitative interpretative
# procedures.
# ************************************************************
~A      DEPT          GR          RS          RD        RHOZ        HTNP        HDAR        BATC         DTS
# ...
   3071.0000     12.7266      1.2557      1.2692   -999.2500   -999.2500   -999.2500     76.5192    158.3620
   3071.5000     13.3349      1.3409      1.3135   -999.2500   -999.2500   -999.2500     74.3723    155.7885
   3072.0000     12.9322      1.3256      1.3376   -999.2500   -999.2500   -999.2500     74.0751    158.4738
   3072.5000     13.3786      1.2831      1.3184   -999.2500   -999.2500   -999.2500     75.7438    156.7944
   3073.0000     14.8619      1.6500      1.6537   -999.2500   -999.2500   -999.2500     75.2225    157.8650
   3073.5000     14.2754      1.4950      1.4614   -999.2500   -999.2500   -999.2500     75.1887    158.0855
   3074.0000     13.8938      1.5951      1.6084   -999.2500   -999.2500   -999.2500     73.7294    159.2249
   3074.5000     12.6877      1.5492      1.5895   -999.2500   -999.2500   -999.2500     73.5860    157.6219
   3075.0000     15.1282      1.8070      1.8538   -999.2500   -999.2500   -999.2500     74.0215    157.9602
   3075.5000     13.8622      2.0856      2.0516   -999.2500   -999.2500   -999.2500     72.9139    158.7243
   3076.0000     14.0900      2.0888      2.1504   -999.2500   -999.2500   -999.2500     73.6552    157.8253
   3076.5000     14.1940      2.2764      2.3057   -999.2500   -999.2500   -999.2500     72.0760    157.9006
   3077.0000     14.7669      2.3391      2.3533   -999.2500   -999.2500   -999.2500     73.4191    158.1743
   3077.5000     15.1957      2.2525      2.3125   -999.2500   -999.2500   -999.2500     72.7354    156.3486
   3078.0000     13.9315      2.3645      2.4694   -999.2500   -999.2500   -999.2500     72.1907    155.6056
   3078.5000     14.0183      2.7662      2.7731   -999.2500   -999.2500   -999.2500     71.1244    155.3234
   3079.0000     16.3798      2.5257      2.5332   -999.2500   -999.2500   -999.2500     70.0355   -999.2500
   3079.5000     14.8083      2.4795      2.5316   -999.2500   -999.2500   -999.2500     72.2925   -999.2500
   3080.0000     15.3378      3.0980      3.1348   -999.2500   -999.2500   -999.2500     72.2295   -999.2500
   3080.5000     14.0703      2.6686      2.7015   -999.2500   -999.2500   -999.2500     72.0455   -999.2500
   3081.0000     14.8146      2.5996      2.6973   -999.2500   -999.2500   -999.2500     71.2666   -999.2500
   3081.5000     15.1038      2.8431      2.9085   -999.2500   -999.2500   -999.2500     71.3356   -999.2500
   3082.0000     13.5401      3.3919      3.4238   -999.2500   -999.2500   -999.2500     70.6170   -999.2500
   3082.5000     13.6501      3.7217      3.7048   -999.2500   -999.2500   -999.2500     70.0753   -999.2500
   3083.0000     15.4874      3.9603      4.0530   -999.2500   -999.2500   -999.2500     68.9428    160.4348
   3083.5000     15.8276      4.4394      4.4845   -999.2500   -999.2500   -999.2500     68.9483    161.3505
   3084.0000     15.4586      4.7146      4.8231   -999.2500   -999.2500   -999.2500     69.6597    163.1784
   3084.5000     15.2488      5.5939      5.6771   -999.2500   -999.2500   -999.2500     68.5319    163.8482
   3085.0000     16.3731      4.9223      5.0474   -999.2500   -999.2500   -999.2500     66.0956    165.0428
   3085.5000     14.4351      4.4002      4.7386   -999.2500   -999.2500   -999.2500     66.5077    164.3627
   3086.0000     13.9678      4.5140      4.7059   -999.2500   -999.2500   -999.2500     67.3500    164.0393
   3086.5000     15.1047      3.6046      3.6342   -999.2500   -999.2500   -999.2500     67.2624    164.7139
   3087.0000     13.5615      2.8304      2.9940   -999.2500   -999.2500   -999.2500     68.2883    166.4951
   3087.5000     14.0369      2.7034      2.8394   -999.2500   -999.2500   -999.2500     68.3870    167.4369
   3088.0000     13.7974      2.6018      2.6179   -999.2500   -999.2500   -999.2500     70.2160    168.6661
   3088.5000     14.1814      2.4549      2.5495   -999.2500   -999.2500   -999.2500     71.1677    169.1219
   3089.0000     14.3125      2.9262      3.0109   -999.2500   -999.2500   -999.2500     70.0732    170.9806
   3089.5000     15.9191      2.8908      2.8962   -999.2500   -999.2500   -999.2500     71.1551    167.6932
   3090.0000     13.4710      2.8171      2.8100   -999.2500   -999.2500   -999.2500     69.8721    166.7665
   3090.5000     12.4245      2.2648      2.3466   -999.2500   -999.2500   -999.2500     70.6300    157.1347
   3091.0000     11.8314      1.9426      2.0447   -999.2500   -999.2500   -999.2500     71.1097    166.2819
   3091.5000     10.8886      2.0310      2.0755   -999.2500   -999.2500   -999.2500     71.2249    160.9051
   3092.0000     11.5896      2.1956      2.3645   -999.2500   -999.2500   -999.2500     72.0996    160.4014
   3092.5000     12.3287      3.4358      3.5813   -999.2500   -999.2500   -999.2500     70.4410    160.4392
   3093.0000     12.9851      2.8849      2.8354   -999.2500   -999.2500   -999.2500     71.0999    160.4352
   3093.5000     14.5776      2.8804      3.0850   -999.2500   -999.2500   -999.2500     70.9125    161.0043
   3094.0000     16.3947      2.9752      3.1038   -999.2500   -999.2500   -999.2500     70.3281    162.1620
   3094.5000     16.4073      3.4224      3.4445   -999.2500   -999.2500   -999.2500     71.4030    161.4805
   3095.0000     15.3480      3.6435      3.5921   -999.2500   -999.2500   -999.2500     70.7486    161.0841
   3095.5000     16.6302      3.4354      3.5671   -999.2500   -999.2500   -999.2500     70.3433    163.1346
   3096.0000     17.8896      3.5801      3.6036   -999.2500   -999.2500   -999.2500     69.4430    162.8123
   3096.5000     17.0896      3.4747      3.5034   -999.2500   -999.2500   -999.2500     68.7970    167.5733
   3097.0000     15.8142      3.3030      3.3922   -999.2500   -999.2500   -999.2500     68.6021    170.8075
   3097.5000     15.7391      2.9359      2.9084   -999.2500   -999.2500   -999.2500     69.7182    169.6159
   3098.0000     15.4654      2.7225      2.8118   -999.2500   -999.2500   -999.2500     68.6557    167.9217
   3098.5000     16.1242      2.6473      2.7598   -999.2500   -999.2500   -999.2500     68.8068    166.6039
   3099.0000     16.2741      2.0102      2.0329   -999.2500   -999.2500   -999.2500     70.3405    158.0486
   3099.5000     15.9393      1.3824      1.4363   -999.2500   -999.2500   -999.2500     70.3358    155.7313
   3100.0000     17.1161      1.6402      1.6685   -999.2500   -999.2500   -999.2500     72.3334    155.2194
   3100.5000     16.0974      1.5825      1.5829   -999.2500   -999.2500   -999.2500     72.8334    149.9012
   3101.0000     14.0483      2.0193      2.0232   -999.2500   -999.2500   -999.2500     76.3919   -999.2500
   3101.5000     15.2985      3.1687      3.2187   -999.2500   -999.2500   -999.2500     75.2173   -999.2500
   3102.0000     14.3505      4.6503      4.5534   -999.2500   -999.2500   -999.2500     74.2586   -999.2500
   3102.5000     16.2404      6.9009      6.2950   -999.2500   -999.2500   -999.2500     70.6951   -999.2500
   3103.0000     17.0753      7.7549      8.2403   -999.2500   -999.2500   -999.2500     64.7250   -999.2500
   3103.5000     17.5270      9.6355     10.3014   -999.2500   -999.2500   -999.2500     66.0523   -999.2500
   3104.0000     19.9512     13.5881     13.2419   -999.2500   -999.2500   -999.2500     62.5574   -999.2500
   3104.5000     20.7673     15.0251     15.1208   -999.2500   -999.2500   -999.2500     63.7221   -999.2500
   3105.0000     21.7135     17.1350     17.4140   -999.2500   -999.2500   -999.2500     61.8281   -999.2500
   3105.5000     19.7588     14.1232     13.4466   -999.2500   -999.2500   -999.2500     59.7021   -999.2500
   3106.0000     21.2630      8.2443      8.2395   -999.2500   -999.2500   -999.2500     59.6664   -999.2500
   3106.5000     16.1952      6.0702      6.5503   -999.2500   -999.2500   -999.2500     58.7705   -999.2500
   3107.0000     15.4236      5.5194      6.3745   -999.2500   -999.2500   -999.2500     63.0021   -999.2500
   3107.5000     15.6411      6.5607      7.2446   -999.2500   -999.2500   -999.2500     66.4329   -999.2500
