~Version Information
 VERS.           2.0     :   CWLS log ASCII Standard -VERSION 2.0
 WRAP.           NO      :   One line per depth step
~Well Information
#MNEM.UNIT      VALUE/NAME              DESCRIPTION
#--------     --------------            ---------------------
 STRT.M           555.0000              :START DEPTH
 STOP.M          4683.0000              :STOP DEPTH
 STEP.M             0.5000              :STEP
 NULL.             -999.25              :NULL VALUE
 COMP.    Woodside                      :COMPANY
 WELL.    Torosa 1                      :WELL
 FLD .    Exploration                   :FIELD
 LOC .                                  :LOCATION
 PROV.                                  :PROVINCE
 SRVC.    Sperry/Schlumberger /Occam    :SERVICE COMPANY
 CTRY.                                  :COUNTRY
 DATE.    15/12/2006 / 2009             :LOG DATE
 UWI .                                  :UNIQUE WELL ID
 LATI.DEG -13/52/02.03                   : Latitude
 LONG.DEG 122/04/09.59                  : Longitude
 GDAT.                                  : Geodetic Datum
~PARAMETER INFORMATION
~CURVE INFORMATION
#MNEM    .UNIT     API CODE             Curve Description
 DEPT    .M                             :   Along hole depth
 GR      .API                           :   Gamma Ray combined
 RS      .OHMM                          :   Shallow Resistivity composite curve
 RD      .OHMM                          :   Deep Resistivity composite curve
 RHOZ    .g/cm3                         :   Formation Density
 HTNP    .PU                            :   Thermal Neutron Porosity
 HDAR    .IN                            :   Hole Diameter from Area
 BATC    .USEC/F                        :   Compressional Sonic
 DTS     .US/FT                         :   Shear Slowness 1
#
# Curve              Start        Stop     Minimum     Maximum
# ------------------------------------------------------------
#
# GR              555.0000   4683.0000      7.5740    694.8002
# RS              555.0000   4681.0000      0.0736   2298.5820
# RD              555.0000   4681.0000      0.3113 100000.0000
# RHOZ           3577.0000   4666.0000      1.9503      2.9209
# HTNP           3460.5000   4665.0000      1.8357     62.5261
# HDAR           3525.0000   4674.5000      5.2666     12.4949
# BATC            641.0000   4654.0000     48.8589    170.6566
# DTS            2485.5000   4645.5000     90.6426    183.8240
# ******************************
# 
# ************************************************************
#
# #
# LOCN 	LAT:	13o 52' 02.03" S			WELL NAME: 	Torosa 1
# 	LONG:	122o 04' 09.59" E
# 	EASTING: 	399434.9m E	NORTHING: 	8466761.6m N	ZONE:	51	GDA 94
# SEISMIC REF:	Torosa 3D	INLINE:  1583	XLINE:  3768	STATUS:	P & A (gas)	
# ELEVN SF:	- 476.3m LAT 	DATUM KB:	22.9m	OPERATOR:	Woodside
# BASIN :		Browse	TOTAL D:	4685m	PARTNERS:	BP, BHPB, Shell
# 						Chevron
# SPUD DATE:	05/11/2006	COMPLN DATE:	29/12/2006	LEASE:	WA-30-R
# TARGET:	Field appraisal			DRILLER:  	Maersk
# DATA SOURCE:	WCR, logs			RIG:	Nan Hai VI
# #
# HOLE AND CASING DATA:
# 	Hole 	Hole	Casing	Casing 	Weight	Grade	Joints	Cement 	TOC
# 	Size	Depth	Size	Depth	lb/ft
# 	36”	557.5m	30”	555.8m	310	X-52	3	1342 sx G at SG 1.9 	Seafloor
# 	12.25”	3533m	9 5/8”	3526.7m	47	L-80	242	325 sx HTB at SG 1.9	
# 	8.5”	4685m
# #
# TEMPERATURES:	See also temperatures reported on MDT sampling
# 	Logger's Depth	Temp	Log Type	Time since circ	Circ Time
# 	4680m	129 deg C	PEX-HRLA	16 hrs 45 mins	4.5 hrs
# 		130 deg C	HNGS	34 hrs 40 mins
# 		140.7 deg C	MDT-GR	73 hrs 9 mins	
# 		144.5 deg C	MDT-GR	116 hrs 50 mins
# #
# MUD PROPERTIES:
# Depth (L)	Fluid Type	SG	Vis.	pH	Fl cc	Rm	Rmf	Rmc
# 4685m	Aquadrill WBM	1.21	58	8.1	4.2	0.354 at 31.3 deg C	0.272 at 31.2 deg C	0.52 at 31.3 deg C
# 		KCl	8%		Barite	5.53%
# #
#DEVIATION SURVEY:	(Sperry LWD)
#	Depth	Dev (deg)	Azimuth (deg)	Depth	Dev (deg)	Azimuth (deg)
#	499.2m	0.00	0.00	579.8m	0.33	190.34
#	635.7m	0.45	196.81	663.9m	0.43	200.92
#	720.8m	0.45	184.80	749.3m	0.40	178.37
#	778.1m	0.48	213.43	806.7m	0.37	217.84
#	835.4m	0.41	220.39	864.1m	0.50	207.37
#	892.8m	0.55	191.29	921.5m	0.43	210.49
#	950.4m	0.37	216.12	978.9m	0.67	192.70
#	1007.2m	0.44	157.04	1035.3m	0.26	179.50
#	1091.2m	0.72	160.83	1119.0m	0.99	167.96
#	1146.6m	1.24	165.45	1174.5m	0.92	173.68
#	1202.3m	1.17	163.94	1230.4m	1.22	171.50
#	1286.4m	1.11	175.97	1314.8m	1.13	176.31
#	1343.1m	1.05	177.72	1371.5m	1.33	175.92
#	1399.9m	1.60	188.03	1428.5m	1.63	191.10
#	1457.4m	1.49	184.45	1486.5m	1.51	186.17
#	1515.2m	1.48	194.93	1543.7m	1.54	207.86
#	1571.7m	1.56	210.90	1599.2m	1.68	210.91
#	1627.6m	1.86	212.17	1655.0m	1.42	215.91
#	1681.6m	0.91	225.99	1710.6m	0.82	242.55
#	1768.8m	0.55	275.33	1797.8m	0.45	242.11
#	1826.3m	0.12	234.81	1883.0m	0.25	216.30
#	1910.7m	0.14	218.29	1938.5m	0.47	261.92
#	1965.7m	0.47	265.81	1992.9m	0.44	269.76
#	2022.3m	0.91	352.01	2051.5m	1.39	10.16
#	2079.1m	1.76	17.08	2105.4m	1.56	12.11
#	2134.4m	1.71	15.62	2164.0m	1.74	16.08
#	2193.3m	1.77	20.50	2220.5m	1.87	18.52
#	2247.3m	1.92	16.38	2275.8m	1.74	8.65
#	2304.7m	1.20	357.09	2333.8m	1.15	351.73
#	2362.0m	1.14	351.42	2389.8m	1.36	346.44
#	2417.5m	1.45	350.69	2445.0m	1.06	339.39
#	2473.4m	1.20	352.35	2503.5m	1.36	353.01
#	2531.6m	1.24	342.88	2554.7m	1.10	345.87
#	2587.3m	1.16	359.05	2616.2m	1.10	348.58
#	2643.7m	0.86	342.80	2672.0m	1.00	350.98
#	2700.6m	0.69	341.90	2728.5m	0.81	348.53
#	2757.0m	0.80	353.78	2784.7m	0.90	352.41
#	2813.0m	0.83	331.28	2841.2m	0.75	337.02
#	2870.0m	0.79	327.68	2900.7m	1.00	328.04
#	2955.7m	0.96	351.55	2985.0m	0.92	347.16
#	3012.4m	0.86	0.75	3039.7m	0.66	348.87
#	3068.2m	1.06	356.49	3098.6m	0.81	355.08
#	3124.7m	0.97	10.60	3154.7m	0.83	358.70
#	3181.3m	1.02	353.15	3209.6m	0.94	12.08
#	3239.2m	1.32	4.55	3267.3m	1.27	2.33
#	3293.3m	0.94	15.02	3323.7m	1.23	3.43
#	3351.7m	0.88	6.02	3383.7m	1.08	4.83
#	3410.2m	0.75	3.07	3439.4m	0.66	19.95
#	3466.4m	0.87	11.07	3495.6m	1.02	16.73
#	3599.4m	1.47	12.38	3599.4m	1.47	12.38
#	3629.3m	1.60	16.10	3685.7m	1.54	6.45
#	3712.9m	1.62	13.25	3770.8m	1.62	356.79
#	3779.4m	1.72	359.60	3881.6m	1.92	1.29
#	3910.5m	2.29	349.77	3941.5m	2.60	349.42
#	3996.8m	2.80	344.29	4023.5m	2.77	345.16
#	4081.2m	2.45	341.88	4110.3m	2.43	341.51
#	4138.6m	2.21	342.63	4166.0m	2.08	352.68
#	4193.1m	1.68	353.00	4220.6m	1.80	345.27
#	4250.2m	1.83	335.86	4277.6m	1.87	343.08
#	4304.8m	1.91	339.15	4333.1m	1.80	342.44
#	4361.4m	1.89	335.11	4389.5m	1.78	332.23
#	4417.7m	1.70	337.15	4446.0m	1.97	336.90
#	4474.8m	2.80	325.02	4503.4m	4.53	320.41
#	4531.2m	5.96	316.69	4559.1m	7.72	317.69
#	4644.7m	12.78	313.86	4671.9m	13.97	313.85
#
##VELOCITY SURVEY:	(Schlumberger and Read Well Services)	OWT, vertically corrected rel to MSL
#	Depth	TVD SS	OWT(sec)	Depth	TVD SS	OWT(sec)
#	2870.7m	2849.5m	1.0773	2885.8m	2864.6m	1.0802
#	2900.9m	2879.7m	1.0832	2916.0m	2894.8m	1.0858
#	2931.2m	2909.9m	1.0885	2946.3m	2925.1m	1.0912
#	2961.4m	2940.2m	1.0943	2976.5m	2955.3m	1.0977
#	2991.7m	2970.4m	1.1014	3006.8m	2985.6m	1.1048
#	3021.9m	3000.7m	1.1086	3037.0m	3015.8m	1.1123
#	3052.2m	3030.9m	1.1157	3067.3m	3046.1m	1.1185
#	3082.4m	3061.2m	1.1216	3097.5m	3076.3m	1.1250
#	3112.6m	3091.4m	1.1292	3127.8m	3106.5m	1.1332
#	3142.9m	3121.6m	1.1370	3158.0m	3136.8m	1.1399
#	3173.0m	3151.8m	1.1429	3188.1m	3166.9m	1.1458
#	3203.2m	3182.0m	1.1489	3218.4m	3197.1m	1.1520
#	3233.5m	3212.3m	1.1550	3248.6m	3227.4m	1.1579
#	3263.8m	3242.5m	1.1608	3278.9m	3257.6m	1.1637
#	3294.0m	3272.8m	1.1665	3309.2m	3287.9m	1.1694
#	3324.3m	3303.0m	1.1723	3339.4m	3318.1m	1.1752
#	3355.0m	3333.7m	1.1781	3370.1m	3348.9m	1.1811
#	3385.3m	3364.0m	1.1841	3400.4m	3379.1m	1.1872
#	3415.0m	3393.7m	1.1901	3430.1m	3408.8m	1.1931
#	3445.2m	3423.9m	1.1962	3460.4m	3439.1m	1.1993
#	3475.5m	3454.3m	1.2025	3490.7m	3469.4m	1.2058
#	3505.8m	3484.5m	1.2093	3520.9m	3499.6m	1.2129
#	3535.9m	3514.6m	1.2165	3551.1m	3529.8m	1.2203
#	3566.2m	3544.9m	1.2243	3581.3m	3560.0m	1.2283
#	3596.4m	3575.1m	1.2324	3611.5m	3590.2m	1.2366
#	3626.6m	3605.3m	1.2408	3641.8m	3620.4m	1.2446
#	3656.9m	3635.6m	1.2482	3672.0m	3650.7m	1.2517
#	3687.1m	3665.8m	1.2555	3702.3m	3680.9m	1.2592
#	3717.4m	3696.0m	1.2630	3732.5m	3711.1m	1.2670
#	3747.6m	3726.3m	1.2712	3762.8m	3741.4m	1.2755
#	3777.8m	3756.4m	1.2799	3792.9m	3771.5m	1.2842
#	3808.0m	3786.6m	1.2884	3823.1m	3801.7m	1.2926
#	3838.4m	3817.0m	1.2968	3853.5m	3832.1m	1.3009
#	3868.7m	3847.2m	1.3050	3883.8m	3862.3m	1.3092
#	3898.8m	3877.3m	1.3132	3913.9m	3892.4m	1.3172
#	3929.0m	3907.5m	1.3211	3944.1m	3922.6m	1.3248
#	3959.3m	3937.8m	1.3283	3974.4m	3952.9m	1.3317
#	3989.5m	3968.0m	1.3352	4004.6m	3983.1m	1.3393
#	4019.8m	3998.3m	1.3439	4035.0m	4013.4m	1.3490
#	4050.1m	4028.5m	1.3540	4065.2m	4043.6m	1.3589
#	4080.3m	4058.7m	1.3637	4095.4m	4073.8m	1.3685
#	4110.6m	4088.9m	1.3732	4125.7m	4104.0m	1.3778
#	4140.8m	4119.1m	1.3822	4155.9m	4134.2m	1.3865
#	4171.0m	4149.3m	1.3909	4186.1m	4164.4m	1.3952
#	4201.2m	4179.5m	1.3996	4216.4m	4194.6m	1.4039
#	4231.5m	4209.7m	1.4083	4246.6m	4224.8m	1.4124
#	4261.7m	4240.0m	1.4163	4276.9m	4255.1m	1.4199
#	4292.0m	4270.2m	1.4235	4307.1m	4285.3m	1.4271
#	4322.2m	4300.4m	1.4305	4337.3m	4315.5m	1.4338
#	4352.4m	4330.6m	1.4372	4367.6m	4345.8m	1.4405
#	4382.7m	4360.9m	1.4438	4397.8m	4376.0m	1.4470
#	4413.0m	4391.1m	1.4503	4428.1m	4406.2m	1.4535
#	4443.2m	4421.4m	1.4565	4458.4m	4436.5m	1.4594
#	4473.5m	4451.6m	1.4621	4488.6m	4466.7m	1.4647
#	4503.6m	4481.7m	1.4674	4518.8m	4496.8m	1.4701
#	4533.9m	4511.8m	1.4730	4549.0m	4526.8m	1.4759
#	4564.2m	4541.8m	1.4790	4579.3m	4556.7m	1.4821
#	4594.4m	4571.5m	1.4851	4609.5m	4586.4m	1.4880
#	4618.9m	4595.7m	1.4900	4634.1m	4610.5m	1.4933
#	4649.2m	4625.3m	1.4966	4664.3m	4640.1m	1.4999
#
# ************************************************************
#    This LAS file was created by Occam Technology Pty. Ltd. 
# from a desampled subset of the full well log data. 
# The header data is extracted from a more detailed digital text  
# summary whicc accompanies the full log dataset.
#    We supply the data on a 'best effort' basis.  We cannot
# control either the original data acquisition or the application
# of the data, and therefore we cannot be held responsible for
# the consequences of any interpretations based on the data.  We
# urge purchasers to apply normal quality control procedures to
# the data before use for any quantitative interpretative
# procedures.
# ************************************************************
~A      DEPT          GR          RS          RD        RHOZ        HTNP        HDAR        BATC         DTS
# ...
   3959.0000     38.7491      2.7929      2.7697      2.4918     19.7793      8.8121     73.0371    138.4726
   3959.5000     41.4283      2.8444      2.8408      2.5197     17.2908      8.8121     73.6181    140.2518
   3960.0000     39.2191      2.9501      2.9537      2.5131     19.8135      8.8239     72.9155    140.6351
   3960.5000     39.3764      2.8881      2.8607      2.5358     20.1020      8.8356     72.7062    139.0759
   3961.0000     35.8168      2.6292      2.5741      2.4857     21.6002      8.8515     72.1817    135.3839
   3961.5000     35.4792      2.7087      2.6583      2.4868     20.3153      8.9379     70.0591    132.0375
   3962.0000     34.7011      2.6224      2.5810      2.4886     20.9261      8.8473     70.9893    136.8958
   3962.5000     41.6168      2.9911      2.9672      2.5389     18.5327      8.8300     72.3358    138.3395
   3963.0000     42.1837      3.1849      3.1821      2.5458     19.1576      8.8479     72.7284    138.2276
   3963.5000     37.8035      2.9694      2.9514      2.5045     18.2515      8.8636     72.4715    137.6063
   3964.0000     37.2839      2.6634      2.5632      2.4844     20.0219      8.8949     71.8734    137.4191
   3964.5000     39.5349      2.8293      2.6993      2.5323     19.7272      8.8121     73.0256    143.5176
   3965.0000     47.7718      3.2833      3.1848      2.5650     17.6553      8.8121     72.9133    142.6753
   3965.5000     40.6945      3.7646      3.6339      2.5707     18.2036      8.8042     72.1996   -999.2500
   3966.0000     43.5642      3.2281      3.0889      2.5706     19.0669      8.8479     71.9298   -999.2500
   3966.5000     41.2115      3.4646      3.3030      2.5566     17.5937      8.9818     72.1411   -999.2500
   3967.0000     42.0712      3.4895      3.3499      2.5654     19.0833      8.8121     71.9657   -999.2500
   3967.5000     42.6254      3.6228      3.4767      2.6100     17.8485      8.8121     71.8254    140.9932
   3968.0000     44.7822      3.9198      3.7527      2.5916     17.0439      8.7649     72.2407    141.3098
   3968.5000     48.0210      3.6487      3.4702      2.6016     16.3303      8.7768     73.1943   -999.2500
   3969.0000     40.9506      3.8876      3.7213      2.6021     16.1218      8.7808     72.6403   -999.2500
   3969.5000     42.9471      3.6004      3.4278      2.5938     17.5566      8.8479     72.2658    141.8853
   3970.0000     40.9029      3.7200      3.5661      2.5912     17.4843      8.7650     72.5979    141.4417
   3970.5000     47.0742      3.8788      3.7380      2.5885     16.2801      8.8121     72.5757    142.1860
   3971.0000     44.9806      3.6003      3.4475      2.6153     16.4183      8.8160     73.2547    143.7692
   3971.5000     44.8063      3.6526      3.4566      2.5825     18.9196      8.8321     73.6790    145.2280
   3972.0000     45.9757      3.2192      3.0554      2.5846     17.4760      8.7690     73.3939    143.8610
   3972.5000     45.9407      3.6271      3.4466      2.5862     17.1810      8.7611     73.1011    143.1095
   3973.0000     43.8645      3.3910      3.2308      2.5849     18.3312      8.8479     72.8587    141.4433
   3973.5000     42.7184      3.8939      3.7192      2.6016     17.4301      8.7768     73.2761    143.7909
   3974.0000     42.7778      3.8744      3.7401      2.5821     19.0265      8.7729     72.4620    140.9220
   3974.5000     43.8318      3.7749      3.6552      2.5506     17.7407      8.8479     72.9531    142.3135
   3975.0000     45.2568      3.6084      3.4868      2.5982     18.0664      8.7690     72.2595    141.6151
   3975.5000     43.0555      3.5843      3.5082      2.5963     17.4485      8.7690     70.8077    136.8475
   3976.0000     38.1018      3.9494      3.9632      2.5538     16.8515      8.7650     70.6430    134.6333
   3976.5000     36.9693      3.3300      3.3366      2.5294     17.6470      8.7611     71.5446    137.0361
   3977.0000     42.7585      3.2878      3.2976      2.5514     18.5044      8.8479     71.5262    135.4981
   3977.5000     34.4776      2.7078      2.6988      2.5042     21.0218      8.7650     71.3594    134.0691
   3978.0000     31.0998      2.7355      2.7132      2.5102     20.3453      8.8162     72.1915    135.9947
   3978.5000     32.3518      2.7843      2.8091      2.4979     19.0563      8.8479     69.9722    131.0741
   3979.0000     32.6435      2.9084      2.9022      2.4881     20.8716      8.9227     70.6217    133.7104
   3979.5000     30.3395      2.8056      2.8529      2.5384     19.2522      8.8042     72.3578    136.6186
   3980.0000     40.4395      3.7234      3.8632      2.5297     17.6850      9.1312     70.5598    135.5742
   3980.5000     34.7146      2.6608      2.6966      2.4623     19.7356      9.0279     67.0887    130.9247
   3981.0000     34.9275      2.5522      2.5706      2.4669     19.6501      9.0037     67.0235    128.3563
   3981.5000     27.4778      2.7596      2.8305      2.4611     18.2116      9.0692     67.7176    130.0600
   3982.0000     33.9921      2.5168      2.5646      2.4721     22.5641      8.8918     69.7747    133.3616
   3982.5000     31.3106      2.3341      2.3399      2.4594     23.8650      8.9257     69.5280    133.3781
   3983.0000     32.7867      2.1120      2.1282      2.4301     21.6945      9.1724     68.0885    130.2252
   3983.5000     30.9200      3.0157      3.1641      2.4865     21.0690      9.0440     68.6685    132.4484
   3984.0000     34.7613      2.1733      2.2336      2.4177     21.0768      9.0886     67.9395    133.0543
   3984.5000     34.9879      2.3710      2.4377      2.4589     21.7870      9.0158     65.9466    128.9783
   3985.0000     28.2054      2.3726      2.4741      2.4632     21.0420      9.1183     66.8249    125.4750
   3985.5000     29.4191      2.2228      2.2239      2.4597     20.2845      9.1139     68.4660    128.5451
   3986.0000     30.7381      1.9989      1.9793      2.4425     23.5256      8.8569     69.6400    129.8280
   3986.5000     33.6205      2.1025      2.1084      2.4606     24.2077      8.8269     70.5087    130.5225
   3987.0000     34.7060      2.2570      2.3150      2.4500     21.3759      8.9330     70.5168    136.1482
   3987.5000     32.2065      2.5666      2.6564      2.4835     21.4587      8.8651     69.6120    133.6382
   3988.0000     34.9117      2.5539      2.6191      2.4681     21.7467      8.8002     69.8491    133.6355
   3988.5000     31.7722      2.3554      2.3605      2.4311     21.7114      8.8002     72.3635    136.2446
   3989.0000     33.2867      2.5825      2.6736      2.5179     20.7567      8.7963     72.3591    135.7306
   3989.5000     33.3847      2.6002      2.6318      2.5011     22.2023      8.8002     71.4620    134.1508
   3990.0000     31.6455      2.1866      2.1807      2.4613     23.6848      8.7564     69.0338    131.2853
   3990.5000     28.4940      2.3440      2.3498      2.4551     20.1722      8.8082     70.4200    130.8063
   3991.0000     31.7267      2.0509      2.0131      2.4412     19.6835      8.8002     71.9463    136.7068
   3991.5000     33.7300      2.1534      2.1418      2.4464     22.8127      8.7884     71.4898    134.2031
   3992.0000     28.4975      2.2506      2.2465      2.4328     23.0036      8.7649     72.1788    134.6911
   3992.5000     34.3516      2.5531      2.6056      2.4662     21.5457      8.8241     71.8329    137.3571
   3993.0000     38.5747      2.6435      2.6862      2.4826     20.7587      8.8637     70.7244    135.2571
   3993.5000     29.8693      2.7265      2.7623      2.4791     18.6580      8.9032     71.1483    133.8876
   3994.0000     30.5941      2.7639      2.7938      2.5012     20.1872      8.9012     71.8860    135.5321
   3994.5000     40.7460      2.6283      2.6351      2.4889     20.5975      8.8913     71.5414    136.8217
   3995.0000     35.0859      2.4290      2.4210      2.4749     21.3052      8.8006     71.4915    134.2712
   3995.5000     33.2213      2.6627      2.6835      2.4903     20.4284      8.8518     70.2694    136.1474
