~Version Information
 VERS.           2.0     :   CWLS log ASCII Standard -VERSION 2.0
 WRAP.           NO      :   One line per depth step
~Well Information
#MNEM.UNIT      VALUE/NAME              DESCRIPTION
#--------     --------------            ---------------------
 STRT.M           555.0000              :START DEPTH
 STOP.M          4683.0000              :STOP DEPTH
 STEP.M             0.5000              :STEP
 NULL.             -999.25              :NULL VALUE
 COMP.    Woodside                      :COMPANY
 WELL.    Torosa 1                      :WELL
 FLD .    Exploration                   :FIELD
 LOC .                                  :LOCATION
 PROV.                                  :PROVINCE
 SRVC.    Sperry/Schlumberger /Occam    :SERVICE COMPANY
 CTRY.                                  :COUNTRY
 DATE.    15/12/2006 / 2009             :LOG DATE
 UWI .                                  :UNIQUE WELL ID
 LATI.DEG -13/52/02.03                   : Latitude
 LONG.DEG 122/04/09.59                  : Longitude
 GDAT.                                  : Geodetic Datum
~PARAMETER INFORMATION
~CURVE INFORMATION
#MNEM    .UNIT     API CODE             Curve Description
 DEPT    .M                             :   Along hole depth
 GR      .API                           :   Gamma Ray combined
 RS      .OHMM                          :   Shallow Resistivity composite curve
 RD      .OHMM                          :   Deep Resistivity composite curve
 RHOZ    .g/cm3                         :   Formation Density
 HTNP    .PU                            :   Thermal Neutron Porosity
 HDAR    .IN                            :   Hole Diameter from Area
 BATC    .USEC/F                        :   Compressional Sonic
 DTS     .US/FT                         :   Shear Slowness 1
#
# Curve              Start        Stop     Minimum     Maximum
# ------------------------------------------------------------
#
# GR              555.0000   4683.0000      7.5740    694.8002
# RS              555.0000   4681.0000      0.0736   2298.5820
# RD              555.0000   4681.0000      0.3113 100000.0000
# RHOZ           3577.0000   4666.0000      1.9503      2.9209
# HTNP           3460.5000   4665.0000      1.8357     62.5261
# HDAR           3525.0000   4674.5000      5.2666     12.4949
# BATC            641.0000   4654.0000     48.8589    170.6566
# DTS            2485.5000   4645.5000     90.6426    183.8240
# ******************************
# 
# ************************************************************
#
# #
# LOCN 	LAT:	13o 52' 02.03" S			WELL NAME: 	Torosa 1
# 	LONG:	122o 04' 09.59" E
# 	EASTING: 	399434.9m E	NORTHING: 	8466761.6m N	ZONE:	51	GDA 94
# SEISMIC REF:	Torosa 3D	INLINE:  1583	XLINE:  3768	STATUS:	P & A (gas)	
# ELEVN SF:	- 476.3m LAT 	DATUM KB:	22.9m	OPERATOR:	Woodside
# BASIN :		Browse	TOTAL D:	4685m	PARTNERS:	BP, BHPB, Shell
# 						Chevron
# SPUD DATE:	05/11/2006	COMPLN DATE:	29/12/2006	LEASE:	WA-30-R
# TARGET:	Field appraisal			DRILLER:  	Maersk
# DATA SOURCE:	WCR, logs			RIG:	Nan Hai VI
# #
# HOLE AND CASING DATA:
# 	Hole 	Hole	Casing	Casing 	Weight	Grade	Joints	Cement 	TOC
# 	Size	Depth	Size	Depth	lb/ft
# 	36”	557.5m	30”	555.8m	310	X-52	3	1342 sx G at SG 1.9 	Seafloor
# 	12.25”	3533m	9 5/8”	3526.7m	47	L-80	242	325 sx HTB at SG 1.9	
# 	8.5”	4685m
# #
# TEMPERATURES:	See also temperatures reported on MDT sampling
# 	Logger's Depth	Temp	Log Type	Time since circ	Circ Time
# 	4680m	129 deg C	PEX-HRLA	16 hrs 45 mins	4.5 hrs
# 		130 deg C	HNGS	34 hrs 40 mins
# 		140.7 deg C	MDT-GR	73 hrs 9 mins	
# 		144.5 deg C	MDT-GR	116 hrs 50 mins
# #
# MUD PROPERTIES:
# Depth (L)	Fluid Type	SG	Vis.	pH	Fl cc	Rm	Rmf	Rmc
# 4685m	Aquadrill WBM	1.21	58	8.1	4.2	0.354 at 31.3 deg C	0.272 at 31.2 deg C	0.52 at 31.3 deg C
# 		KCl	8%		Barite	5.53%
# #
#DEVIATION SURVEY:	(Sperry LWD)
#	Depth	Dev (deg)	Azimuth (deg)	Depth	Dev (deg)	Azimuth (deg)
#	499.2m	0.00	0.00	579.8m	0.33	190.34
#	635.7m	0.45	196.81	663.9m	0.43	200.92
#	720.8m	0.45	184.80	749.3m	0.40	178.37
#	778.1m	0.48	213.43	806.7m	0.37	217.84
#	835.4m	0.41	220.39	864.1m	0.50	207.37
#	892.8m	0.55	191.29	921.5m	0.43	210.49
#	950.4m	0.37	216.12	978.9m	0.67	192.70
#	1007.2m	0.44	157.04	1035.3m	0.26	179.50
#	1091.2m	0.72	160.83	1119.0m	0.99	167.96
#	1146.6m	1.24	165.45	1174.5m	0.92	173.68
#	1202.3m	1.17	163.94	1230.4m	1.22	171.50
#	1286.4m	1.11	175.97	1314.8m	1.13	176.31
#	1343.1m	1.05	177.72	1371.5m	1.33	175.92
#	1399.9m	1.60	188.03	1428.5m	1.63	191.10
#	1457.4m	1.49	184.45	1486.5m	1.51	186.17
#	1515.2m	1.48	194.93	1543.7m	1.54	207.86
#	1571.7m	1.56	210.90	1599.2m	1.68	210.91
#	1627.6m	1.86	212.17	1655.0m	1.42	215.91
#	1681.6m	0.91	225.99	1710.6m	0.82	242.55
#	1768.8m	0.55	275.33	1797.8m	0.45	242.11
#	1826.3m	0.12	234.81	1883.0m	0.25	216.30
#	1910.7m	0.14	218.29	1938.5m	0.47	261.92
#	1965.7m	0.47	265.81	1992.9m	0.44	269.76
#	2022.3m	0.91	352.01	2051.5m	1.39	10.16
#	2079.1m	1.76	17.08	2105.4m	1.56	12.11
#	2134.4m	1.71	15.62	2164.0m	1.74	16.08
#	2193.3m	1.77	20.50	2220.5m	1.87	18.52
#	2247.3m	1.92	16.38	2275.8m	1.74	8.65
#	2304.7m	1.20	357.09	2333.8m	1.15	351.73
#	2362.0m	1.14	351.42	2389.8m	1.36	346.44
#	2417.5m	1.45	350.69	2445.0m	1.06	339.39
#	2473.4m	1.20	352.35	2503.5m	1.36	353.01
#	2531.6m	1.24	342.88	2554.7m	1.10	345.87
#	2587.3m	1.16	359.05	2616.2m	1.10	348.58
#	2643.7m	0.86	342.80	2672.0m	1.00	350.98
#	2700.6m	0.69	341.90	2728.5m	0.81	348.53
#	2757.0m	0.80	353.78	2784.7m	0.90	352.41
#	2813.0m	0.83	331.28	2841.2m	0.75	337.02
#	2870.0m	0.79	327.68	2900.7m	1.00	328.04
#	2955.7m	0.96	351.55	2985.0m	0.92	347.16
#	3012.4m	0.86	0.75	3039.7m	0.66	348.87
#	3068.2m	1.06	356.49	3098.6m	0.81	355.08
#	3124.7m	0.97	10.60	3154.7m	0.83	358.70
#	3181.3m	1.02	353.15	3209.6m	0.94	12.08
#	3239.2m	1.32	4.55	3267.3m	1.27	2.33
#	3293.3m	0.94	15.02	3323.7m	1.23	3.43
#	3351.7m	0.88	6.02	3383.7m	1.08	4.83
#	3410.2m	0.75	3.07	3439.4m	0.66	19.95
#	3466.4m	0.87	11.07	3495.6m	1.02	16.73
#	3599.4m	1.47	12.38	3599.4m	1.47	12.38
#	3629.3m	1.60	16.10	3685.7m	1.54	6.45
#	3712.9m	1.62	13.25	3770.8m	1.62	356.79
#	3779.4m	1.72	359.60	3881.6m	1.92	1.29
#	3910.5m	2.29	349.77	3941.5m	2.60	349.42
#	3996.8m	2.80	344.29	4023.5m	2.77	345.16
#	4081.2m	2.45	341.88	4110.3m	2.43	341.51
#	4138.6m	2.21	342.63	4166.0m	2.08	352.68
#	4193.1m	1.68	353.00	4220.6m	1.80	345.27
#	4250.2m	1.83	335.86	4277.6m	1.87	343.08
#	4304.8m	1.91	339.15	4333.1m	1.80	342.44
#	4361.4m	1.89	335.11	4389.5m	1.78	332.23
#	4417.7m	1.70	337.15	4446.0m	1.97	336.90
#	4474.8m	2.80	325.02	4503.4m	4.53	320.41
#	4531.2m	5.96	316.69	4559.1m	7.72	317.69
#	4644.7m	12.78	313.86	4671.9m	13.97	313.85
#
##VELOCITY SURVEY:	(Schlumberger and Read Well Services)	OWT, vertically corrected rel to MSL
#	Depth	TVD SS	OWT(sec)	Depth	TVD SS	OWT(sec)
#	2870.7m	2849.5m	1.0773	2885.8m	2864.6m	1.0802
#	2900.9m	2879.7m	1.0832	2916.0m	2894.8m	1.0858
#	2931.2m	2909.9m	1.0885	2946.3m	2925.1m	1.0912
#	2961.4m	2940.2m	1.0943	2976.5m	2955.3m	1.0977
#	2991.7m	2970.4m	1.1014	3006.8m	2985.6m	1.1048
#	3021.9m	3000.7m	1.1086	3037.0m	3015.8m	1.1123
#	3052.2m	3030.9m	1.1157	3067.3m	3046.1m	1.1185
#	3082.4m	3061.2m	1.1216	3097.5m	3076.3m	1.1250
#	3112.6m	3091.4m	1.1292	3127.8m	3106.5m	1.1332
#	3142.9m	3121.6m	1.1370	3158.0m	3136.8m	1.1399
#	3173.0m	3151.8m	1.1429	3188.1m	3166.9m	1.1458
#	3203.2m	3182.0m	1.1489	3218.4m	3197.1m	1.1520
#	3233.5m	3212.3m	1.1550	3248.6m	3227.4m	1.1579
#	3263.8m	3242.5m	1.1608	3278.9m	3257.6m	1.1637
#	3294.0m	3272.8m	1.1665	3309.2m	3287.9m	1.1694
#	3324.3m	3303.0m	1.1723	3339.4m	3318.1m	1.1752
#	3355.0m	3333.7m	1.1781	3370.1m	3348.9m	1.1811
#	3385.3m	3364.0m	1.1841	3400.4m	3379.1m	1.1872
#	3415.0m	3393.7m	1.1901	3430.1m	3408.8m	1.1931
#	3445.2m	3423.9m	1.1962	3460.4m	3439.1m	1.1993
#	3475.5m	3454.3m	1.2025	3490.7m	3469.4m	1.2058
#	3505.8m	3484.5m	1.2093	3520.9m	3499.6m	1.2129
#	3535.9m	3514.6m	1.2165	3551.1m	3529.8m	1.2203
#	3566.2m	3544.9m	1.2243	3581.3m	3560.0m	1.2283
#	3596.4m	3575.1m	1.2324	3611.5m	3590.2m	1.2366
#	3626.6m	3605.3m	1.2408	3641.8m	3620.4m	1.2446
#	3656.9m	3635.6m	1.2482	3672.0m	3650.7m	1.2517
#	3687.1m	3665.8m	1.2555	3702.3m	3680.9m	1.2592
#	3717.4m	3696.0m	1.2630	3732.5m	3711.1m	1.2670
#	3747.6m	3726.3m	1.2712	3762.8m	3741.4m	1.2755
#	3777.8m	3756.4m	1.2799	3792.9m	3771.5m	1.2842
#	3808.0m	3786.6m	1.2884	3823.1m	3801.7m	1.2926
#	3838.4m	3817.0m	1.2968	3853.5m	3832.1m	1.3009
#	3868.7m	3847.2m	1.3050	3883.8m	3862.3m	1.3092
#	3898.8m	3877.3m	1.3132	3913.9m	3892.4m	1.3172
#	3929.0m	3907.5m	1.3211	3944.1m	3922.6m	1.3248
#	3959.3m	3937.8m	1.3283	3974.4m	3952.9m	1.3317
#	3989.5m	3968.0m	1.3352	4004.6m	3983.1m	1.3393
#	4019.8m	3998.3m	1.3439	4035.0m	4013.4m	1.3490
#	4050.1m	4028.5m	1.3540	4065.2m	4043.6m	1.3589
#	4080.3m	4058.7m	1.3637	4095.4m	4073.8m	1.3685
#	4110.6m	4088.9m	1.3732	4125.7m	4104.0m	1.3778
#	4140.8m	4119.1m	1.3822	4155.9m	4134.2m	1.3865
#	4171.0m	4149.3m	1.3909	4186.1m	4164.4m	1.3952
#	4201.2m	4179.5m	1.3996	4216.4m	4194.6m	1.4039
#	4231.5m	4209.7m	1.4083	4246.6m	4224.8m	1.4124
#	4261.7m	4240.0m	1.4163	4276.9m	4255.1m	1.4199
#	4292.0m	4270.2m	1.4235	4307.1m	4285.3m	1.4271
#	4322.2m	4300.4m	1.4305	4337.3m	4315.5m	1.4338
#	4352.4m	4330.6m	1.4372	4367.6m	4345.8m	1.4405
#	4382.7m	4360.9m	1.4438	4397.8m	4376.0m	1.4470
#	4413.0m	4391.1m	1.4503	4428.1m	4406.2m	1.4535
#	4443.2m	4421.4m	1.4565	4458.4m	4436.5m	1.4594
#	4473.5m	4451.6m	1.4621	4488.6m	4466.7m	1.4647
#	4503.6m	4481.7m	1.4674	4518.8m	4496.8m	1.4701
#	4533.9m	4511.8m	1.4730	4549.0m	4526.8m	1.4759
#	4564.2m	4541.8m	1.4790	4579.3m	4556.7m	1.4821
#	4594.4m	4571.5m	1.4851	4609.5m	4586.4m	1.4880
#	4618.9m	4595.7m	1.4900	4634.1m	4610.5m	1.4933
#	4649.2m	4625.3m	1.4966	4664.3m	4640.1m	1.4999
#
# ************************************************************
#    This LAS file was created by Occam Technology Pty. Ltd. 
# from a desampled subset of the full well log data. 
# The header data is extracted from a more detailed digital text  
# summary whicc accompanies the full log dataset.
#    We supply the data on a 'best effort' basis.  We cannot
# control either the original data acquisition or the application
# of the data, and therefore we cannot be held responsible for
# the consequences of any interpretations based on the data.  We
# urge purchasers to apply normal quality control procedures to
# the data before use for any quantitative interpretative
# procedures.
# ************************************************************
~A      DEPT          GR          RS          RD        RHOZ        HTNP        HDAR        BATC         DTS
# ...
   3293.0000     16.2419     12.0374     12.2278   -999.2500   -999.2500   -999.2500     61.0965    124.2219
   3293.5000     14.4663     11.5285     11.7478   -999.2500   -999.2500   -999.2500     60.5668    119.0084
   3294.0000     13.2172      9.3284      9.7131   -999.2500   -999.2500   -999.2500     61.2571    121.1268
   3294.5000     14.0451      8.8293      9.1399   -999.2500   -999.2500   -999.2500     60.7034    120.7722
   3295.0000     12.4980      8.4598      8.8244   -999.2500   -999.2500   -999.2500     61.9695    122.1757
   3295.5000     14.1381      8.5213      8.9829   -999.2500   -999.2500   -999.2500     58.8605    122.4320
   3296.0000     17.0374     10.8782     10.9164   -999.2500   -999.2500   -999.2500     58.4185    122.9325
   3296.5000     14.0694     10.7109     10.4341   -999.2500   -999.2500   -999.2500     60.2012    124.5036
   3297.0000     14.0402     11.1374     11.1951   -999.2500   -999.2500   -999.2500     60.6560    124.1981
   3297.5000     14.2557     10.3314     10.5593   -999.2500   -999.2500   -999.2500     60.7937    122.3886
   3298.0000     14.6230     10.7842     11.3582   -999.2500   -999.2500   -999.2500     59.3941    119.9984
   3298.5000     13.6858     11.1305     11.6953   -999.2500   -999.2500   -999.2500     58.6587    125.2957
   3299.0000     16.3934     13.2249     13.0776   -999.2500   -999.2500   -999.2500     60.0145    114.4562
   3299.5000     14.0801     12.3261     12.4587   -999.2500   -999.2500   -999.2500     58.7757    116.9741
   3300.0000     13.2847     13.5779     13.6563   -999.2500   -999.2500   -999.2500     59.2647    121.7927
   3300.5000     15.0943     13.1718     13.2921   -999.2500   -999.2500   -999.2500     60.0074    120.0361
   3301.0000     13.7959     11.6178     11.4345   -999.2500   -999.2500   -999.2500     59.8921    116.8754
   3301.5000     13.2735      9.1918      9.5923   -999.2500   -999.2500   -999.2500     57.7323    120.4006
   3302.0000     12.6437      7.3903      8.1129   -999.2500   -999.2500   -999.2500     60.1172    123.6427
   3302.5000     12.8412      8.2911      9.1772   -999.2500   -999.2500   -999.2500     59.6158    127.6878
   3303.0000     16.2053     10.2373     10.6980   -999.2500   -999.2500   -999.2500     60.0090    131.4648
   3303.5000     14.2470     12.7007     12.0002   -999.2500   -999.2500   -999.2500     62.0770    129.3387
   3304.0000     16.8664     13.7486     12.9150   -999.2500   -999.2500   -999.2500     59.8820    125.2888
   3304.5000     22.3718     10.4989     10.4440   -999.2500   -999.2500   -999.2500     61.8515    123.2763
   3305.0000     13.8808      9.0764      9.7858   -999.2500   -999.2500   -999.2500     61.5871    116.9107
   3305.5000     13.6817      9.8540     10.3341   -999.2500   -999.2500   -999.2500     58.1722    119.4552
   3306.0000     14.3630      9.1926      9.2332   -999.2500   -999.2500   -999.2500     57.5912    122.4409
   3306.5000     14.5804      9.4561      9.7781   -999.2500   -999.2500   -999.2500     58.6391    120.0819
   3307.0000     14.1315     11.9561     12.3929   -999.2500   -999.2500   -999.2500     58.2643    118.2188
   3307.5000     17.6135     12.4288     12.5145   -999.2500   -999.2500   -999.2500     58.6240    120.5874
   3308.0000     16.8859     15.2961     14.9290   -999.2500   -999.2500   -999.2500     59.3845    122.4799
   3308.5000     14.7160     16.7915     16.8640   -999.2500   -999.2500   -999.2500     62.0684    122.1613
   3309.0000     15.2767     17.0730     16.3093   -999.2500   -999.2500   -999.2500     60.9386    119.2421
   3309.5000     12.8995     14.4727     15.2757   -999.2500   -999.2500   -999.2500     60.1820    120.8227
   3310.0000     13.8877     14.1357     15.2611   -999.2500   -999.2500   -999.2500     58.3243    119.6172
   3310.5000     15.7505     15.6051     15.7437   -999.2500   -999.2500   -999.2500     56.8920    117.1571
   3311.0000     15.9908     13.9076     14.1710   -999.2500   -999.2500   -999.2500     58.4112    121.0076
   3311.5000     15.7154     14.8811     14.8333   -999.2500   -999.2500   -999.2500     59.4652    121.2740
   3312.0000     17.6087     14.5024     14.8688   -999.2500   -999.2500   -999.2500     59.4212    119.5328
   3312.5000     16.8541     14.8901     15.1877   -999.2500   -999.2500   -999.2500     58.4124    118.4431
   3313.0000     15.8022     13.5940     14.2801   -999.2500   -999.2500   -999.2500     58.3828    115.6801
   3313.5000     16.5570     14.2867     14.2434   -999.2500   -999.2500   -999.2500     58.7216    112.3785
   3314.0000     15.3208     12.2201     12.6275   -999.2500   -999.2500   -999.2500     59.6621    112.2841
   3314.5000     16.2314     12.7937     13.4206   -999.2500   -999.2500   -999.2500     58.8443    114.0775
   3315.0000     19.1478     12.1540     12.3355   -999.2500   -999.2500   -999.2500     66.9334    113.5324
   3315.5000     22.0270     14.7606     15.5168   -999.2500   -999.2500   -999.2500     70.6135    115.4245
   3316.0000     20.8943     17.5779     17.1103   -999.2500   -999.2500   -999.2500     58.2487    128.7395
   3316.5000     21.9109     22.4742     19.8789   -999.2500   -999.2500   -999.2500     57.7982    153.3944
   3317.0000     20.6158     22.5558     20.4985   -999.2500   -999.2500   -999.2500     57.6141    151.5703
   3317.5000     21.9901     19.3827     18.5730   -999.2500   -999.2500   -999.2500     57.4485    146.2583
   3318.0000     21.6401     15.5336     16.3787   -999.2500   -999.2500   -999.2500     58.7493    143.5630
   3318.5000     22.3668     13.8922     14.6158   -999.2500   -999.2500   -999.2500     58.7493    142.5833
   3319.0000     19.3230     14.4535     15.5421   -999.2500   -999.2500   -999.2500     66.2492    143.4105
   3319.5000     20.1733     16.5648     16.8097   -999.2500   -999.2500   -999.2500     56.5838    130.0010
   3320.0000     17.4295     15.7593     15.5094   -999.2500   -999.2500   -999.2500     56.0995    145.0111
   3320.5000     17.7917     13.8672     14.7306   -999.2500   -999.2500   -999.2500     55.6009    144.7554
   3321.0000     14.5944     12.6097     13.0049   -999.2500   -999.2500   -999.2500     55.3534    146.0159
   3321.5000     12.9261     11.1215     12.0575   -999.2500   -999.2500   -999.2500     55.2544    148.3730
   3322.0000     13.8481     13.7762     13.9235   -999.2500   -999.2500   -999.2500     56.4993    150.8917
   3322.5000     13.9292     12.9694     13.8196   -999.2500   -999.2500   -999.2500     58.1407    154.2000
   3323.0000     15.7334     19.9545     18.5619   -999.2500   -999.2500   -999.2500     56.3722    145.9942
   3323.5000     17.0965     20.4084     19.0071   -999.2500   -999.2500   -999.2500     57.3560    151.3722
   3324.0000     17.0620     17.6331     18.2688   -999.2500   -999.2500   -999.2500     58.3848    157.0993
   3324.5000     17.3941     18.9667     19.2457   -999.2500   -999.2500   -999.2500     60.3126    152.9194
   3325.0000     14.7798     16.1255     16.6980   -999.2500   -999.2500   -999.2500     57.9101    145.1149
   3325.5000     15.3855     15.4939     15.8345   -999.2500   -999.2500   -999.2500     59.2598    149.7316
   3326.0000     13.1314     10.9617     11.5182   -999.2500   -999.2500   -999.2500     57.1446    127.1184
   3326.5000     12.6773      8.5131      9.5585   -999.2500   -999.2500   -999.2500     56.4993    121.2972
   3327.0000     13.0617     12.1869     13.4256   -999.2500   -999.2500   -999.2500     54.1916    112.7211
   3327.5000     13.8174     14.8463     13.6051   -999.2500   -999.2500   -999.2500     54.3813    151.7058
   3328.0000     14.1290     12.0153     10.6601   -999.2500   -999.2500   -999.2500     55.7493    159.8370
   3328.5000     13.7878      6.8437      7.4867   -999.2500   -999.2500   -999.2500     54.7428    158.7155
   3329.0000     13.4648      7.3297      8.1993   -999.2500   -999.2500   -999.2500     56.9420    154.5773
   3329.5000     13.8652      7.5343      7.5539   -999.2500   -999.2500   -999.2500     61.7492    155.2714
