~Version Information
 VERS.           2.0     :   CWLS log ASCII Standard -VERSION 2.0
 WRAP.           NO      :   One line per depth step
~Well Information
#MNEM.UNIT      VALUE/NAME              DESCRIPTION
#--------     --------------            ---------------------
 STRT.M           555.0000              :START DEPTH
 STOP.M          4683.0000              :STOP DEPTH
 STEP.M             0.5000              :STEP
 NULL.             -999.25              :NULL VALUE
 COMP.    Woodside                      :COMPANY
 WELL.    Torosa 1                      :WELL
 FLD .    Exploration                   :FIELD
 LOC .                                  :LOCATION
 PROV.                                  :PROVINCE
 SRVC.    Sperry/Schlumberger /Occam    :SERVICE COMPANY
 CTRY.                                  :COUNTRY
 DATE.    15/12/2006 / 2009             :LOG DATE
 UWI .                                  :UNIQUE WELL ID
 LATI.DEG -13/52/02.03                   : Latitude
 LONG.DEG 122/04/09.59                  : Longitude
 GDAT.                                  : Geodetic Datum
~PARAMETER INFORMATION
~CURVE INFORMATION
#MNEM    .UNIT     API CODE             Curve Description
 DEPT    .M                             :   Along hole depth
 GR      .API                           :   Gamma Ray combined
 RS      .OHMM                          :   Shallow Resistivity composite curve
 RD      .OHMM                          :   Deep Resistivity composite curve
 RHOZ    .g/cm3                         :   Formation Density
 HTNP    .PU                            :   Thermal Neutron Porosity
 HDAR    .IN                            :   Hole Diameter from Area
 BATC    .USEC/F                        :   Compressional Sonic
 DTS     .US/FT                         :   Shear Slowness 1
#
# Curve              Start        Stop     Minimum     Maximum
# ------------------------------------------------------------
#
# GR              555.0000   4683.0000      7.5740    694.8002
# RS              555.0000   4681.0000      0.0736   2298.5820
# RD              555.0000   4681.0000      0.3113 100000.0000
# RHOZ           3577.0000   4666.0000      1.9503      2.9209
# HTNP           3460.5000   4665.0000      1.8357     62.5261
# HDAR           3525.0000   4674.5000      5.2666     12.4949
# BATC            641.0000   4654.0000     48.8589    170.6566
# DTS            2485.5000   4645.5000     90.6426    183.8240
# ******************************
# 
# ************************************************************
#
# #
# LOCN 	LAT:	13o 52' 02.03" S			WELL NAME: 	Torosa 1
# 	LONG:	122o 04' 09.59" E
# 	EASTING: 	399434.9m E	NORTHING: 	8466761.6m N	ZONE:	51	GDA 94
# SEISMIC REF:	Torosa 3D	INLINE:  1583	XLINE:  3768	STATUS:	P & A (gas)	
# ELEVN SF:	- 476.3m LAT 	DATUM KB:	22.9m	OPERATOR:	Woodside
# BASIN :		Browse	TOTAL D:	4685m	PARTNERS:	BP, BHPB, Shell
# 						Chevron
# SPUD DATE:	05/11/2006	COMPLN DATE:	29/12/2006	LEASE:	WA-30-R
# TARGET:	Field appraisal			DRILLER:  	Maersk
# DATA SOURCE:	WCR, logs			RIG:	Nan Hai VI
# #
# HOLE AND CASING DATA:
# 	Hole 	Hole	Casing	Casing 	Weight	Grade	Joints	Cement 	TOC
# 	Size	Depth	Size	Depth	lb/ft
# 	36”	557.5m	30”	555.8m	310	X-52	3	1342 sx G at SG 1.9 	Seafloor
# 	12.25”	3533m	9 5/8”	3526.7m	47	L-80	242	325 sx HTB at SG 1.9	
# 	8.5”	4685m
# #
# TEMPERATURES:	See also temperatures reported on MDT sampling
# 	Logger's Depth	Temp	Log Type	Time since circ	Circ Time
# 	4680m	129 deg C	PEX-HRLA	16 hrs 45 mins	4.5 hrs
# 		130 deg C	HNGS	34 hrs 40 mins
# 		140.7 deg C	MDT-GR	73 hrs 9 mins	
# 		144.5 deg C	MDT-GR	116 hrs 50 mins
# #
# MUD PROPERTIES:
# Depth (L)	Fluid Type	SG	Vis.	pH	Fl cc	Rm	Rmf	Rmc
# 4685m	Aquadrill WBM	1.21	58	8.1	4.2	0.354 at 31.3 deg C	0.272 at 31.2 deg C	0.52 at 31.3 deg C
# 		KCl	8%		Barite	5.53%
# #
#DEVIATION SURVEY:	(Sperry LWD)
#	Depth	Dev (deg)	Azimuth (deg)	Depth	Dev (deg)	Azimuth (deg)
#	499.2m	0.00	0.00	579.8m	0.33	190.34
#	635.7m	0.45	196.81	663.9m	0.43	200.92
#	720.8m	0.45	184.80	749.3m	0.40	178.37
#	778.1m	0.48	213.43	806.7m	0.37	217.84
#	835.4m	0.41	220.39	864.1m	0.50	207.37
#	892.8m	0.55	191.29	921.5m	0.43	210.49
#	950.4m	0.37	216.12	978.9m	0.67	192.70
#	1007.2m	0.44	157.04	1035.3m	0.26	179.50
#	1091.2m	0.72	160.83	1119.0m	0.99	167.96
#	1146.6m	1.24	165.45	1174.5m	0.92	173.68
#	1202.3m	1.17	163.94	1230.4m	1.22	171.50
#	1286.4m	1.11	175.97	1314.8m	1.13	176.31
#	1343.1m	1.05	177.72	1371.5m	1.33	175.92
#	1399.9m	1.60	188.03	1428.5m	1.63	191.10
#	1457.4m	1.49	184.45	1486.5m	1.51	186.17
#	1515.2m	1.48	194.93	1543.7m	1.54	207.86
#	1571.7m	1.56	210.90	1599.2m	1.68	210.91
#	1627.6m	1.86	212.17	1655.0m	1.42	215.91
#	1681.6m	0.91	225.99	1710.6m	0.82	242.55
#	1768.8m	0.55	275.33	1797.8m	0.45	242.11
#	1826.3m	0.12	234.81	1883.0m	0.25	216.30
#	1910.7m	0.14	218.29	1938.5m	0.47	261.92
#	1965.7m	0.47	265.81	1992.9m	0.44	269.76
#	2022.3m	0.91	352.01	2051.5m	1.39	10.16
#	2079.1m	1.76	17.08	2105.4m	1.56	12.11
#	2134.4m	1.71	15.62	2164.0m	1.74	16.08
#	2193.3m	1.77	20.50	2220.5m	1.87	18.52
#	2247.3m	1.92	16.38	2275.8m	1.74	8.65
#	2304.7m	1.20	357.09	2333.8m	1.15	351.73
#	2362.0m	1.14	351.42	2389.8m	1.36	346.44
#	2417.5m	1.45	350.69	2445.0m	1.06	339.39
#	2473.4m	1.20	352.35	2503.5m	1.36	353.01
#	2531.6m	1.24	342.88	2554.7m	1.10	345.87
#	2587.3m	1.16	359.05	2616.2m	1.10	348.58
#	2643.7m	0.86	342.80	2672.0m	1.00	350.98
#	2700.6m	0.69	341.90	2728.5m	0.81	348.53
#	2757.0m	0.80	353.78	2784.7m	0.90	352.41
#	2813.0m	0.83	331.28	2841.2m	0.75	337.02
#	2870.0m	0.79	327.68	2900.7m	1.00	328.04
#	2955.7m	0.96	351.55	2985.0m	0.92	347.16
#	3012.4m	0.86	0.75	3039.7m	0.66	348.87
#	3068.2m	1.06	356.49	3098.6m	0.81	355.08
#	3124.7m	0.97	10.60	3154.7m	0.83	358.70
#	3181.3m	1.02	353.15	3209.6m	0.94	12.08
#	3239.2m	1.32	4.55	3267.3m	1.27	2.33
#	3293.3m	0.94	15.02	3323.7m	1.23	3.43
#	3351.7m	0.88	6.02	3383.7m	1.08	4.83
#	3410.2m	0.75	3.07	3439.4m	0.66	19.95
#	3466.4m	0.87	11.07	3495.6m	1.02	16.73
#	3599.4m	1.47	12.38	3599.4m	1.47	12.38
#	3629.3m	1.60	16.10	3685.7m	1.54	6.45
#	3712.9m	1.62	13.25	3770.8m	1.62	356.79
#	3779.4m	1.72	359.60	3881.6m	1.92	1.29
#	3910.5m	2.29	349.77	3941.5m	2.60	349.42
#	3996.8m	2.80	344.29	4023.5m	2.77	345.16
#	4081.2m	2.45	341.88	4110.3m	2.43	341.51
#	4138.6m	2.21	342.63	4166.0m	2.08	352.68
#	4193.1m	1.68	353.00	4220.6m	1.80	345.27
#	4250.2m	1.83	335.86	4277.6m	1.87	343.08
#	4304.8m	1.91	339.15	4333.1m	1.80	342.44
#	4361.4m	1.89	335.11	4389.5m	1.78	332.23
#	4417.7m	1.70	337.15	4446.0m	1.97	336.90
#	4474.8m	2.80	325.02	4503.4m	4.53	320.41
#	4531.2m	5.96	316.69	4559.1m	7.72	317.69
#	4644.7m	12.78	313.86	4671.9m	13.97	313.85
#
##VELOCITY SURVEY:	(Schlumberger and Read Well Services)	OWT, vertically corrected rel to MSL
#	Depth	TVD SS	OWT(sec)	Depth	TVD SS	OWT(sec)
#	2870.7m	2849.5m	1.0773	2885.8m	2864.6m	1.0802
#	2900.9m	2879.7m	1.0832	2916.0m	2894.8m	1.0858
#	2931.2m	2909.9m	1.0885	2946.3m	2925.1m	1.0912
#	2961.4m	2940.2m	1.0943	2976.5m	2955.3m	1.0977
#	2991.7m	2970.4m	1.1014	3006.8m	2985.6m	1.1048
#	3021.9m	3000.7m	1.1086	3037.0m	3015.8m	1.1123
#	3052.2m	3030.9m	1.1157	3067.3m	3046.1m	1.1185
#	3082.4m	3061.2m	1.1216	3097.5m	3076.3m	1.1250
#	3112.6m	3091.4m	1.1292	3127.8m	3106.5m	1.1332
#	3142.9m	3121.6m	1.1370	3158.0m	3136.8m	1.1399
#	3173.0m	3151.8m	1.1429	3188.1m	3166.9m	1.1458
#	3203.2m	3182.0m	1.1489	3218.4m	3197.1m	1.1520
#	3233.5m	3212.3m	1.1550	3248.6m	3227.4m	1.1579
#	3263.8m	3242.5m	1.1608	3278.9m	3257.6m	1.1637
#	3294.0m	3272.8m	1.1665	3309.2m	3287.9m	1.1694
#	3324.3m	3303.0m	1.1723	3339.4m	3318.1m	1.1752
#	3355.0m	3333.7m	1.1781	3370.1m	3348.9m	1.1811
#	3385.3m	3364.0m	1.1841	3400.4m	3379.1m	1.1872
#	3415.0m	3393.7m	1.1901	3430.1m	3408.8m	1.1931
#	3445.2m	3423.9m	1.1962	3460.4m	3439.1m	1.1993
#	3475.5m	3454.3m	1.2025	3490.7m	3469.4m	1.2058
#	3505.8m	3484.5m	1.2093	3520.9m	3499.6m	1.2129
#	3535.9m	3514.6m	1.2165	3551.1m	3529.8m	1.2203
#	3566.2m	3544.9m	1.2243	3581.3m	3560.0m	1.2283
#	3596.4m	3575.1m	1.2324	3611.5m	3590.2m	1.2366
#	3626.6m	3605.3m	1.2408	3641.8m	3620.4m	1.2446
#	3656.9m	3635.6m	1.2482	3672.0m	3650.7m	1.2517
#	3687.1m	3665.8m	1.2555	3702.3m	3680.9m	1.2592
#	3717.4m	3696.0m	1.2630	3732.5m	3711.1m	1.2670
#	3747.6m	3726.3m	1.2712	3762.8m	3741.4m	1.2755
#	3777.8m	3756.4m	1.2799	3792.9m	3771.5m	1.2842
#	3808.0m	3786.6m	1.2884	3823.1m	3801.7m	1.2926
#	3838.4m	3817.0m	1.2968	3853.5m	3832.1m	1.3009
#	3868.7m	3847.2m	1.3050	3883.8m	3862.3m	1.3092
#	3898.8m	3877.3m	1.3132	3913.9m	3892.4m	1.3172
#	3929.0m	3907.5m	1.3211	3944.1m	3922.6m	1.3248
#	3959.3m	3937.8m	1.3283	3974.4m	3952.9m	1.3317
#	3989.5m	3968.0m	1.3352	4004.6m	3983.1m	1.3393
#	4019.8m	3998.3m	1.3439	4035.0m	4013.4m	1.3490
#	4050.1m	4028.5m	1.3540	4065.2m	4043.6m	1.3589
#	4080.3m	4058.7m	1.3637	4095.4m	4073.8m	1.3685
#	4110.6m	4088.9m	1.3732	4125.7m	4104.0m	1.3778
#	4140.8m	4119.1m	1.3822	4155.9m	4134.2m	1.3865
#	4171.0m	4149.3m	1.3909	4186.1m	4164.4m	1.3952
#	4201.2m	4179.5m	1.3996	4216.4m	4194.6m	1.4039
#	4231.5m	4209.7m	1.4083	4246.6m	4224.8m	1.4124
#	4261.7m	4240.0m	1.4163	4276.9m	4255.1m	1.4199
#	4292.0m	4270.2m	1.4235	4307.1m	4285.3m	1.4271
#	4322.2m	4300.4m	1.4305	4337.3m	4315.5m	1.4338
#	4352.4m	4330.6m	1.4372	4367.6m	4345.8m	1.4405
#	4382.7m	4360.9m	1.4438	4397.8m	4376.0m	1.4470
#	4413.0m	4391.1m	1.4503	4428.1m	4406.2m	1.4535
#	4443.2m	4421.4m	1.4565	4458.4m	4436.5m	1.4594
#	4473.5m	4451.6m	1.4621	4488.6m	4466.7m	1.4647
#	4503.6m	4481.7m	1.4674	4518.8m	4496.8m	1.4701
#	4533.9m	4511.8m	1.4730	4549.0m	4526.8m	1.4759
#	4564.2m	4541.8m	1.4790	4579.3m	4556.7m	1.4821
#	4594.4m	4571.5m	1.4851	4609.5m	4586.4m	1.4880
#	4618.9m	4595.7m	1.4900	4634.1m	4610.5m	1.4933
#	4649.2m	4625.3m	1.4966	4664.3m	4640.1m	1.4999
#
# ************************************************************
#    This LAS file was created by Occam Technology Pty. Ltd. 
# from a desampled subset of the full well log data. 
# The header data is extracted from a more detailed digital text  
# summary whicc accompanies the full log dataset.
#    We supply the data on a 'best effort' basis.  We cannot
# control either the original data acquisition or the application
# of the data, and therefore we cannot be held responsible for
# the consequences of any interpretations based on the data.  We
# urge purchasers to apply normal quality control procedures to
# the data before use for any quantitative interpretative
# procedures.
# ************************************************************
~A      DEPT          GR          RS          RD        RHOZ        HTNP        HDAR        BATC         DTS
# ...
   4181.0000    101.5365      2.4904      2.3030      2.5529     28.1866      8.6643     87.8847   -999.2500
   4181.5000     99.8988      2.6397      2.4394      2.5439     26.2408      8.6738     88.7618   -999.2500
   4182.0000     98.9907      2.5964      2.3957      2.5519     24.0665      8.6658     87.0732   -999.2500
   4182.5000    100.3979      2.3122      2.1931      2.5313     26.6394      8.6422     81.0121   -999.2500
   4183.0000     93.1443      3.0203      2.7769      2.8321     27.0283      8.6778     85.9679   -999.2500
   4183.5000     91.9062      2.2139      2.0501      2.6116     25.3358      8.7000     87.8232   -999.2500
   4184.0000    101.3911      2.5104      2.2974      2.5364     27.2396      8.6749     87.0605   -999.2500
   4184.5000     96.5036      2.5702      2.3666      2.6701     27.1474      8.6993     87.7564   -999.2500
   4185.0000    100.3979      2.5524      2.3600      2.6953     27.4799      8.7000     87.6486   -999.2500
   4185.5000    100.2278      2.5797      2.3795      2.5636     25.7508      8.7015     87.5248   -999.2500
   4186.0000    101.3051      2.6756      2.4646      2.5504     24.0858      8.7015     87.5146   -999.2500
   4186.5000     97.1886      2.5649      2.3660      2.5514     25.5755      8.6683     87.1172   -999.2500
   4187.0000     93.8478      2.7964      2.5773      2.5473     26.0197      8.6643     87.5009   -999.2500
   4187.5000    100.1205      2.6888      2.4839      2.5386     26.3556      8.6636     87.7865   -999.2500
   4188.0000     98.5256      2.6673      2.4559      2.5654     24.9242      8.6658     87.2322   -999.2500
   4188.5000    104.8431      2.6302      2.4228      2.5605     26.8213      8.6698     87.1338   -999.2500
   4189.0000     97.6734      3.3246      3.1044      2.7247     26.8854      8.6643     88.9224   -999.2500
   4189.5000     94.6587      2.6544      2.4503      2.5268     23.0424      8.6614     88.4700   -999.2500
   4190.0000    100.1421      2.5438      2.3296      2.5397     25.0439      8.6698     88.4529   -999.2500
   4190.5000     95.1080      2.5369      2.3354      2.5359     25.9738      8.6761     88.0404   -999.2500
   4191.0000     95.3119      2.5638      2.3802      2.5297     25.1478      8.6524     87.8729   -999.2500
   4191.5000     93.8474      2.6725      2.4827      2.5451     23.4581      8.6982     88.0703   -999.2500
   4192.0000     93.5319      2.6456      2.4423      2.5572     24.9252      8.6917     86.3224   -999.2500
   4192.5000     98.5846      2.5968      2.4165      2.5463     24.1527      8.6967     84.8661   -999.2500
   4193.0000     90.0186      3.2912      3.0942      2.5985     25.4020      8.6989     87.2880   -999.2500
   4193.5000     91.1778      2.7138      2.5190      2.5247     25.0112      8.6967     86.6086   -999.2500
   4194.0000    101.9961      2.6773      2.4639      2.5535     25.2890      8.6982     87.1000   -999.2500
   4194.5000     97.7218      2.7111      2.4934      2.5459     24.6570      8.6847     87.9339   -999.2500
   4195.0000    105.3177      2.6890      2.4757      2.5501     24.9197      8.6877     86.2015   -999.2500
   4195.5000    110.9249      2.5900      2.3755      2.5512     27.9419      8.6847     85.6033   -999.2500
   4196.0000    100.0129      2.9320      2.6835      2.5591     24.7314      8.6869     88.4956   -999.2500
   4196.5000    103.8786      2.5824      2.3703      2.5321     27.7683      8.6847     88.3558   -999.2500
   4197.0000    106.0971      2.7161      2.4850      2.5360     26.0947      8.6517     88.4646   -999.2500
   4197.5000    115.8508      2.6470      2.4364      2.5529     26.1430      8.6509     88.4091   -999.2500
   4198.0000    109.4669      2.6671      2.4756      2.5567     26.5805      8.6509     88.0183   -999.2500
   4198.5000    107.3833      2.7022      2.5042      2.5480     27.8981      8.6629     87.9669   -999.2500
   4199.0000    115.8199      2.7001      2.5046      2.5544     25.6079      8.6524     88.6231   -999.2500
   4199.5000    112.9940      2.5284      2.3306      2.5509     26.5114      8.6997     90.0572   -999.2500
   4200.0000    107.9286      2.2636      2.0876      2.5559     26.1373      8.6636     89.7587   -999.2500
   4200.5000    111.9547      2.3818      2.1831      2.5404     25.3938      8.6971     88.8003   -999.2500
   4201.0000    115.4219      2.3445      2.1722      2.5388     28.4069      8.6971     88.1259   -999.2500
   4201.5000    108.6259      2.5419      2.3504      2.5411     27.3134      8.6986     88.3737   -999.2500
   4202.0000    111.1504      2.5400      2.3542      2.5757     26.5461      8.7090     88.2547   -999.2500
   4202.5000    113.0992      2.5366      2.3506      2.5483     28.9826      8.7000     86.9836   -999.2500
   4203.0000    109.4672      2.5729      2.3657      2.5367     25.0241      8.7105     85.7580   -999.2500
   4203.5000    109.4969      2.7987      2.6162      2.5531     25.1503      8.7090     86.5415   -999.2500
   4204.0000    107.1343      2.8769      2.6696      2.5757     28.1734      8.7090     85.8178   -999.2500
   4204.5000    109.5088      2.4028      2.2370      2.5415     26.0842      8.6971     82.1239   -999.2500
   4205.0000     96.6778      4.6415      4.4272      2.8643     29.2364      8.8686     86.8655   -999.2500
   4205.5000    107.8772      2.5427      2.3531      2.5932     27.0616      8.7800     90.1899   -999.2500
   4206.0000    111.5754      2.5172      2.3111      2.5444     28.0055      8.9834     92.5807   -999.2500
   4206.5000    120.0787      2.1115      1.9236      2.5339     29.1244      8.8408     92.1898   -999.2500
   4207.0000    114.0048      2.1635      1.9785      2.5428     32.9263      8.7444     91.9506   -999.2500
   4207.5000    120.9556      2.1481      2.0034      2.5685     32.2531      8.7084     92.6662   -999.2500
   4208.0000    117.2529      2.1621      2.0223      2.5571     31.4840      8.7552     93.8300   -999.2500
   4208.5000    122.7410      2.0361      1.9013      2.5469     34.2450      8.6964     94.0404   -999.2500
   4209.0000    114.9638      1.9943      1.8645      2.5677     31.7224      8.6859     93.9800   -999.2500
   4209.5000    111.7285      1.9945      1.8701      2.5469     32.9002      8.6844     93.9444   -999.2500
   4210.0000    117.9098      2.0016      1.8894      2.5647     32.3490      8.7446     94.1212   -999.2500
   4210.5000    119.7762      2.0038      1.8628      2.5639     31.4560      8.7431     93.9975   -999.2500
   4211.0000    113.1492      2.0146      1.8804      2.5541     36.7687      8.7552     93.5154   -999.2500
   4211.5000    117.2809      2.0983      1.9638      2.5433     33.0555      8.7552     93.5588   -999.2500
   4212.0000    120.9093      2.0307      1.8994      2.5401     33.8119      8.7552     93.8939   -999.2500
   4212.5000    116.0114      2.0636      1.9218      2.5651     34.3540      8.7552     93.8130   -999.2500
   4213.0000    122.6356      2.0438      1.9165      2.5778     31.2884      8.7679     93.3510   -999.2500
   4213.5000    110.0033      2.1354      1.9852      2.5606     34.3283      8.7914     93.0513   -999.2500
   4214.0000    113.5977      2.0341      1.8613      2.5754     34.0122      8.7561     93.6002   -999.2500
   4214.5000    119.1650      2.0804      1.9069      2.5408     35.2577      8.7483     93.3088   -999.2500
   4215.0000    119.7348      2.1304      1.9527      2.5574     34.4052      8.7444     92.9316   -999.2500
   4215.5000    118.3514      2.1053      1.9192      2.5516     34.6236      8.8034     92.8079   -999.2500
   4216.0000    116.9004      2.1054      1.8927      2.5538     32.3347      8.7444     91.2882   -999.2500
   4216.5000    129.5029      2.0109      1.8348      2.5501     31.9489      8.7365     81.8238   -999.2500
   4217.0000    109.8805      3.2287      3.0238      2.6541     28.4370      8.7563     80.4745   -999.2500
   4217.5000     89.2811      2.8143      2.6659      2.7880     21.5002      8.7563     91.6275   -999.2500
