~Version Information
 VERS.           2.0     :   CWLS log ASCII Standard -VERSION 2.0
 WRAP.           NO      :   One line per depth step
~Well Information
#MNEM.UNIT      VALUE/NAME              DESCRIPTION
#--------     --------------            ---------------------
 STRT.M           555.0000              :START DEPTH
 STOP.M          4683.0000              :STOP DEPTH
 STEP.M             0.5000              :STEP
 NULL.             -999.25              :NULL VALUE
 COMP.    Woodside                      :COMPANY
 WELL.    Torosa 1                      :WELL
 FLD .    Exploration                   :FIELD
 LOC .                                  :LOCATION
 PROV.                                  :PROVINCE
 SRVC.    Sperry/Schlumberger /Occam    :SERVICE COMPANY
 CTRY.                                  :COUNTRY
 DATE.    15/12/2006 / 2009             :LOG DATE
 UWI .                                  :UNIQUE WELL ID
 LATI.DEG -13/52/02.03                   : Latitude
 LONG.DEG 122/04/09.59                  : Longitude
 GDAT.                                  : Geodetic Datum
~PARAMETER INFORMATION
~CURVE INFORMATION
#MNEM    .UNIT     API CODE             Curve Description
 DEPT    .M                             :   Along hole depth
 GR      .API                           :   Gamma Ray combined
 RS      .OHMM                          :   Shallow Resistivity composite curve
 RD      .OHMM                          :   Deep Resistivity composite curve
 RHOZ    .g/cm3                         :   Formation Density
 HTNP    .PU                            :   Thermal Neutron Porosity
 HDAR    .IN                            :   Hole Diameter from Area
 BATC    .USEC/F                        :   Compressional Sonic
 DTS     .US/FT                         :   Shear Slowness 1
#
# Curve              Start        Stop     Minimum     Maximum
# ------------------------------------------------------------
#
# GR              555.0000   4683.0000      7.5740    694.8002
# RS              555.0000   4681.0000      0.0736   2298.5820
# RD              555.0000   4681.0000      0.3113 100000.0000
# RHOZ           3577.0000   4666.0000      1.9503      2.9209
# HTNP           3460.5000   4665.0000      1.8357     62.5261
# HDAR           3525.0000   4674.5000      5.2666     12.4949
# BATC            641.0000   4654.0000     48.8589    170.6566
# DTS            2485.5000   4645.5000     90.6426    183.8240
# ******************************
# 
# ************************************************************
#
# #
# LOCN 	LAT:	13o 52' 02.03" S			WELL NAME: 	Torosa 1
# 	LONG:	122o 04' 09.59" E
# 	EASTING: 	399434.9m E	NORTHING: 	8466761.6m N	ZONE:	51	GDA 94
# SEISMIC REF:	Torosa 3D	INLINE:  1583	XLINE:  3768	STATUS:	P & A (gas)	
# ELEVN SF:	- 476.3m LAT 	DATUM KB:	22.9m	OPERATOR:	Woodside
# BASIN :		Browse	TOTAL D:	4685m	PARTNERS:	BP, BHPB, Shell
# 						Chevron
# SPUD DATE:	05/11/2006	COMPLN DATE:	29/12/2006	LEASE:	WA-30-R
# TARGET:	Field appraisal			DRILLER:  	Maersk
# DATA SOURCE:	WCR, logs			RIG:	Nan Hai VI
# #
# HOLE AND CASING DATA:
# 	Hole 	Hole	Casing	Casing 	Weight	Grade	Joints	Cement 	TOC
# 	Size	Depth	Size	Depth	lb/ft
# 	36”	557.5m	30”	555.8m	310	X-52	3	1342 sx G at SG 1.9 	Seafloor
# 	12.25”	3533m	9 5/8”	3526.7m	47	L-80	242	325 sx HTB at SG 1.9	
# 	8.5”	4685m
# #
# TEMPERATURES:	See also temperatures reported on MDT sampling
# 	Logger's Depth	Temp	Log Type	Time since circ	Circ Time
# 	4680m	129 deg C	PEX-HRLA	16 hrs 45 mins	4.5 hrs
# 		130 deg C	HNGS	34 hrs 40 mins
# 		140.7 deg C	MDT-GR	73 hrs 9 mins	
# 		144.5 deg C	MDT-GR	116 hrs 50 mins
# #
# MUD PROPERTIES:
# Depth (L)	Fluid Type	SG	Vis.	pH	Fl cc	Rm	Rmf	Rmc
# 4685m	Aquadrill WBM	1.21	58	8.1	4.2	0.354 at 31.3 deg C	0.272 at 31.2 deg C	0.52 at 31.3 deg C
# 		KCl	8%		Barite	5.53%
# #
#DEVIATION SURVEY:	(Sperry LWD)
#	Depth	Dev (deg)	Azimuth (deg)	Depth	Dev (deg)	Azimuth (deg)
#	499.2m	0.00	0.00	579.8m	0.33	190.34
#	635.7m	0.45	196.81	663.9m	0.43	200.92
#	720.8m	0.45	184.80	749.3m	0.40	178.37
#	778.1m	0.48	213.43	806.7m	0.37	217.84
#	835.4m	0.41	220.39	864.1m	0.50	207.37
#	892.8m	0.55	191.29	921.5m	0.43	210.49
#	950.4m	0.37	216.12	978.9m	0.67	192.70
#	1007.2m	0.44	157.04	1035.3m	0.26	179.50
#	1091.2m	0.72	160.83	1119.0m	0.99	167.96
#	1146.6m	1.24	165.45	1174.5m	0.92	173.68
#	1202.3m	1.17	163.94	1230.4m	1.22	171.50
#	1286.4m	1.11	175.97	1314.8m	1.13	176.31
#	1343.1m	1.05	177.72	1371.5m	1.33	175.92
#	1399.9m	1.60	188.03	1428.5m	1.63	191.10
#	1457.4m	1.49	184.45	1486.5m	1.51	186.17
#	1515.2m	1.48	194.93	1543.7m	1.54	207.86
#	1571.7m	1.56	210.90	1599.2m	1.68	210.91
#	1627.6m	1.86	212.17	1655.0m	1.42	215.91
#	1681.6m	0.91	225.99	1710.6m	0.82	242.55
#	1768.8m	0.55	275.33	1797.8m	0.45	242.11
#	1826.3m	0.12	234.81	1883.0m	0.25	216.30
#	1910.7m	0.14	218.29	1938.5m	0.47	261.92
#	1965.7m	0.47	265.81	1992.9m	0.44	269.76
#	2022.3m	0.91	352.01	2051.5m	1.39	10.16
#	2079.1m	1.76	17.08	2105.4m	1.56	12.11
#	2134.4m	1.71	15.62	2164.0m	1.74	16.08
#	2193.3m	1.77	20.50	2220.5m	1.87	18.52
#	2247.3m	1.92	16.38	2275.8m	1.74	8.65
#	2304.7m	1.20	357.09	2333.8m	1.15	351.73
#	2362.0m	1.14	351.42	2389.8m	1.36	346.44
#	2417.5m	1.45	350.69	2445.0m	1.06	339.39
#	2473.4m	1.20	352.35	2503.5m	1.36	353.01
#	2531.6m	1.24	342.88	2554.7m	1.10	345.87
#	2587.3m	1.16	359.05	2616.2m	1.10	348.58
#	2643.7m	0.86	342.80	2672.0m	1.00	350.98
#	2700.6m	0.69	341.90	2728.5m	0.81	348.53
#	2757.0m	0.80	353.78	2784.7m	0.90	352.41
#	2813.0m	0.83	331.28	2841.2m	0.75	337.02
#	2870.0m	0.79	327.68	2900.7m	1.00	328.04
#	2955.7m	0.96	351.55	2985.0m	0.92	347.16
#	3012.4m	0.86	0.75	3039.7m	0.66	348.87
#	3068.2m	1.06	356.49	3098.6m	0.81	355.08
#	3124.7m	0.97	10.60	3154.7m	0.83	358.70
#	3181.3m	1.02	353.15	3209.6m	0.94	12.08
#	3239.2m	1.32	4.55	3267.3m	1.27	2.33
#	3293.3m	0.94	15.02	3323.7m	1.23	3.43
#	3351.7m	0.88	6.02	3383.7m	1.08	4.83
#	3410.2m	0.75	3.07	3439.4m	0.66	19.95
#	3466.4m	0.87	11.07	3495.6m	1.02	16.73
#	3599.4m	1.47	12.38	3599.4m	1.47	12.38
#	3629.3m	1.60	16.10	3685.7m	1.54	6.45
#	3712.9m	1.62	13.25	3770.8m	1.62	356.79
#	3779.4m	1.72	359.60	3881.6m	1.92	1.29
#	3910.5m	2.29	349.77	3941.5m	2.60	349.42
#	3996.8m	2.80	344.29	4023.5m	2.77	345.16
#	4081.2m	2.45	341.88	4110.3m	2.43	341.51
#	4138.6m	2.21	342.63	4166.0m	2.08	352.68
#	4193.1m	1.68	353.00	4220.6m	1.80	345.27
#	4250.2m	1.83	335.86	4277.6m	1.87	343.08
#	4304.8m	1.91	339.15	4333.1m	1.80	342.44
#	4361.4m	1.89	335.11	4389.5m	1.78	332.23
#	4417.7m	1.70	337.15	4446.0m	1.97	336.90
#	4474.8m	2.80	325.02	4503.4m	4.53	320.41
#	4531.2m	5.96	316.69	4559.1m	7.72	317.69
#	4644.7m	12.78	313.86	4671.9m	13.97	313.85
#
##VELOCITY SURVEY:	(Schlumberger and Read Well Services)	OWT, vertically corrected rel to MSL
#	Depth	TVD SS	OWT(sec)	Depth	TVD SS	OWT(sec)
#	2870.7m	2849.5m	1.0773	2885.8m	2864.6m	1.0802
#	2900.9m	2879.7m	1.0832	2916.0m	2894.8m	1.0858
#	2931.2m	2909.9m	1.0885	2946.3m	2925.1m	1.0912
#	2961.4m	2940.2m	1.0943	2976.5m	2955.3m	1.0977
#	2991.7m	2970.4m	1.1014	3006.8m	2985.6m	1.1048
#	3021.9m	3000.7m	1.1086	3037.0m	3015.8m	1.1123
#	3052.2m	3030.9m	1.1157	3067.3m	3046.1m	1.1185
#	3082.4m	3061.2m	1.1216	3097.5m	3076.3m	1.1250
#	3112.6m	3091.4m	1.1292	3127.8m	3106.5m	1.1332
#	3142.9m	3121.6m	1.1370	3158.0m	3136.8m	1.1399
#	3173.0m	3151.8m	1.1429	3188.1m	3166.9m	1.1458
#	3203.2m	3182.0m	1.1489	3218.4m	3197.1m	1.1520
#	3233.5m	3212.3m	1.1550	3248.6m	3227.4m	1.1579
#	3263.8m	3242.5m	1.1608	3278.9m	3257.6m	1.1637
#	3294.0m	3272.8m	1.1665	3309.2m	3287.9m	1.1694
#	3324.3m	3303.0m	1.1723	3339.4m	3318.1m	1.1752
#	3355.0m	3333.7m	1.1781	3370.1m	3348.9m	1.1811
#	3385.3m	3364.0m	1.1841	3400.4m	3379.1m	1.1872
#	3415.0m	3393.7m	1.1901	3430.1m	3408.8m	1.1931
#	3445.2m	3423.9m	1.1962	3460.4m	3439.1m	1.1993
#	3475.5m	3454.3m	1.2025	3490.7m	3469.4m	1.2058
#	3505.8m	3484.5m	1.2093	3520.9m	3499.6m	1.2129
#	3535.9m	3514.6m	1.2165	3551.1m	3529.8m	1.2203
#	3566.2m	3544.9m	1.2243	3581.3m	3560.0m	1.2283
#	3596.4m	3575.1m	1.2324	3611.5m	3590.2m	1.2366
#	3626.6m	3605.3m	1.2408	3641.8m	3620.4m	1.2446
#	3656.9m	3635.6m	1.2482	3672.0m	3650.7m	1.2517
#	3687.1m	3665.8m	1.2555	3702.3m	3680.9m	1.2592
#	3717.4m	3696.0m	1.2630	3732.5m	3711.1m	1.2670
#	3747.6m	3726.3m	1.2712	3762.8m	3741.4m	1.2755
#	3777.8m	3756.4m	1.2799	3792.9m	3771.5m	1.2842
#	3808.0m	3786.6m	1.2884	3823.1m	3801.7m	1.2926
#	3838.4m	3817.0m	1.2968	3853.5m	3832.1m	1.3009
#	3868.7m	3847.2m	1.3050	3883.8m	3862.3m	1.3092
#	3898.8m	3877.3m	1.3132	3913.9m	3892.4m	1.3172
#	3929.0m	3907.5m	1.3211	3944.1m	3922.6m	1.3248
#	3959.3m	3937.8m	1.3283	3974.4m	3952.9m	1.3317
#	3989.5m	3968.0m	1.3352	4004.6m	3983.1m	1.3393
#	4019.8m	3998.3m	1.3439	4035.0m	4013.4m	1.3490
#	4050.1m	4028.5m	1.3540	4065.2m	4043.6m	1.3589
#	4080.3m	4058.7m	1.3637	4095.4m	4073.8m	1.3685
#	4110.6m	4088.9m	1.3732	4125.7m	4104.0m	1.3778
#	4140.8m	4119.1m	1.3822	4155.9m	4134.2m	1.3865
#	4171.0m	4149.3m	1.3909	4186.1m	4164.4m	1.3952
#	4201.2m	4179.5m	1.3996	4216.4m	4194.6m	1.4039
#	4231.5m	4209.7m	1.4083	4246.6m	4224.8m	1.4124
#	4261.7m	4240.0m	1.4163	4276.9m	4255.1m	1.4199
#	4292.0m	4270.2m	1.4235	4307.1m	4285.3m	1.4271
#	4322.2m	4300.4m	1.4305	4337.3m	4315.5m	1.4338
#	4352.4m	4330.6m	1.4372	4367.6m	4345.8m	1.4405
#	4382.7m	4360.9m	1.4438	4397.8m	4376.0m	1.4470
#	4413.0m	4391.1m	1.4503	4428.1m	4406.2m	1.4535
#	4443.2m	4421.4m	1.4565	4458.4m	4436.5m	1.4594
#	4473.5m	4451.6m	1.4621	4488.6m	4466.7m	1.4647
#	4503.6m	4481.7m	1.4674	4518.8m	4496.8m	1.4701
#	4533.9m	4511.8m	1.4730	4549.0m	4526.8m	1.4759
#	4564.2m	4541.8m	1.4790	4579.3m	4556.7m	1.4821
#	4594.4m	4571.5m	1.4851	4609.5m	4586.4m	1.4880
#	4618.9m	4595.7m	1.4900	4634.1m	4610.5m	1.4933
#	4649.2m	4625.3m	1.4966	4664.3m	4640.1m	1.4999
#
# ************************************************************
#    This LAS file was created by Occam Technology Pty. Ltd. 
# from a desampled subset of the full well log data. 
# The header data is extracted from a more detailed digital text  
# summary whicc accompanies the full log dataset.
#    We supply the data on a 'best effort' basis.  We cannot
# control either the original data acquisition or the application
# of the data, and therefore we cannot be held responsible for
# the consequences of any interpretations based on the data.  We
# urge purchasers to apply normal quality control procedures to
# the data before use for any quantitative interpretative
# procedures.
# ************************************************************
~A      DEPT          GR          RS          RD        RHOZ        HTNP        HDAR        BATC         DTS
# ...
   3515.0000     39.1839      3.0966      3.3387   -999.2500     31.0622   -999.2500     70.4004    135.6797
   3515.5000     42.9576      3.3834      3.1166   -999.2500     24.9863   -999.2500     69.1311    132.1761
   3516.0000     42.3513      2.2458      2.1383   -999.2500     31.8058   -999.2500     76.9921    144.5626
   3516.5000     41.7789      1.1745      1.1929   -999.2500     40.4971   -999.2500     82.9035    156.7273
   3517.0000     45.4731      1.9069      2.0536   -999.2500     38.3881   -999.2500     76.3682    163.2202
   3517.5000     43.6583      3.0608      2.8192   -999.2500     30.3161   -999.2500     67.8463    137.2534
   3518.0000     41.6906      4.7946      4.3449   -999.2500     27.5364   -999.2500     65.3616    128.9471
   3518.5000     36.1154      4.5287      4.2605   -999.2500     26.3766   -999.2500     68.1388    123.5266
   3519.0000     35.3755      3.9825      3.9415   -999.2500     29.2916   -999.2500     71.3627    126.8248
   3519.5000     38.5321      3.2801      3.3986   -999.2500     28.1166   -999.2500     72.2233    129.7403
   3520.0000     36.9064      3.6372      3.5631   -999.2500     28.9389   -999.2500     73.5560    133.2036
   3520.5000     45.8720      3.7801      3.8042   -999.2500     30.9662   -999.2500     71.2367    132.5020
   3521.0000     39.5029      3.5235      3.2011   -999.2500     27.1968   -999.2500     72.4954    134.0889
   3521.5000     37.4887      2.8794    112.0000   -999.2500     34.6788   -999.2500     72.7609    139.4500
   3522.0000     40.7067      2.0531    665.9905   -999.2500     27.4152   -999.2500     71.1287    144.0234
   3522.5000     38.0748      1.2268   1219.9812   -999.2500     33.1925   -999.2500     74.0805    139.4266
   3523.0000     41.7694      0.4004   1773.9718   -999.2500     33.5450   -999.2500     69.3513    138.5696
   3523.5000     36.5733      0.1152   2000.0000   -999.2500     27.6804   -999.2500     70.5875    133.5836
   3524.0000     38.6922      0.0736    665.5596   -999.2500     34.9778   -999.2500     74.1040    138.3086
   3524.5000     42.9381    363.5564   1516.6101   -999.2500     30.3880   -999.2500     73.6723    140.1031
   3525.0000     38.8611      2.2070   1872.8514   -999.2500     32.7375      8.5000     79.9802    142.8439
   3525.5000     56.4141      0.6784    401.3181   -999.2500     22.6849      8.5000     78.6409    140.7753
   3526.0000     63.8066      1.0708   1343.8199   -999.2500     26.3193      8.5000     78.9298    149.5543
   3526.5000     76.2865      0.2139   1362.5508   -999.2500     22.7376      8.5000     75.5118    149.6801
   3527.0000     72.5711      1.6451      3.9962   -999.2500     19.9149      8.5000     79.7890    161.1442
   3527.5000     76.1900      1.5680      2.2755   -999.2500     25.4275      8.5000     75.2940    159.1003
   3528.0000     79.5414      2.1140      2.8037   -999.2500     22.6958      8.5000     73.7515    156.9678
   3528.5000     66.6489      2.2363      3.2572   -999.2500     22.2446     12.2622     73.9803    167.0013
   3529.0000     76.0919      1.9895      2.9080   -999.2500     26.7503     12.1832     73.9637    155.6433
   3529.5000     73.5172      1.7791      2.3805   -999.2500     21.8484     12.4949     73.2518    156.7633
   3530.0000     76.5925      1.5817      2.0998   -999.2500     26.0899     12.2523     76.1484    158.3798
   3530.5000     82.4838      1.7735      2.6948   -999.2500     30.9061     12.2938     75.4189    141.6669
   3531.0000     76.6529      3.0476      3.9114   -999.2500     22.7458     12.3962     70.5373    134.2831
   3531.5000     72.9883      2.3866      2.6460   -999.2500     24.4799     12.4042     74.8168    134.9401
   3532.0000     74.3232      1.5914      2.2416   -999.2500     29.9430     12.2385     79.4077    167.3405
   3532.5000     72.3717      1.4724      1.8565   -999.2500     29.3797     12.3944     80.2689    162.6040
   3533.0000     85.1051      1.3820      1.7996   -999.2500     30.4714     12.2307     77.7880    171.5407
   3533.5000     74.4234    285.0594    220.4633   -999.2500     25.6606      8.8705     66.8079    140.7001
   3534.0000     62.1670     56.8033     30.4484   -999.2500     25.4100      8.7107     69.8295    139.0174
   3534.5000     61.1745      2.5207      2.5819   -999.2500     16.1277      8.6629     74.5492    140.5583
   3535.0000     53.3866      2.3010      2.1237   -999.2500     12.5958      8.6984     75.2259    142.2301
   3535.5000     59.0051      2.9846      2.9422   -999.2500     15.8276      8.6284     74.5769    137.4815
   3536.0000     55.7474      2.7493      2.4574   -999.2500     15.0109      8.6575     74.1104    138.8200
   3536.5000     59.3517      2.8404      3.0853   -999.2500     12.8098      8.6629     71.4198    130.8113
   3537.0000     52.7290      3.4554      3.1582   -999.2500     11.3241      8.6940     75.6521   -999.2500
   3537.5000     58.6763      1.9727      1.9473   -999.2500     12.8481      8.7142     84.8582   -999.2500
   3538.0000     66.6690      1.2162      1.2326   -999.2500     17.7607      8.7467     87.8628   -999.2500
   3538.5000     76.0126      1.1544      1.2609   -999.2500     21.2783      8.7467     87.2167   -999.2500
   3539.0000     70.0603      1.2479      1.2150   -999.2500     19.8218      8.7467     83.4856   -999.2500
   3539.5000     72.4797      1.2553      1.2782   -999.2500     19.4776      8.7521     77.3083   -999.2500
   3540.0000     63.2467      2.4422      2.3109   -999.2500     17.4608      8.6984     74.9809   -999.2500
   3540.5000     64.8908      2.4284      2.2625   -999.2500     15.8982      8.7231     73.9690    135.9760
   3541.0000     53.9493      2.6039      2.5920   -999.2500     13.6060      8.7664     72.8427    131.9714
   3541.5000     61.1054      2.8542      3.0440   -999.2500     15.8238      8.7704     70.9656    126.7304
   3542.0000     52.9819      4.3545      4.2669   -999.2500     15.5642      8.7585     73.1884   -999.2500
   3542.5000     49.7580      4.1288      3.4172   -999.2500     13.8155      8.8178     81.9179   -999.2500
   3543.0000     62.5668      1.9361      1.9818   -999.2500     18.5711      8.7887     83.7201   -999.2500
   3543.5000     64.6835      1.6017      1.7384   -999.2500     19.5129      8.7941     83.9041    143.5556
   3544.0000     71.7752      1.2805      1.2698   -999.2500     20.6814      8.8048     78.7675    133.9794
   3544.5000     61.6769      1.7515      1.8155   -999.2500     18.5002      8.7600     70.1000    125.5946
   3545.0000     50.1638      2.9858      3.0797   -999.2500     12.3849      8.7612     72.1309    133.6192
   3545.5000     56.3307      3.6223      3.0015   -999.2500     14.3206      8.7521     74.3237    136.3968
   3546.0000     62.0635      2.5259      2.6869   -999.2500     16.1088      8.7693     72.8844    133.4969
   3546.5000     50.9148      3.2048      3.4470   -999.2500     13.8132      8.7531     78.1766    143.3145
   3547.0000     62.0111      2.7411      2.5060   -999.2500     17.0269      8.7851     80.7887   -999.2500
   3547.5000     62.6153      1.8554      1.8118   -999.2500     18.8230      8.7880     77.9395   -999.2500
   3548.0000     56.8759      1.8699      2.2016   -999.2500     15.9939      8.7521     73.5048   -999.2500
   3548.5000     55.8028      3.1478      2.9317   -999.2500     15.3434      8.7494     75.9310   -999.2500
   3549.0000     56.0794      2.4709      2.2587   -999.2500     14.0525      8.7467     75.1739   -999.2500
   3549.5000     55.3670      2.3294      2.7592   -999.2500     15.3368      8.7811     80.7012   -999.2500
   3550.0000     61.9421      2.3752      2.2320   -999.2500     16.7568      8.8143     82.3678   -999.2500
   3550.5000     63.2330      1.4360      1.5251   -999.2500     19.6103      8.8056     80.9873   -999.2500
   3551.0000     64.4275      1.6748      1.7806   -999.2500     18.6801      8.8110     82.6599   -999.2500
   3551.5000     62.9222      1.6264      1.6592   -999.2500     17.2949      8.8413     79.9704   -999.2500
