~Version Information
 VERS.           2.0     :   CWLS log ASCII Standard -VERSION 2.0
 WRAP.           NO      :   One line per depth step
~Well Information
#MNEM.UNIT      VALUE/NAME              DESCRIPTION
#--------     --------------            ---------------------
 STRT.M           555.0000              :START DEPTH
 STOP.M          4683.0000              :STOP DEPTH
 STEP.M             0.5000              :STEP
 NULL.             -999.25              :NULL VALUE
 COMP.    Woodside                      :COMPANY
 WELL.    Torosa 1                      :WELL
 FLD .    Exploration                   :FIELD
 LOC .                                  :LOCATION
 PROV.                                  :PROVINCE
 SRVC.    Sperry/Schlumberger /Occam    :SERVICE COMPANY
 CTRY.                                  :COUNTRY
 DATE.    15/12/2006 / 2009             :LOG DATE
 UWI .                                  :UNIQUE WELL ID
 LATI.DEG -13/52/02.03                   : Latitude
 LONG.DEG 122/04/09.59                  : Longitude
 GDAT.                                  : Geodetic Datum
~PARAMETER INFORMATION
~CURVE INFORMATION
#MNEM    .UNIT     API CODE             Curve Description
 DEPT    .M                             :   Along hole depth
 GR      .API                           :   Gamma Ray combined
 RS      .OHMM                          :   Shallow Resistivity composite curve
 RD      .OHMM                          :   Deep Resistivity composite curve
 RHOZ    .g/cm3                         :   Formation Density
 HTNP    .PU                            :   Thermal Neutron Porosity
 HDAR    .IN                            :   Hole Diameter from Area
 BATC    .USEC/F                        :   Compressional Sonic
 DTS     .US/FT                         :   Shear Slowness 1
#
# Curve              Start        Stop     Minimum     Maximum
# ------------------------------------------------------------
#
# GR              555.0000   4683.0000      7.5740    694.8002
# RS              555.0000   4681.0000      0.0736   2298.5820
# RD              555.0000   4681.0000      0.3113 100000.0000
# RHOZ           3577.0000   4666.0000      1.9503      2.9209
# HTNP           3460.5000   4665.0000      1.8357     62.5261
# HDAR           3525.0000   4674.5000      5.2666     12.4949
# BATC            641.0000   4654.0000     48.8589    170.6566
# DTS            2485.5000   4645.5000     90.6426    183.8240
# ******************************
# 
# ************************************************************
#
# #
# LOCN 	LAT:	13o 52' 02.03" S			WELL NAME: 	Torosa 1
# 	LONG:	122o 04' 09.59" E
# 	EASTING: 	399434.9m E	NORTHING: 	8466761.6m N	ZONE:	51	GDA 94
# SEISMIC REF:	Torosa 3D	INLINE:  1583	XLINE:  3768	STATUS:	P & A (gas)	
# ELEVN SF:	- 476.3m LAT 	DATUM KB:	22.9m	OPERATOR:	Woodside
# BASIN :		Browse	TOTAL D:	4685m	PARTNERS:	BP, BHPB, Shell
# 						Chevron
# SPUD DATE:	05/11/2006	COMPLN DATE:	29/12/2006	LEASE:	WA-30-R
# TARGET:	Field appraisal			DRILLER:  	Maersk
# DATA SOURCE:	WCR, logs			RIG:	Nan Hai VI
# #
# HOLE AND CASING DATA:
# 	Hole 	Hole	Casing	Casing 	Weight	Grade	Joints	Cement 	TOC
# 	Size	Depth	Size	Depth	lb/ft
# 	36”	557.5m	30”	555.8m	310	X-52	3	1342 sx G at SG 1.9 	Seafloor
# 	12.25”	3533m	9 5/8”	3526.7m	47	L-80	242	325 sx HTB at SG 1.9	
# 	8.5”	4685m
# #
# TEMPERATURES:	See also temperatures reported on MDT sampling
# 	Logger's Depth	Temp	Log Type	Time since circ	Circ Time
# 	4680m	129 deg C	PEX-HRLA	16 hrs 45 mins	4.5 hrs
# 		130 deg C	HNGS	34 hrs 40 mins
# 		140.7 deg C	MDT-GR	73 hrs 9 mins	
# 		144.5 deg C	MDT-GR	116 hrs 50 mins
# #
# MUD PROPERTIES:
# Depth (L)	Fluid Type	SG	Vis.	pH	Fl cc	Rm	Rmf	Rmc
# 4685m	Aquadrill WBM	1.21	58	8.1	4.2	0.354 at 31.3 deg C	0.272 at 31.2 deg C	0.52 at 31.3 deg C
# 		KCl	8%		Barite	5.53%
# #
#DEVIATION SURVEY:	(Sperry LWD)
#	Depth	Dev (deg)	Azimuth (deg)	Depth	Dev (deg)	Azimuth (deg)
#	499.2m	0.00	0.00	579.8m	0.33	190.34
#	635.7m	0.45	196.81	663.9m	0.43	200.92
#	720.8m	0.45	184.80	749.3m	0.40	178.37
#	778.1m	0.48	213.43	806.7m	0.37	217.84
#	835.4m	0.41	220.39	864.1m	0.50	207.37
#	892.8m	0.55	191.29	921.5m	0.43	210.49
#	950.4m	0.37	216.12	978.9m	0.67	192.70
#	1007.2m	0.44	157.04	1035.3m	0.26	179.50
#	1091.2m	0.72	160.83	1119.0m	0.99	167.96
#	1146.6m	1.24	165.45	1174.5m	0.92	173.68
#	1202.3m	1.17	163.94	1230.4m	1.22	171.50
#	1286.4m	1.11	175.97	1314.8m	1.13	176.31
#	1343.1m	1.05	177.72	1371.5m	1.33	175.92
#	1399.9m	1.60	188.03	1428.5m	1.63	191.10
#	1457.4m	1.49	184.45	1486.5m	1.51	186.17
#	1515.2m	1.48	194.93	1543.7m	1.54	207.86
#	1571.7m	1.56	210.90	1599.2m	1.68	210.91
#	1627.6m	1.86	212.17	1655.0m	1.42	215.91
#	1681.6m	0.91	225.99	1710.6m	0.82	242.55
#	1768.8m	0.55	275.33	1797.8m	0.45	242.11
#	1826.3m	0.12	234.81	1883.0m	0.25	216.30
#	1910.7m	0.14	218.29	1938.5m	0.47	261.92
#	1965.7m	0.47	265.81	1992.9m	0.44	269.76
#	2022.3m	0.91	352.01	2051.5m	1.39	10.16
#	2079.1m	1.76	17.08	2105.4m	1.56	12.11
#	2134.4m	1.71	15.62	2164.0m	1.74	16.08
#	2193.3m	1.77	20.50	2220.5m	1.87	18.52
#	2247.3m	1.92	16.38	2275.8m	1.74	8.65
#	2304.7m	1.20	357.09	2333.8m	1.15	351.73
#	2362.0m	1.14	351.42	2389.8m	1.36	346.44
#	2417.5m	1.45	350.69	2445.0m	1.06	339.39
#	2473.4m	1.20	352.35	2503.5m	1.36	353.01
#	2531.6m	1.24	342.88	2554.7m	1.10	345.87
#	2587.3m	1.16	359.05	2616.2m	1.10	348.58
#	2643.7m	0.86	342.80	2672.0m	1.00	350.98
#	2700.6m	0.69	341.90	2728.5m	0.81	348.53
#	2757.0m	0.80	353.78	2784.7m	0.90	352.41
#	2813.0m	0.83	331.28	2841.2m	0.75	337.02
#	2870.0m	0.79	327.68	2900.7m	1.00	328.04
#	2955.7m	0.96	351.55	2985.0m	0.92	347.16
#	3012.4m	0.86	0.75	3039.7m	0.66	348.87
#	3068.2m	1.06	356.49	3098.6m	0.81	355.08
#	3124.7m	0.97	10.60	3154.7m	0.83	358.70
#	3181.3m	1.02	353.15	3209.6m	0.94	12.08
#	3239.2m	1.32	4.55	3267.3m	1.27	2.33
#	3293.3m	0.94	15.02	3323.7m	1.23	3.43
#	3351.7m	0.88	6.02	3383.7m	1.08	4.83
#	3410.2m	0.75	3.07	3439.4m	0.66	19.95
#	3466.4m	0.87	11.07	3495.6m	1.02	16.73
#	3599.4m	1.47	12.38	3599.4m	1.47	12.38
#	3629.3m	1.60	16.10	3685.7m	1.54	6.45
#	3712.9m	1.62	13.25	3770.8m	1.62	356.79
#	3779.4m	1.72	359.60	3881.6m	1.92	1.29
#	3910.5m	2.29	349.77	3941.5m	2.60	349.42
#	3996.8m	2.80	344.29	4023.5m	2.77	345.16
#	4081.2m	2.45	341.88	4110.3m	2.43	341.51
#	4138.6m	2.21	342.63	4166.0m	2.08	352.68
#	4193.1m	1.68	353.00	4220.6m	1.80	345.27
#	4250.2m	1.83	335.86	4277.6m	1.87	343.08
#	4304.8m	1.91	339.15	4333.1m	1.80	342.44
#	4361.4m	1.89	335.11	4389.5m	1.78	332.23
#	4417.7m	1.70	337.15	4446.0m	1.97	336.90
#	4474.8m	2.80	325.02	4503.4m	4.53	320.41
#	4531.2m	5.96	316.69	4559.1m	7.72	317.69
#	4644.7m	12.78	313.86	4671.9m	13.97	313.85
#
##VELOCITY SURVEY:	(Schlumberger and Read Well Services)	OWT, vertically corrected rel to MSL
#	Depth	TVD SS	OWT(sec)	Depth	TVD SS	OWT(sec)
#	2870.7m	2849.5m	1.0773	2885.8m	2864.6m	1.0802
#	2900.9m	2879.7m	1.0832	2916.0m	2894.8m	1.0858
#	2931.2m	2909.9m	1.0885	2946.3m	2925.1m	1.0912
#	2961.4m	2940.2m	1.0943	2976.5m	2955.3m	1.0977
#	2991.7m	2970.4m	1.1014	3006.8m	2985.6m	1.1048
#	3021.9m	3000.7m	1.1086	3037.0m	3015.8m	1.1123
#	3052.2m	3030.9m	1.1157	3067.3m	3046.1m	1.1185
#	3082.4m	3061.2m	1.1216	3097.5m	3076.3m	1.1250
#	3112.6m	3091.4m	1.1292	3127.8m	3106.5m	1.1332
#	3142.9m	3121.6m	1.1370	3158.0m	3136.8m	1.1399
#	3173.0m	3151.8m	1.1429	3188.1m	3166.9m	1.1458
#	3203.2m	3182.0m	1.1489	3218.4m	3197.1m	1.1520
#	3233.5m	3212.3m	1.1550	3248.6m	3227.4m	1.1579
#	3263.8m	3242.5m	1.1608	3278.9m	3257.6m	1.1637
#	3294.0m	3272.8m	1.1665	3309.2m	3287.9m	1.1694
#	3324.3m	3303.0m	1.1723	3339.4m	3318.1m	1.1752
#	3355.0m	3333.7m	1.1781	3370.1m	3348.9m	1.1811
#	3385.3m	3364.0m	1.1841	3400.4m	3379.1m	1.1872
#	3415.0m	3393.7m	1.1901	3430.1m	3408.8m	1.1931
#	3445.2m	3423.9m	1.1962	3460.4m	3439.1m	1.1993
#	3475.5m	3454.3m	1.2025	3490.7m	3469.4m	1.2058
#	3505.8m	3484.5m	1.2093	3520.9m	3499.6m	1.2129
#	3535.9m	3514.6m	1.2165	3551.1m	3529.8m	1.2203
#	3566.2m	3544.9m	1.2243	3581.3m	3560.0m	1.2283
#	3596.4m	3575.1m	1.2324	3611.5m	3590.2m	1.2366
#	3626.6m	3605.3m	1.2408	3641.8m	3620.4m	1.2446
#	3656.9m	3635.6m	1.2482	3672.0m	3650.7m	1.2517
#	3687.1m	3665.8m	1.2555	3702.3m	3680.9m	1.2592
#	3717.4m	3696.0m	1.2630	3732.5m	3711.1m	1.2670
#	3747.6m	3726.3m	1.2712	3762.8m	3741.4m	1.2755
#	3777.8m	3756.4m	1.2799	3792.9m	3771.5m	1.2842
#	3808.0m	3786.6m	1.2884	3823.1m	3801.7m	1.2926
#	3838.4m	3817.0m	1.2968	3853.5m	3832.1m	1.3009
#	3868.7m	3847.2m	1.3050	3883.8m	3862.3m	1.3092
#	3898.8m	3877.3m	1.3132	3913.9m	3892.4m	1.3172
#	3929.0m	3907.5m	1.3211	3944.1m	3922.6m	1.3248
#	3959.3m	3937.8m	1.3283	3974.4m	3952.9m	1.3317
#	3989.5m	3968.0m	1.3352	4004.6m	3983.1m	1.3393
#	4019.8m	3998.3m	1.3439	4035.0m	4013.4m	1.3490
#	4050.1m	4028.5m	1.3540	4065.2m	4043.6m	1.3589
#	4080.3m	4058.7m	1.3637	4095.4m	4073.8m	1.3685
#	4110.6m	4088.9m	1.3732	4125.7m	4104.0m	1.3778
#	4140.8m	4119.1m	1.3822	4155.9m	4134.2m	1.3865
#	4171.0m	4149.3m	1.3909	4186.1m	4164.4m	1.3952
#	4201.2m	4179.5m	1.3996	4216.4m	4194.6m	1.4039
#	4231.5m	4209.7m	1.4083	4246.6m	4224.8m	1.4124
#	4261.7m	4240.0m	1.4163	4276.9m	4255.1m	1.4199
#	4292.0m	4270.2m	1.4235	4307.1m	4285.3m	1.4271
#	4322.2m	4300.4m	1.4305	4337.3m	4315.5m	1.4338
#	4352.4m	4330.6m	1.4372	4367.6m	4345.8m	1.4405
#	4382.7m	4360.9m	1.4438	4397.8m	4376.0m	1.4470
#	4413.0m	4391.1m	1.4503	4428.1m	4406.2m	1.4535
#	4443.2m	4421.4m	1.4565	4458.4m	4436.5m	1.4594
#	4473.5m	4451.6m	1.4621	4488.6m	4466.7m	1.4647
#	4503.6m	4481.7m	1.4674	4518.8m	4496.8m	1.4701
#	4533.9m	4511.8m	1.4730	4549.0m	4526.8m	1.4759
#	4564.2m	4541.8m	1.4790	4579.3m	4556.7m	1.4821
#	4594.4m	4571.5m	1.4851	4609.5m	4586.4m	1.4880
#	4618.9m	4595.7m	1.4900	4634.1m	4610.5m	1.4933
#	4649.2m	4625.3m	1.4966	4664.3m	4640.1m	1.4999
#
# ************************************************************
#    This LAS file was created by Occam Technology Pty. Ltd. 
# from a desampled subset of the full well log data. 
# The header data is extracted from a more detailed digital text  
# summary whicc accompanies the full log dataset.
#    We supply the data on a 'best effort' basis.  We cannot
# control either the original data acquisition or the application
# of the data, and therefore we cannot be held responsible for
# the consequences of any interpretations based on the data.  We
# urge purchasers to apply normal quality control procedures to
# the data before use for any quantitative interpretative
# procedures.
# ************************************************************
~A      DEPT          GR          RS          RD        RHOZ        HTNP        HDAR        BATC         DTS
# ...
   2442.0000     15.2322      1.2383      1.3816   -999.2500   -999.2500   -999.2500     74.5115   -999.2500
   2442.5000     17.4356      1.2704      1.4148   -999.2500   -999.2500   -999.2500     72.7152   -999.2500
   2443.0000     13.7961      1.1564      1.1731   -999.2500   -999.2500   -999.2500     72.7152   -999.2500
   2443.5000     14.7953      1.4054      1.4756   -999.2500   -999.2500   -999.2500     70.9585   -999.2500
   2444.0000     13.4251      1.2386      1.2332   -999.2500   -999.2500   -999.2500     69.2018   -999.2500
   2444.5000     12.7040      1.2432      1.3413   -999.2500   -999.2500   -999.2500     68.4992   -999.2500
   2445.0000     14.0792      1.2834      1.3611   -999.2500   -999.2500   -999.2500     68.3217   -999.2500
   2445.5000     13.3003      1.4175      1.4202   -999.2500   -999.2500   -999.2500     67.4344   -999.2500
   2446.0000     14.7981      1.1992      1.2133   -999.2500   -999.2500   -999.2500     66.5470   -999.2500
   2446.5000     17.6201      0.9770      1.0274   -999.2500   -999.2500   -999.2500     66.3696   -999.2500
   2447.0000     15.6179      0.9157      0.9713   -999.2500   -999.2500   -999.2500     66.8575   -999.2500
   2447.5000     14.5494      0.9240      0.9343   -999.2500   -999.2500   -999.2500     68.0773   -999.2500
   2448.0000     17.3988      0.9956      1.1972   -999.2500   -999.2500   -999.2500     69.2970   -999.2500
   2448.5000     12.8748      1.0147      1.1984   -999.2500   -999.2500   -999.2500     69.2970   -999.2500
   2449.0000     14.6343      1.3113      1.5217   -999.2500   -999.2500   -999.2500     70.5004   -999.2500
   2449.5000     15.2950      1.2226      1.3476   -999.2500   -999.2500   -999.2500     72.5061   -999.2500
   2450.0000     15.2556      1.1277      1.2920   -999.2500   -999.2500   -999.2500     74.1106   -999.2500
   2450.5000      9.7918      1.1581      1.2449   -999.2500   -999.2500   -999.2500     74.1106   -999.2500
   2451.0000     14.0713      1.0196      1.1689   -999.2500   -999.2500   -999.2500     74.4244   -999.2500
   2451.5000     13.2786      1.0907      1.2484   -999.2500   -999.2500   -999.2500     74.8167   -999.2500
   2452.0000     12.7962      1.1527      1.1104   -999.2500   -999.2500   -999.2500     74.8951   -999.2500
   2452.5000     13.7391      1.1318      1.0862   -999.2500   -999.2500   -999.2500     76.2527   -999.2500
   2453.0000     16.3019      0.9555      0.8592   -999.2500   -999.2500   -999.2500     79.6466   -999.2500
   2453.5000     12.9212      0.7300      0.6917   -999.2500   -999.2500   -999.2500     79.6466   -999.2500
   2454.0000     13.2594      0.7386      0.7683   -999.2500   -999.2500   -999.2500     73.4278   -999.2500
   2454.5000     12.3971      0.9028      1.0962   -999.2500   -999.2500   -999.2500     63.0632   -999.2500
   2455.0000     16.3286      1.1042      1.3282   -999.2500   -999.2500   -999.2500     63.0632   -999.2500
   2455.5000     20.5177      1.2251      1.7454   -999.2500   -999.2500   -999.2500     66.5056   -999.2500
   2456.0000     17.2563      1.8972      2.3927   -999.2500   -999.2500   -999.2500     69.0185   -999.2500
   2456.5000     17.9076      1.2002      1.3398   -999.2500   -999.2500   -999.2500     72.1425   -999.2500
   2457.0000     15.9585      1.0585      1.1696   -999.2500   -999.2500   -999.2500     79.8913   -999.2500
   2457.5000     15.2420      1.0281      1.1491   -999.2500   -999.2500   -999.2500     79.4603   -999.2500
   2458.0000     16.6970      1.3804      1.4592   -999.2500   -999.2500   -999.2500     79.0292   -999.2500
   2458.5000     20.9405      1.0054      1.0572   -999.2500   -999.2500   -999.2500     78.9430   -999.2500
   2459.0000     21.0976      0.7989      1.0528   -999.2500   -999.2500   -999.2500     78.7307   -999.2500
   2459.5000     18.4678      0.7642      1.0980   -999.2500   -999.2500   -999.2500     78.1998   -999.2500
   2460.0000     26.0997      1.1034      1.5626   -999.2500   -999.2500   -999.2500     77.6689   -999.2500
   2460.5000     25.5749      1.0726      1.4495   -999.2500   -999.2500   -999.2500     77.6689   -999.2500
   2461.0000     19.5765      1.1998      1.5370   -999.2500   -999.2500   -999.2500     77.9321   -999.2500
   2461.5000     20.0374      1.0178      1.3381   -999.2500   -999.2500   -999.2500     78.3708   -999.2500
   2462.0000     22.9981      0.9533      1.2093   -999.2500   -999.2500   -999.2500     78.8094   -999.2500
   2462.5000     22.8889      1.0632      1.1762   -999.2500   -999.2500   -999.2500     78.8094   -999.2500
   2463.0000     18.1101      0.9436      1.0399   -999.2500   -999.2500   -999.2500     79.1949   -999.2500
   2463.5000     17.6796      1.0109      1.2256   -999.2500   -999.2500   -999.2500     79.8373   -999.2500
   2464.0000     20.5311      1.1717      1.2551   -999.2500   -999.2500   -999.2500     80.4797   -999.2500
   2464.5000     20.3486      1.1888      1.1981   -999.2500   -999.2500   -999.2500     80.6081   -999.2500
   2465.0000     17.3854      1.1068      1.0318   -999.2500   -999.2500   -999.2500     81.2836   -999.2500
   2465.5000     13.0745      0.9937      1.0035   -999.2500   -999.2500   -999.2500     82.9724   -999.2500
   2466.0000     11.6750      0.9310      0.9177   -999.2500   -999.2500   -999.2500     84.6612   -999.2500
   2466.5000     11.6027      0.7499      0.7215   -999.2500   -999.2500   -999.2500     84.9990   -999.2500
   2467.0000     10.6144      0.6892      0.7210   -999.2500   -999.2500   -999.2500     84.9990   -999.2500
   2467.5000      9.2075      0.7309      0.6968   -999.2500   -999.2500   -999.2500     84.9990   -999.2500
   2468.0000     10.6183      0.6739      0.6435   -999.2500   -999.2500   -999.2500     84.9990   -999.2500
   2468.5000     10.7825      0.6470      0.5997   -999.2500   -999.2500   -999.2500     84.9990   -999.2500
   2469.0000     10.4520      0.5995      0.5969   -999.2500   -999.2500   -999.2500     85.0833   -999.2500
   2469.5000      9.3714      0.6843      0.6621   -999.2500   -999.2500   -999.2500     85.5052   -999.2500
   2470.0000     12.7425      0.6293      0.6556   -999.2500   -999.2500   -999.2500     85.8427   -999.2500
   2470.5000     13.7332      0.6241      0.6494   -999.2500   -999.2500   -999.2500     85.8427   -999.2500
   2471.0000     14.0405      0.5314      0.6003   -999.2500   -999.2500   -999.2500     86.0087   -999.2500
   2471.5000     15.6954      0.4598      0.5537   -999.2500   -999.2500   -999.2500     86.2163   -999.2500
   2472.0000     15.4548      0.4855      0.6054   -999.2500   -999.2500   -999.2500     86.2578   -999.2500
   2472.5000     18.0961      0.4725      0.6370   -999.2500   -999.2500   -999.2500     86.4483   -999.2500
   2473.0000     15.4761      0.5233      0.6188   -999.2500   -999.2500   -999.2500     86.9246   -999.2500
   2473.5000     16.1428      0.4992      0.6476   -999.2500   -999.2500   -999.2500     87.1151   -999.2500
   2474.0000     15.5644      0.4724      0.5887   -999.2500   -999.2500   -999.2500     87.2564   -999.2500
   2474.5000     15.9594      0.4245      0.5842   -999.2500   -999.2500   -999.2500     87.9630   -999.2500
   2475.0000     15.8126      0.3339      0.4537   -999.2500   -999.2500   -999.2500     88.5283   -999.2500
   2475.5000     15.0373      0.2916      0.3785   -999.2500   -999.2500   -999.2500     88.5283   -999.2500
   2476.0000     14.5057      0.2535      0.3413   -999.2500   -999.2500   -999.2500     86.9597   -999.2500
   2476.5000     13.4075      0.2501      0.3455   -999.2500   -999.2500   -999.2500     84.9990   -999.2500
   2477.0000     13.5916      0.2536      0.3462   -999.2500   -999.2500   -999.2500     84.9990   -999.2500
   2477.5000     15.1580      0.2555      0.3618   -999.2500   -999.2500   -999.2500     85.4101   -999.2500
   2478.0000     14.4037      0.2765      0.3893   -999.2500   -999.2500   -999.2500     86.0955   -999.2500
   2478.5000     16.3492      0.4348      0.4357   -999.2500   -999.2500   -999.2500     86.3696   -999.2500
