~Version Information
 VERS.           2.0     :   CWLS log ASCII Standard -VERSION 2.0
 WRAP.           NO      :   One line per depth step
~Well Information
#MNEM.UNIT      VALUE/NAME              DESCRIPTION
#--------     --------------            ---------------------
 STRT.M           555.0000              :START DEPTH
 STOP.M          4683.0000              :STOP DEPTH
 STEP.M             0.5000              :STEP
 NULL.             -999.25              :NULL VALUE
 COMP.    Woodside                      :COMPANY
 WELL.    Torosa 1                      :WELL
 FLD .    Exploration                   :FIELD
 LOC .                                  :LOCATION
 PROV.                                  :PROVINCE
 SRVC.    Sperry/Schlumberger /Occam    :SERVICE COMPANY
 CTRY.                                  :COUNTRY
 DATE.    15/12/2006 / 2009             :LOG DATE
 UWI .                                  :UNIQUE WELL ID
 LATI.DEG -13/52/02.03                   : Latitude
 LONG.DEG 122/04/09.59                  : Longitude
 GDAT.                                  : Geodetic Datum
~PARAMETER INFORMATION
~CURVE INFORMATION
#MNEM    .UNIT     API CODE             Curve Description
 DEPT    .M                             :   Along hole depth
 GR      .API                           :   Gamma Ray combined
 RS      .OHMM                          :   Shallow Resistivity composite curve
 RD      .OHMM                          :   Deep Resistivity composite curve
 RHOZ    .g/cm3                         :   Formation Density
 HTNP    .PU                            :   Thermal Neutron Porosity
 HDAR    .IN                            :   Hole Diameter from Area
 BATC    .USEC/F                        :   Compressional Sonic
 DTS     .US/FT                         :   Shear Slowness 1
#
# Curve              Start        Stop     Minimum     Maximum
# ------------------------------------------------------------
#
# GR              555.0000   4683.0000      7.5740    694.8002
# RS              555.0000   4681.0000      0.0736   2298.5820
# RD              555.0000   4681.0000      0.3113 100000.0000
# RHOZ           3577.0000   4666.0000      1.9503      2.9209
# HTNP           3460.5000   4665.0000      1.8357     62.5261
# HDAR           3525.0000   4674.5000      5.2666     12.4949
# BATC            641.0000   4654.0000     48.8589    170.6566
# DTS            2485.5000   4645.5000     90.6426    183.8240
# ******************************
# 
# ************************************************************
#
# #
# LOCN 	LAT:	13o 52' 02.03" S			WELL NAME: 	Torosa 1
# 	LONG:	122o 04' 09.59" E
# 	EASTING: 	399434.9m E	NORTHING: 	8466761.6m N	ZONE:	51	GDA 94
# SEISMIC REF:	Torosa 3D	INLINE:  1583	XLINE:  3768	STATUS:	P & A (gas)	
# ELEVN SF:	- 476.3m LAT 	DATUM KB:	22.9m	OPERATOR:	Woodside
# BASIN :		Browse	TOTAL D:	4685m	PARTNERS:	BP, BHPB, Shell
# 						Chevron
# SPUD DATE:	05/11/2006	COMPLN DATE:	29/12/2006	LEASE:	WA-30-R
# TARGET:	Field appraisal			DRILLER:  	Maersk
# DATA SOURCE:	WCR, logs			RIG:	Nan Hai VI
# #
# HOLE AND CASING DATA:
# 	Hole 	Hole	Casing	Casing 	Weight	Grade	Joints	Cement 	TOC
# 	Size	Depth	Size	Depth	lb/ft
# 	36”	557.5m	30”	555.8m	310	X-52	3	1342 sx G at SG 1.9 	Seafloor
# 	12.25”	3533m	9 5/8”	3526.7m	47	L-80	242	325 sx HTB at SG 1.9	
# 	8.5”	4685m
# #
# TEMPERATURES:	See also temperatures reported on MDT sampling
# 	Logger's Depth	Temp	Log Type	Time since circ	Circ Time
# 	4680m	129 deg C	PEX-HRLA	16 hrs 45 mins	4.5 hrs
# 		130 deg C	HNGS	34 hrs 40 mins
# 		140.7 deg C	MDT-GR	73 hrs 9 mins	
# 		144.5 deg C	MDT-GR	116 hrs 50 mins
# #
# MUD PROPERTIES:
# Depth (L)	Fluid Type	SG	Vis.	pH	Fl cc	Rm	Rmf	Rmc
# 4685m	Aquadrill WBM	1.21	58	8.1	4.2	0.354 at 31.3 deg C	0.272 at 31.2 deg C	0.52 at 31.3 deg C
# 		KCl	8%		Barite	5.53%
# #
#DEVIATION SURVEY:	(Sperry LWD)
#	Depth	Dev (deg)	Azimuth (deg)	Depth	Dev (deg)	Azimuth (deg)
#	499.2m	0.00	0.00	579.8m	0.33	190.34
#	635.7m	0.45	196.81	663.9m	0.43	200.92
#	720.8m	0.45	184.80	749.3m	0.40	178.37
#	778.1m	0.48	213.43	806.7m	0.37	217.84
#	835.4m	0.41	220.39	864.1m	0.50	207.37
#	892.8m	0.55	191.29	921.5m	0.43	210.49
#	950.4m	0.37	216.12	978.9m	0.67	192.70
#	1007.2m	0.44	157.04	1035.3m	0.26	179.50
#	1091.2m	0.72	160.83	1119.0m	0.99	167.96
#	1146.6m	1.24	165.45	1174.5m	0.92	173.68
#	1202.3m	1.17	163.94	1230.4m	1.22	171.50
#	1286.4m	1.11	175.97	1314.8m	1.13	176.31
#	1343.1m	1.05	177.72	1371.5m	1.33	175.92
#	1399.9m	1.60	188.03	1428.5m	1.63	191.10
#	1457.4m	1.49	184.45	1486.5m	1.51	186.17
#	1515.2m	1.48	194.93	1543.7m	1.54	207.86
#	1571.7m	1.56	210.90	1599.2m	1.68	210.91
#	1627.6m	1.86	212.17	1655.0m	1.42	215.91
#	1681.6m	0.91	225.99	1710.6m	0.82	242.55
#	1768.8m	0.55	275.33	1797.8m	0.45	242.11
#	1826.3m	0.12	234.81	1883.0m	0.25	216.30
#	1910.7m	0.14	218.29	1938.5m	0.47	261.92
#	1965.7m	0.47	265.81	1992.9m	0.44	269.76
#	2022.3m	0.91	352.01	2051.5m	1.39	10.16
#	2079.1m	1.76	17.08	2105.4m	1.56	12.11
#	2134.4m	1.71	15.62	2164.0m	1.74	16.08
#	2193.3m	1.77	20.50	2220.5m	1.87	18.52
#	2247.3m	1.92	16.38	2275.8m	1.74	8.65
#	2304.7m	1.20	357.09	2333.8m	1.15	351.73
#	2362.0m	1.14	351.42	2389.8m	1.36	346.44
#	2417.5m	1.45	350.69	2445.0m	1.06	339.39
#	2473.4m	1.20	352.35	2503.5m	1.36	353.01
#	2531.6m	1.24	342.88	2554.7m	1.10	345.87
#	2587.3m	1.16	359.05	2616.2m	1.10	348.58
#	2643.7m	0.86	342.80	2672.0m	1.00	350.98
#	2700.6m	0.69	341.90	2728.5m	0.81	348.53
#	2757.0m	0.80	353.78	2784.7m	0.90	352.41
#	2813.0m	0.83	331.28	2841.2m	0.75	337.02
#	2870.0m	0.79	327.68	2900.7m	1.00	328.04
#	2955.7m	0.96	351.55	2985.0m	0.92	347.16
#	3012.4m	0.86	0.75	3039.7m	0.66	348.87
#	3068.2m	1.06	356.49	3098.6m	0.81	355.08
#	3124.7m	0.97	10.60	3154.7m	0.83	358.70
#	3181.3m	1.02	353.15	3209.6m	0.94	12.08
#	3239.2m	1.32	4.55	3267.3m	1.27	2.33
#	3293.3m	0.94	15.02	3323.7m	1.23	3.43
#	3351.7m	0.88	6.02	3383.7m	1.08	4.83
#	3410.2m	0.75	3.07	3439.4m	0.66	19.95
#	3466.4m	0.87	11.07	3495.6m	1.02	16.73
#	3599.4m	1.47	12.38	3599.4m	1.47	12.38
#	3629.3m	1.60	16.10	3685.7m	1.54	6.45
#	3712.9m	1.62	13.25	3770.8m	1.62	356.79
#	3779.4m	1.72	359.60	3881.6m	1.92	1.29
#	3910.5m	2.29	349.77	3941.5m	2.60	349.42
#	3996.8m	2.80	344.29	4023.5m	2.77	345.16
#	4081.2m	2.45	341.88	4110.3m	2.43	341.51
#	4138.6m	2.21	342.63	4166.0m	2.08	352.68
#	4193.1m	1.68	353.00	4220.6m	1.80	345.27
#	4250.2m	1.83	335.86	4277.6m	1.87	343.08
#	4304.8m	1.91	339.15	4333.1m	1.80	342.44
#	4361.4m	1.89	335.11	4389.5m	1.78	332.23
#	4417.7m	1.70	337.15	4446.0m	1.97	336.90
#	4474.8m	2.80	325.02	4503.4m	4.53	320.41
#	4531.2m	5.96	316.69	4559.1m	7.72	317.69
#	4644.7m	12.78	313.86	4671.9m	13.97	313.85
#
##VELOCITY SURVEY:	(Schlumberger and Read Well Services)	OWT, vertically corrected rel to MSL
#	Depth	TVD SS	OWT(sec)	Depth	TVD SS	OWT(sec)
#	2870.7m	2849.5m	1.0773	2885.8m	2864.6m	1.0802
#	2900.9m	2879.7m	1.0832	2916.0m	2894.8m	1.0858
#	2931.2m	2909.9m	1.0885	2946.3m	2925.1m	1.0912
#	2961.4m	2940.2m	1.0943	2976.5m	2955.3m	1.0977
#	2991.7m	2970.4m	1.1014	3006.8m	2985.6m	1.1048
#	3021.9m	3000.7m	1.1086	3037.0m	3015.8m	1.1123
#	3052.2m	3030.9m	1.1157	3067.3m	3046.1m	1.1185
#	3082.4m	3061.2m	1.1216	3097.5m	3076.3m	1.1250
#	3112.6m	3091.4m	1.1292	3127.8m	3106.5m	1.1332
#	3142.9m	3121.6m	1.1370	3158.0m	3136.8m	1.1399
#	3173.0m	3151.8m	1.1429	3188.1m	3166.9m	1.1458
#	3203.2m	3182.0m	1.1489	3218.4m	3197.1m	1.1520
#	3233.5m	3212.3m	1.1550	3248.6m	3227.4m	1.1579
#	3263.8m	3242.5m	1.1608	3278.9m	3257.6m	1.1637
#	3294.0m	3272.8m	1.1665	3309.2m	3287.9m	1.1694
#	3324.3m	3303.0m	1.1723	3339.4m	3318.1m	1.1752
#	3355.0m	3333.7m	1.1781	3370.1m	3348.9m	1.1811
#	3385.3m	3364.0m	1.1841	3400.4m	3379.1m	1.1872
#	3415.0m	3393.7m	1.1901	3430.1m	3408.8m	1.1931
#	3445.2m	3423.9m	1.1962	3460.4m	3439.1m	1.1993
#	3475.5m	3454.3m	1.2025	3490.7m	3469.4m	1.2058
#	3505.8m	3484.5m	1.2093	3520.9m	3499.6m	1.2129
#	3535.9m	3514.6m	1.2165	3551.1m	3529.8m	1.2203
#	3566.2m	3544.9m	1.2243	3581.3m	3560.0m	1.2283
#	3596.4m	3575.1m	1.2324	3611.5m	3590.2m	1.2366
#	3626.6m	3605.3m	1.2408	3641.8m	3620.4m	1.2446
#	3656.9m	3635.6m	1.2482	3672.0m	3650.7m	1.2517
#	3687.1m	3665.8m	1.2555	3702.3m	3680.9m	1.2592
#	3717.4m	3696.0m	1.2630	3732.5m	3711.1m	1.2670
#	3747.6m	3726.3m	1.2712	3762.8m	3741.4m	1.2755
#	3777.8m	3756.4m	1.2799	3792.9m	3771.5m	1.2842
#	3808.0m	3786.6m	1.2884	3823.1m	3801.7m	1.2926
#	3838.4m	3817.0m	1.2968	3853.5m	3832.1m	1.3009
#	3868.7m	3847.2m	1.3050	3883.8m	3862.3m	1.3092
#	3898.8m	3877.3m	1.3132	3913.9m	3892.4m	1.3172
#	3929.0m	3907.5m	1.3211	3944.1m	3922.6m	1.3248
#	3959.3m	3937.8m	1.3283	3974.4m	3952.9m	1.3317
#	3989.5m	3968.0m	1.3352	4004.6m	3983.1m	1.3393
#	4019.8m	3998.3m	1.3439	4035.0m	4013.4m	1.3490
#	4050.1m	4028.5m	1.3540	4065.2m	4043.6m	1.3589
#	4080.3m	4058.7m	1.3637	4095.4m	4073.8m	1.3685
#	4110.6m	4088.9m	1.3732	4125.7m	4104.0m	1.3778
#	4140.8m	4119.1m	1.3822	4155.9m	4134.2m	1.3865
#	4171.0m	4149.3m	1.3909	4186.1m	4164.4m	1.3952
#	4201.2m	4179.5m	1.3996	4216.4m	4194.6m	1.4039
#	4231.5m	4209.7m	1.4083	4246.6m	4224.8m	1.4124
#	4261.7m	4240.0m	1.4163	4276.9m	4255.1m	1.4199
#	4292.0m	4270.2m	1.4235	4307.1m	4285.3m	1.4271
#	4322.2m	4300.4m	1.4305	4337.3m	4315.5m	1.4338
#	4352.4m	4330.6m	1.4372	4367.6m	4345.8m	1.4405
#	4382.7m	4360.9m	1.4438	4397.8m	4376.0m	1.4470
#	4413.0m	4391.1m	1.4503	4428.1m	4406.2m	1.4535
#	4443.2m	4421.4m	1.4565	4458.4m	4436.5m	1.4594
#	4473.5m	4451.6m	1.4621	4488.6m	4466.7m	1.4647
#	4503.6m	4481.7m	1.4674	4518.8m	4496.8m	1.4701
#	4533.9m	4511.8m	1.4730	4549.0m	4526.8m	1.4759
#	4564.2m	4541.8m	1.4790	4579.3m	4556.7m	1.4821
#	4594.4m	4571.5m	1.4851	4609.5m	4586.4m	1.4880
#	4618.9m	4595.7m	1.4900	4634.1m	4610.5m	1.4933
#	4649.2m	4625.3m	1.4966	4664.3m	4640.1m	1.4999
#
# ************************************************************
#    This LAS file was created by Occam Technology Pty. Ltd. 
# from a desampled subset of the full well log data. 
# The header data is extracted from a more detailed digital text  
# summary whicc accompanies the full log dataset.
#    We supply the data on a 'best effort' basis.  We cannot
# control either the original data acquisition or the application
# of the data, and therefore we cannot be held responsible for
# the consequences of any interpretations based on the data.  We
# urge purchasers to apply normal quality control procedures to
# the data before use for any quantitative interpretative
# procedures.
# ************************************************************
~A      DEPT          GR          RS          RD        RHOZ        HTNP        HDAR        BATC         DTS
# ...
   3737.0000     39.0316      6.6471      6.7762      2.6119      9.5721      8.7058     82.0683    125.8411
   3737.5000     50.9200      2.6967      2.5283      2.5894     14.7045      8.7506     94.3348   -999.2500
   3738.0000     69.1074      1.3821      1.2444      2.5085     24.7187      8.7531     94.0586   -999.2500
   3738.5000     67.5629      1.6705      1.4806      2.4982     24.4685      8.8074     93.9892   -999.2500
   3739.0000     77.3371      1.4560      1.3671      2.5145     27.6066      8.7472     87.6571   -999.2500
   3739.5000     60.0044      2.7681      2.6043      2.5899     20.7506      8.7625     80.9931   -999.2500
   3740.0000     59.1771      1.3875      1.3436      2.5494     22.3591      8.6977     74.8991   -999.2500
   3740.5000     46.4450      3.7315      3.6468      2.5741     15.1521      8.7453     76.3896   -999.2500
   3741.0000     53.5913      2.2930      2.2113      2.5597     16.5323      8.7650     87.4863   -999.2500
   3741.5000     61.2917      1.3438      1.2581      2.5261     18.3018      8.7531     92.4607    180.7588
   3742.0000     79.9638      1.5463      1.4161      2.4727     27.6701      8.7073     87.0686    167.8377
   3742.5000     71.8184      1.6430      1.5261      2.5056     25.5764      8.7058     85.6844    161.8655
   3743.0000     62.0493      2.1062      2.0314      2.5668     22.6731      8.7004     86.1084   -999.2500
   3743.5000     61.9925      2.1132      2.0038      2.5247     23.3046      8.7191     92.4383   -999.2500
   3744.0000     68.5860      1.4517      1.3468      2.5106     24.8074      8.7137     94.6807   -999.2500
   3744.5000     70.6140      1.3255      1.2217      2.4948     26.6273      8.7236     91.4916   -999.2500
   3745.0000     69.5111      1.5075      1.3894      2.5035     25.2559      8.7098     84.6245   -999.2500
   3745.5000     58.2658      1.6076      1.4788      2.5366     21.0011      8.7191     84.3091   -999.2500
   3746.0000     63.0188      2.0714      1.9089      2.5343     20.5060      8.7004     83.9132    154.6852
   3746.5000     56.8351      2.8913      2.6268      2.5358     19.1217      8.7058     79.3651    148.2689
   3747.0000     52.7776      2.4466      2.2432      2.5427     16.5549      8.7073     75.6105    139.0950
   3747.5000     46.7901      2.3283      2.1669      2.5584     15.4887      8.7339     76.5568   -999.2500
   3748.0000     42.9614      2.3598      2.1998      2.5513     15.3848      8.6742     80.5235   -999.2500
   3748.5000     47.3510      1.9996      1.8031      2.5485     16.7531      8.7214     82.2915   -999.2500
   3749.0000     62.2676      1.5600      1.4392      2.5339     21.2088      8.7073     81.5582   -999.2500
   3749.5000     54.4056      2.5993      2.4203      2.5595     15.6255      8.6732     86.2249   -999.2500
   3750.0000     59.0380      1.8874      1.7824      2.5056     20.3792      8.6634     84.1261   -999.2500
   3750.5000     54.1021      2.3313      2.1715      2.5379     18.3915      8.7413     85.9393   -999.2500
   3751.0000     61.9556      1.5895      1.4717      2.5304     19.8183      8.7531     90.8770   -999.2500
   3751.5000     62.3080      1.3808      1.2834      2.5063     22.7818      8.7477     92.9077   -999.2500
   3752.0000     63.1095      1.3577      1.2340      2.5225     24.3965      8.7492     94.0064   -999.2500
   3752.5000     69.2650      1.1670      1.0628      2.4943     28.6803      8.7531     89.0026   -999.2500
   3753.0000     66.2845      1.2968      1.2131      2.5228     25.3908      8.7492     82.5033   -999.2500
   3753.5000     56.1327      1.6022      1.5670      2.5520     18.4163      8.7665     85.9096   -999.2500
   3754.0000     58.5811      2.4872      2.4247      2.5356     19.3606      8.7423     90.8747   -999.2500
   3754.5000     72.3850      1.6780      1.5666      2.5117     25.6681      8.7546     94.8643   -999.2500
   3755.0000     70.7198      1.2973      1.2076      2.4853     29.5298      8.7509     96.8289   -999.2500
   3755.5000     72.4451      1.3769      1.2550      2.4660     30.9341      8.7531     99.1332   -999.2500
   3756.0000     74.5864      1.1504      1.0501      2.4749     31.8346      8.7531     90.7219   -999.2500
   3756.5000     70.3014      1.4351      1.3483      2.4939     29.0041      8.6561     77.4570   -999.2500
   3757.0000     49.4374      5.0310      4.9946      2.5528     15.0591      8.6954     79.5798    153.8353
   3757.5000     52.4218      2.8215      2.6458      2.5684     17.4668      8.7492     83.9856    168.9535
   3758.0000     71.0129      1.4201      1.2635      2.5151     21.8702      8.7423     85.7204   -999.2500
   3758.5000     66.9607      1.9260      1.7203      2.5457     21.7564      8.7448     85.1689   -999.2500
   3759.0000     58.0026      1.5904      1.4375      2.5217     19.2690      8.7492     88.0865   -999.2500
   3759.5000     68.4591      1.4828      1.4055      2.5092     22.3261      8.6782     82.8555    175.3201
   3760.0000     50.8944      6.4492      6.3075      2.5642     16.3027      8.6807     89.4957    169.7569
   3760.5000     60.6270      1.6196      1.4940      2.5274     22.0716      8.7413     93.1096    180.5571
   3761.0000     67.1056      1.2444      1.1335      2.5021     24.5926      8.7546     96.0751    173.6398
   3761.5000     75.2984      1.1774      1.0946      2.4840     27.4482      8.7531     95.5491   -999.2500
   3762.0000     71.2953      1.3543      1.2812      2.5116     26.6724      8.7450     94.1751   -999.2500
   3762.5000     66.6513      1.4120      1.3370      2.5073     24.6232      8.7467     97.0267   -999.2500
   3763.0000     66.5954      1.1971      1.1087      2.5034     29.2657      8.7596     99.7956   -999.2500
   3763.5000     77.9386      1.0254      0.9422      2.4774     29.8108      8.7650     98.3522   -999.2500
   3764.0000     81.7061      1.1463      1.0528      2.4898     27.9324      8.7650     96.7561   -999.2500
   3764.5000     73.0097      1.1383      1.0539      2.4844     27.6386      8.7477     94.7065   -999.2500
   3765.0000     66.0275      1.4759      1.3946      2.4930     26.2868      8.7477     93.4343   -999.2500
   3765.5000     68.9067      1.4195      1.3322      2.4842     26.6929      8.7531     93.3665   -999.2500
   3766.0000     69.7509      1.3253      1.2217      2.5028     25.1244      8.7665     94.7754   -999.2500
   3766.5000     67.9954      1.1909      1.0989      2.5014     27.0776      8.7679     98.1954   -999.2500
   3767.0000     70.4145      1.1867      1.0793      2.5001     28.9406      8.7611     96.1150   -999.2500
   3767.5000     73.5232      1.2250      1.1179      2.4943     27.7473      8.7428     92.6611   -999.2500
   3768.0000     72.8927      1.5009      1.3935      2.5016     21.1912      8.7477     92.6995   -999.2500
   3768.5000     72.4815      1.3797      1.2668      2.5068     23.5219      8.7531     94.4138   -999.2500
   3769.0000     71.7452      1.3030      1.1907      2.4902     25.7433      8.7477     93.4273   -999.2500
   3769.5000     67.4483      1.3777      1.2586      2.4977     25.1504      8.7254     91.6285   -999.2500
   3770.0000     70.4922      1.4325      1.3356      2.4930     24.3406      8.6742     90.3811   -999.2500
   3770.5000     63.0813      1.8151      1.6512      2.5394     22.9352      8.7269     92.3889   -999.2500
   3771.0000     65.9961      1.3595      1.2646      2.4963     24.6321      8.7106     92.1994   -999.2500
   3771.5000     67.0041      1.4901      1.3545      2.5001     24.1024      8.7373     95.7374   -999.2500
   3772.0000     77.4560      1.2491      1.1331      2.5046     26.8070      8.7278     97.4569   -999.2500
   3772.5000     77.5782      1.1036      0.9888      2.4938     31.3894      8.7136     94.9363   -999.2500
   3773.0000     67.7132      1.4359      1.2907      2.5136     26.7441      8.7546     99.3080   -999.2500
   3773.5000     80.3746      1.0793      0.9720      2.4778     29.5114      8.7477     99.0764   -999.2500
