~Version Information
 VERS.           2.0     :   CWLS log ASCII Standard -VERSION 2.0
 WRAP.           NO      :   One line per depth step
~Well Information
#MNEM.UNIT      VALUE/NAME              DESCRIPTION
#--------     --------------            ---------------------
 STRT.M           555.0000              :START DEPTH
 STOP.M          4683.0000              :STOP DEPTH
 STEP.M             0.5000              :STEP
 NULL.             -999.25              :NULL VALUE
 COMP.    Woodside                      :COMPANY
 WELL.    Torosa 1                      :WELL
 FLD .    Exploration                   :FIELD
 LOC .                                  :LOCATION
 PROV.                                  :PROVINCE
 SRVC.    Sperry/Schlumberger /Occam    :SERVICE COMPANY
 CTRY.                                  :COUNTRY
 DATE.    15/12/2006 / 2009             :LOG DATE
 UWI .                                  :UNIQUE WELL ID
 LATI.DEG -13/52/02.03                   : Latitude
 LONG.DEG 122/04/09.59                  : Longitude
 GDAT.                                  : Geodetic Datum
~PARAMETER INFORMATION
~CURVE INFORMATION
#MNEM    .UNIT     API CODE             Curve Description
 DEPT    .M                             :   Along hole depth
 GR      .API                           :   Gamma Ray combined
 RS      .OHMM                          :   Shallow Resistivity composite curve
 RD      .OHMM                          :   Deep Resistivity composite curve
 RHOZ    .g/cm3                         :   Formation Density
 HTNP    .PU                            :   Thermal Neutron Porosity
 HDAR    .IN                            :   Hole Diameter from Area
 BATC    .USEC/F                        :   Compressional Sonic
 DTS     .US/FT                         :   Shear Slowness 1
#
# Curve              Start        Stop     Minimum     Maximum
# ------------------------------------------------------------
#
# GR              555.0000   4683.0000      7.5740    694.8002
# RS              555.0000   4681.0000      0.0736   2298.5820
# RD              555.0000   4681.0000      0.3113 100000.0000
# RHOZ           3577.0000   4666.0000      1.9503      2.9209
# HTNP           3460.5000   4665.0000      1.8357     62.5261
# HDAR           3525.0000   4674.5000      5.2666     12.4949
# BATC            641.0000   4654.0000     48.8589    170.6566
# DTS            2485.5000   4645.5000     90.6426    183.8240
# ******************************
# 
# ************************************************************
#
# #
# LOCN 	LAT:	13o 52' 02.03" S			WELL NAME: 	Torosa 1
# 	LONG:	122o 04' 09.59" E
# 	EASTING: 	399434.9m E	NORTHING: 	8466761.6m N	ZONE:	51	GDA 94
# SEISMIC REF:	Torosa 3D	INLINE:  1583	XLINE:  3768	STATUS:	P & A (gas)	
# ELEVN SF:	- 476.3m LAT 	DATUM KB:	22.9m	OPERATOR:	Woodside
# BASIN :		Browse	TOTAL D:	4685m	PARTNERS:	BP, BHPB, Shell
# 						Chevron
# SPUD DATE:	05/11/2006	COMPLN DATE:	29/12/2006	LEASE:	WA-30-R
# TARGET:	Field appraisal			DRILLER:  	Maersk
# DATA SOURCE:	WCR, logs			RIG:	Nan Hai VI
# #
# HOLE AND CASING DATA:
# 	Hole 	Hole	Casing	Casing 	Weight	Grade	Joints	Cement 	TOC
# 	Size	Depth	Size	Depth	lb/ft
# 	36”	557.5m	30”	555.8m	310	X-52	3	1342 sx G at SG 1.9 	Seafloor
# 	12.25”	3533m	9 5/8”	3526.7m	47	L-80	242	325 sx HTB at SG 1.9	
# 	8.5”	4685m
# #
# TEMPERATURES:	See also temperatures reported on MDT sampling
# 	Logger's Depth	Temp	Log Type	Time since circ	Circ Time
# 	4680m	129 deg C	PEX-HRLA	16 hrs 45 mins	4.5 hrs
# 		130 deg C	HNGS	34 hrs 40 mins
# 		140.7 deg C	MDT-GR	73 hrs 9 mins	
# 		144.5 deg C	MDT-GR	116 hrs 50 mins
# #
# MUD PROPERTIES:
# Depth (L)	Fluid Type	SG	Vis.	pH	Fl cc	Rm	Rmf	Rmc
# 4685m	Aquadrill WBM	1.21	58	8.1	4.2	0.354 at 31.3 deg C	0.272 at 31.2 deg C	0.52 at 31.3 deg C
# 		KCl	8%		Barite	5.53%
# #
#DEVIATION SURVEY:	(Sperry LWD)
#	Depth	Dev (deg)	Azimuth (deg)	Depth	Dev (deg)	Azimuth (deg)
#	499.2m	0.00	0.00	579.8m	0.33	190.34
#	635.7m	0.45	196.81	663.9m	0.43	200.92
#	720.8m	0.45	184.80	749.3m	0.40	178.37
#	778.1m	0.48	213.43	806.7m	0.37	217.84
#	835.4m	0.41	220.39	864.1m	0.50	207.37
#	892.8m	0.55	191.29	921.5m	0.43	210.49
#	950.4m	0.37	216.12	978.9m	0.67	192.70
#	1007.2m	0.44	157.04	1035.3m	0.26	179.50
#	1091.2m	0.72	160.83	1119.0m	0.99	167.96
#	1146.6m	1.24	165.45	1174.5m	0.92	173.68
#	1202.3m	1.17	163.94	1230.4m	1.22	171.50
#	1286.4m	1.11	175.97	1314.8m	1.13	176.31
#	1343.1m	1.05	177.72	1371.5m	1.33	175.92
#	1399.9m	1.60	188.03	1428.5m	1.63	191.10
#	1457.4m	1.49	184.45	1486.5m	1.51	186.17
#	1515.2m	1.48	194.93	1543.7m	1.54	207.86
#	1571.7m	1.56	210.90	1599.2m	1.68	210.91
#	1627.6m	1.86	212.17	1655.0m	1.42	215.91
#	1681.6m	0.91	225.99	1710.6m	0.82	242.55
#	1768.8m	0.55	275.33	1797.8m	0.45	242.11
#	1826.3m	0.12	234.81	1883.0m	0.25	216.30
#	1910.7m	0.14	218.29	1938.5m	0.47	261.92
#	1965.7m	0.47	265.81	1992.9m	0.44	269.76
#	2022.3m	0.91	352.01	2051.5m	1.39	10.16
#	2079.1m	1.76	17.08	2105.4m	1.56	12.11
#	2134.4m	1.71	15.62	2164.0m	1.74	16.08
#	2193.3m	1.77	20.50	2220.5m	1.87	18.52
#	2247.3m	1.92	16.38	2275.8m	1.74	8.65
#	2304.7m	1.20	357.09	2333.8m	1.15	351.73
#	2362.0m	1.14	351.42	2389.8m	1.36	346.44
#	2417.5m	1.45	350.69	2445.0m	1.06	339.39
#	2473.4m	1.20	352.35	2503.5m	1.36	353.01
#	2531.6m	1.24	342.88	2554.7m	1.10	345.87
#	2587.3m	1.16	359.05	2616.2m	1.10	348.58
#	2643.7m	0.86	342.80	2672.0m	1.00	350.98
#	2700.6m	0.69	341.90	2728.5m	0.81	348.53
#	2757.0m	0.80	353.78	2784.7m	0.90	352.41
#	2813.0m	0.83	331.28	2841.2m	0.75	337.02
#	2870.0m	0.79	327.68	2900.7m	1.00	328.04
#	2955.7m	0.96	351.55	2985.0m	0.92	347.16
#	3012.4m	0.86	0.75	3039.7m	0.66	348.87
#	3068.2m	1.06	356.49	3098.6m	0.81	355.08
#	3124.7m	0.97	10.60	3154.7m	0.83	358.70
#	3181.3m	1.02	353.15	3209.6m	0.94	12.08
#	3239.2m	1.32	4.55	3267.3m	1.27	2.33
#	3293.3m	0.94	15.02	3323.7m	1.23	3.43
#	3351.7m	0.88	6.02	3383.7m	1.08	4.83
#	3410.2m	0.75	3.07	3439.4m	0.66	19.95
#	3466.4m	0.87	11.07	3495.6m	1.02	16.73
#	3599.4m	1.47	12.38	3599.4m	1.47	12.38
#	3629.3m	1.60	16.10	3685.7m	1.54	6.45
#	3712.9m	1.62	13.25	3770.8m	1.62	356.79
#	3779.4m	1.72	359.60	3881.6m	1.92	1.29
#	3910.5m	2.29	349.77	3941.5m	2.60	349.42
#	3996.8m	2.80	344.29	4023.5m	2.77	345.16
#	4081.2m	2.45	341.88	4110.3m	2.43	341.51
#	4138.6m	2.21	342.63	4166.0m	2.08	352.68
#	4193.1m	1.68	353.00	4220.6m	1.80	345.27
#	4250.2m	1.83	335.86	4277.6m	1.87	343.08
#	4304.8m	1.91	339.15	4333.1m	1.80	342.44
#	4361.4m	1.89	335.11	4389.5m	1.78	332.23
#	4417.7m	1.70	337.15	4446.0m	1.97	336.90
#	4474.8m	2.80	325.02	4503.4m	4.53	320.41
#	4531.2m	5.96	316.69	4559.1m	7.72	317.69
#	4644.7m	12.78	313.86	4671.9m	13.97	313.85
#
##VELOCITY SURVEY:	(Schlumberger and Read Well Services)	OWT, vertically corrected rel to MSL
#	Depth	TVD SS	OWT(sec)	Depth	TVD SS	OWT(sec)
#	2870.7m	2849.5m	1.0773	2885.8m	2864.6m	1.0802
#	2900.9m	2879.7m	1.0832	2916.0m	2894.8m	1.0858
#	2931.2m	2909.9m	1.0885	2946.3m	2925.1m	1.0912
#	2961.4m	2940.2m	1.0943	2976.5m	2955.3m	1.0977
#	2991.7m	2970.4m	1.1014	3006.8m	2985.6m	1.1048
#	3021.9m	3000.7m	1.1086	3037.0m	3015.8m	1.1123
#	3052.2m	3030.9m	1.1157	3067.3m	3046.1m	1.1185
#	3082.4m	3061.2m	1.1216	3097.5m	3076.3m	1.1250
#	3112.6m	3091.4m	1.1292	3127.8m	3106.5m	1.1332
#	3142.9m	3121.6m	1.1370	3158.0m	3136.8m	1.1399
#	3173.0m	3151.8m	1.1429	3188.1m	3166.9m	1.1458
#	3203.2m	3182.0m	1.1489	3218.4m	3197.1m	1.1520
#	3233.5m	3212.3m	1.1550	3248.6m	3227.4m	1.1579
#	3263.8m	3242.5m	1.1608	3278.9m	3257.6m	1.1637
#	3294.0m	3272.8m	1.1665	3309.2m	3287.9m	1.1694
#	3324.3m	3303.0m	1.1723	3339.4m	3318.1m	1.1752
#	3355.0m	3333.7m	1.1781	3370.1m	3348.9m	1.1811
#	3385.3m	3364.0m	1.1841	3400.4m	3379.1m	1.1872
#	3415.0m	3393.7m	1.1901	3430.1m	3408.8m	1.1931
#	3445.2m	3423.9m	1.1962	3460.4m	3439.1m	1.1993
#	3475.5m	3454.3m	1.2025	3490.7m	3469.4m	1.2058
#	3505.8m	3484.5m	1.2093	3520.9m	3499.6m	1.2129
#	3535.9m	3514.6m	1.2165	3551.1m	3529.8m	1.2203
#	3566.2m	3544.9m	1.2243	3581.3m	3560.0m	1.2283
#	3596.4m	3575.1m	1.2324	3611.5m	3590.2m	1.2366
#	3626.6m	3605.3m	1.2408	3641.8m	3620.4m	1.2446
#	3656.9m	3635.6m	1.2482	3672.0m	3650.7m	1.2517
#	3687.1m	3665.8m	1.2555	3702.3m	3680.9m	1.2592
#	3717.4m	3696.0m	1.2630	3732.5m	3711.1m	1.2670
#	3747.6m	3726.3m	1.2712	3762.8m	3741.4m	1.2755
#	3777.8m	3756.4m	1.2799	3792.9m	3771.5m	1.2842
#	3808.0m	3786.6m	1.2884	3823.1m	3801.7m	1.2926
#	3838.4m	3817.0m	1.2968	3853.5m	3832.1m	1.3009
#	3868.7m	3847.2m	1.3050	3883.8m	3862.3m	1.3092
#	3898.8m	3877.3m	1.3132	3913.9m	3892.4m	1.3172
#	3929.0m	3907.5m	1.3211	3944.1m	3922.6m	1.3248
#	3959.3m	3937.8m	1.3283	3974.4m	3952.9m	1.3317
#	3989.5m	3968.0m	1.3352	4004.6m	3983.1m	1.3393
#	4019.8m	3998.3m	1.3439	4035.0m	4013.4m	1.3490
#	4050.1m	4028.5m	1.3540	4065.2m	4043.6m	1.3589
#	4080.3m	4058.7m	1.3637	4095.4m	4073.8m	1.3685
#	4110.6m	4088.9m	1.3732	4125.7m	4104.0m	1.3778
#	4140.8m	4119.1m	1.3822	4155.9m	4134.2m	1.3865
#	4171.0m	4149.3m	1.3909	4186.1m	4164.4m	1.3952
#	4201.2m	4179.5m	1.3996	4216.4m	4194.6m	1.4039
#	4231.5m	4209.7m	1.4083	4246.6m	4224.8m	1.4124
#	4261.7m	4240.0m	1.4163	4276.9m	4255.1m	1.4199
#	4292.0m	4270.2m	1.4235	4307.1m	4285.3m	1.4271
#	4322.2m	4300.4m	1.4305	4337.3m	4315.5m	1.4338
#	4352.4m	4330.6m	1.4372	4367.6m	4345.8m	1.4405
#	4382.7m	4360.9m	1.4438	4397.8m	4376.0m	1.4470
#	4413.0m	4391.1m	1.4503	4428.1m	4406.2m	1.4535
#	4443.2m	4421.4m	1.4565	4458.4m	4436.5m	1.4594
#	4473.5m	4451.6m	1.4621	4488.6m	4466.7m	1.4647
#	4503.6m	4481.7m	1.4674	4518.8m	4496.8m	1.4701
#	4533.9m	4511.8m	1.4730	4549.0m	4526.8m	1.4759
#	4564.2m	4541.8m	1.4790	4579.3m	4556.7m	1.4821
#	4594.4m	4571.5m	1.4851	4609.5m	4586.4m	1.4880
#	4618.9m	4595.7m	1.4900	4634.1m	4610.5m	1.4933
#	4649.2m	4625.3m	1.4966	4664.3m	4640.1m	1.4999
#
# ************************************************************
#    This LAS file was created by Occam Technology Pty. Ltd. 
# from a desampled subset of the full well log data. 
# The header data is extracted from a more detailed digital text  
# summary whicc accompanies the full log dataset.
#    We supply the data on a 'best effort' basis.  We cannot
# control either the original data acquisition or the application
# of the data, and therefore we cannot be held responsible for
# the consequences of any interpretations based on the data.  We
# urge purchasers to apply normal quality control procedures to
# the data before use for any quantitative interpretative
# procedures.
# ************************************************************
~A      DEPT          GR          RS          RD        RHOZ        HTNP        HDAR        BATC         DTS
# ...
   4625.0000    102.6116      5.2240      5.9247      2.6720     22.0005      8.6602     71.2710   -999.2500
   4625.5000     80.5773      8.9280     10.5559      2.7265     15.5447      8.6053     66.2984    128.0829
   4626.0000     84.0545      9.5971     11.3839      2.7100     15.7928      8.6134     65.1014    121.4036
   4626.5000     87.6211     11.6938     14.1240      2.7055     15.1211      8.6486     64.4604    119.0394
   4627.0000     79.1118     11.6510     13.7883      2.7040     13.6360      8.6486     65.0990    118.9016
   4627.5000     97.3989      7.7928      8.8355      2.6776     15.6637      8.6405     66.5700    123.0534
   4628.0000     85.5848      9.5331     11.2609      2.6758     14.4668      8.6486     65.4980    120.9508
   4628.5000     82.8613     10.1854     13.2123      2.6830     16.2310      8.6365     65.4314   -999.2500
   4629.0000     89.6577      8.3978     10.8094      2.6964     16.2564      8.6084     67.4180   -999.2500
   4629.5000     99.6480      8.1742     10.3885      2.6777     19.3407      8.6040     70.8893   -999.2500
   4630.0000    114.4569      6.4549      7.5073      2.6952     25.9963      8.6002     74.7985   -999.2500
   4630.5000    135.4623      5.2381      5.7923      2.6543     29.7371      8.7552     80.5108   -999.2500
   4631.0000    154.4798      4.7106      4.8190      2.6328     33.9194      8.7007     82.6938   -999.2500
   4631.5000    154.3129      4.5500      4.2775      2.6230     33.7274      8.7669     82.6241   -999.2500
   4632.0000    145.0472      4.6120      4.3994      2.6071     32.3205      8.7708     75.9572   -999.2500
   4632.5000    104.5728     15.2179     17.7802      2.7032     15.4101      8.6482     62.2685   -999.2500
   4633.0000     85.4220     46.2015     88.4059      2.7122      4.3794      8.9700     58.0526   -999.2500
   4633.5000     68.0226    121.7534    955.3450      2.6532      4.5244      9.1937     53.8154    104.8858
   4634.0000     63.0425    102.6403    419.8383      2.6161      5.0241      9.2516     52.3291    100.0296
   4634.5000     65.2293     63.7168    429.8283      2.6492      4.6978      9.1820     50.3167    101.9841
   4635.0000     64.0564     70.2847    108.9799      2.7347      5.6365      9.3588     49.6951     98.4463
   4635.5000     69.0236     35.5692     84.5686      2.6641      7.1030      8.7427     55.8228    101.4538
   4636.0000     98.6504     13.5546     25.5054      2.6883     12.1844      8.8989     58.9670    109.6236
   4636.5000    122.7406     11.1498     17.2344      2.7047     14.1363      8.5899     66.8004    123.2213
   4637.0000    122.3634      8.8842     10.6913      2.6854     21.5897      8.6294     71.9165   -999.2500
   4637.5000    137.5437      7.6170      8.4964      2.6688     28.9958      8.6886     77.5416   -999.2500
   4638.0000    124.8832      6.2846      6.9008      2.6481     30.8862      8.7084     75.1763   -999.2500
   4638.5000     69.4745     33.3461     84.9956      2.7151     14.1950      8.6876     68.1857   -999.2500
   4639.0000     63.5485     71.7617    515.7624      2.6351      4.9361      9.0647     56.8533   -999.2500
   4639.5000     68.7592     54.8976    155.1675      2.7280      7.6553      8.9820     49.6584     98.2710
   4640.0000     65.8400     48.3721    124.8278      2.7094      6.7694      8.8151     52.8003    101.7320
   4640.5000     72.2669     47.4047    108.1555      2.7225      4.5267      8.7084     55.8330    103.1526
   4641.0000     75.4107     20.7390     39.6177      2.7233      8.3709      8.6692     62.7825    114.8381
   4641.5000     97.6770      7.5215     10.5737      2.6735     10.6462      8.6967     73.4100   -999.2500
   4642.0000    145.7771      7.3389      9.9725      2.6793     26.0724      8.6614     77.3988   -999.2500
   4642.5000    153.7669      5.5679      6.0906      2.6754     32.6469      8.7921     81.5238   -999.2500
   4643.0000    147.1178      5.8858      6.5864      2.6174     32.0761      8.8356     80.1366   -999.2500
   4643.5000     58.1367     31.4676     63.5469      2.6292     13.6994      8.7563     67.9886   -999.2500
   4644.0000     61.8782     86.9172    199.1359      2.5722      4.6763      8.9692     58.3379   -999.2500
   4644.5000     59.7771     57.6563     93.2332      2.6281      6.6448      9.1453     50.6619    103.9515
   4645.0000     74.2569     50.0415     84.8275      2.6475      8.0370      8.9343     50.0251    103.5800
   4645.5000     93.3872     25.4565     39.6960      2.6990      9.5569      8.8393     61.3016    113.4952
   4646.0000    119.2451     12.0016     15.6436      2.6865     14.7027      8.7090     68.1015   -999.2500
   4646.5000    119.9030      8.7899      9.6744      2.6945     25.3041      8.7090     75.8491   -999.2500
   4647.0000    123.4538      8.1343      8.8851      2.6867     25.0191      8.7090     77.5613   -999.2500
   4647.5000     70.9867      6.2876      7.6591      2.6487     27.2462      8.7130     71.9330   -999.2500
   4648.0000     75.8768     25.6284     52.2060      2.6928     10.2770      8.7129     58.3662   -999.2500
   4648.5000    101.5164     21.0918     30.6981      2.7072      7.9620      8.7485     61.0520   -999.2500
   4649.0000    131.8131     11.0265     13.5525      2.6831     13.8615      8.6655     70.3243   -999.2500
   4649.5000    138.0194      6.7385      7.7049      2.6602     26.1569      8.7090     77.2321   -999.2500
   4650.0000    149.7048      5.7518      6.6157      2.6676     23.6587      8.7084     79.4078   -999.2500
   4650.5000    157.7929      5.0420      5.9572      2.6839     24.4193      8.7563     80.7078   -999.2500
   4651.0000    160.9763      5.1445      6.0817      2.6672     30.5076      8.8000     81.8770   -999.2500
   4651.5000    152.5504      4.7101      5.6994      2.6467     29.7248      8.8039     82.5747   -999.2500
   4652.0000    154.7616      4.9572      5.9907      2.6725     29.7460      8.7326     81.6122   -999.2500
   4652.5000    162.9701      4.7791      5.8357      2.6563     30.3219      8.7483     81.8643   -999.2500
   4653.0000    161.0100      4.5701      5.5537      2.6777     29.1914      8.7201     82.5599   -999.2500
   4653.5000    153.4006      4.8268      5.8444      2.7035     30.6703      8.7914     82.3704   -999.2500
   4654.0000    136.5053      5.5229      6.7073      2.6461     28.7150      8.8071     80.3989   -999.2500
   4654.5000    149.8397      5.6544      6.8103      2.6523     27.9802      8.7910   -999.2500   -999.2500
   4655.0000    148.4725      5.1999      5.9817      2.6460     29.1342      8.7310   -999.2500   -999.2500
   4655.5000    150.4144      5.4983      6.0591      2.6517     28.3926      8.7027   -999.2500   -999.2500
   4656.0000    154.9879      4.9093      5.3384      2.6404     26.1042      8.7552   -999.2500   -999.2500
   4656.5000    151.3428      5.1805      5.5727      2.6605     27.7365      8.7896   -999.2500   -999.2500
   4657.0000    148.2991      5.2077      5.3772      2.6614     30.9060      8.9431   -999.2500   -999.2500
   4657.5000    102.2057      5.4627      5.6805      2.6590     29.5959      8.8846   -999.2500   -999.2500
   4658.0000     81.6451     19.3262     27.0776      2.7121     19.2216      9.0719   -999.2500   -999.2500
   4658.5000    101.1180     12.7063     17.2371      2.6996     12.9054      8.7351   -999.2500   -999.2500
   4659.0000    119.4515      8.0194      9.6324      2.6676     14.8829      8.7914   -999.2500   -999.2500
   4659.5000    128.3301      5.2392      5.5299      2.6682     18.6426      8.7669   -999.2500   -999.2500
   4660.0000    136.2864      5.1873      5.5308      2.6733     25.3402      8.7669   -999.2500   -999.2500
   4660.5000    157.9307      4.9251      5.1281      2.6627     26.1083      8.6482   -999.2500   -999.2500
   4661.0000    156.6731      5.0420      4.8683      2.6404     28.8491      8.7374   -999.2500   -999.2500
   4661.5000    143.4429      5.2870      5.0586      2.6408     29.2559      8.7669   -999.2500   -999.2500
